{
"type": "FeatureCollection",
"name": "EU_education7",
"crs": { "type": "name", "properties": { "name": "urn:ogc:def:crs:OGC:1.3:CRS84" } },
"features": [
{ "type": "Feature", "properties": { "OBJECTID": 74197, "Shape": null, "id": "NL_09SQ", "name": "CHRISTELIJKE CONSTANTIJNSCHOOL", "lat": 52.0791962, "lon": 4.8569473, "city": "WOERDEN", "public_private": null }, "geometry": { "type": "Point", "coordinates": [ 4.856947300000058, 52.079196200000069 ] } },
{ "type": "Feature", "properties": { "OBJECTID": 74198, "Shape": null, "id": "NL_11JD", "name": "MMIXX", "lat": 52.0802945, "lon": 4.4033006, "city": "LEIDSCHENDAM", "public_private": null }, "geometry": { "type": "Point", "coordinates": [ 4.403300600000023, 52.080294500000036 ] } },
{ "type": "Feature", "properties": { "OBJECTID": 74199, "Shape": null, "id": "NL_09ST", "name": "IKC BLINK", "lat": 51.9207281, "lon": 4.390448, "city": "SCHIEDAM", "public_private": null }, "geometry": { "type": "Point", "coordinates": [ 4.390448, 51.920728100000076 ] } },
{ "type": "Feature", "properties": { "OBJECTID": 74200, "Shape": null, "id": "NL_09SW", "name": "DE REGENBOOG", "lat": 51.8142869, "lon": 4.6828238, "city": "DORDRECHT", "public_private": null }, "geometry": { "type": "Point", "coordinates": [ 4.682823800000051, 51.81428690000007 ] } },
{ "type": "Feature", "properties": { "OBJECTID": 74201, "Shape": null, "id": "NL_09SX", "name": "CHRISTELIJKE BASISSCHOOL DE REGENBOOG", "lat": 52.0035998, "lon": 5.460674, "city": "AMERONGEN", "public_private": null }, "geometry": { "type": "Point", "coordinates": [ 5.460674, 52.003599800000075 ] } },
{ "type": "Feature", "properties": { "OBJECTID": 74202, "Shape": null, "id": "NL_09TB", "name": "DE BRON", "lat": 52.2859362, "lon": 6.8290915, "city": "HENGELO OV", "public_private": null }, "geometry": { "type": "Point", "coordinates": [ 6.829091500000061, 52.285936200000037 ] } },
{ "type": "Feature", "properties": { "OBJECTID": 74203, "Shape": null, "id": "NL_09TC", "name": "IKC NOVA VOOR REGULIER ONDERWIJS", "lat": 51.9628312, "lon": 4.548575, "city": "ROTTERDAM", "public_private": null }, "geometry": { "type": "Point", "coordinates": [ 4.548575, 51.962831200000039 ] } },
{ "type": "Feature", "properties": { "OBJECTID": 74204, "Shape": null, "id": "NL_09TE", "name": "DS HARMEN DOORNVELDSCHOOL", "lat": 52.6468104, "lon": 6.1951369, "city": "STAPHORST", "public_private": null }, "geometry": { "type": "Point", "coordinates": [ 6.195136900000023, 52.646810400000049 ] } },
{ "type": "Feature", "properties": { "OBJECTID": 74205, "Shape": null, "id": "NL_09TG", "name": "BASISSCHOOL DE LUITHORST", "lat": 51.8318135, "lon": 5.8014481, "city": "NIJMEGEN", "public_private": null }, "geometry": { "type": "Point", "coordinates": [ 5.801448100000073, 51.831813500000067 ] } },
{ "type": "Feature", "properties": { "OBJECTID": 74206, "Shape": null, "id": "NL_09TH", "name": "CHRISTELIJKE JENAPLANSCHOOL PIERSON", "lat": 52.0501654, "lon": 6.3133526, "city": "HENGELO GLD", "public_private": null }, "geometry": { "type": "Point", "coordinates": [ 6.31335260000003, 52.050165400000026 ] } },
{ "type": "Feature", "properties": { "OBJECTID": 74207, "Shape": null, "id": "NL_09TI", "name": "BEEKPARK", "lat": 52.2992893, "lon": 6.7704046, "city": "BORNE", "public_private": null }, "geometry": { "type": "Point", "coordinates": [ 6.770404600000063, 52.299289300000055 ] } },
{ "type": "Feature", "properties": { "OBJECTID": 74208, "Shape": null, "id": "NL_09TJ", "name": "BASISSCHOOL DE ZONHEUVEL", "lat": 52.0564804, "lon": 5.2904771, "city": "DRIEBERGEN-RIJSENBURG", "public_private": null }, "geometry": { "type": "Point", "coordinates": [ 5.290477100000032, 52.056480400000055 ] } },
{ "type": "Feature", "properties": { "OBJECTID": 74209, "Shape": null, "id": "NL_09TM", "name": "DE STEENUIL", "lat": 52.2725663, "lon": 6.1695149, "city": "DEVENTER", "public_private": null }, "geometry": { "type": "Point", "coordinates": [ 6.169514900000024, 52.272566300000051 ] } },
{ "type": "Feature", "properties": { "OBJECTID": 74210, "Shape": null, "id": "NL_09TP", "name": "WILHELMINASCHOOL", "lat": 51.8893516, "lon": 4.4667545, "city": "ROTTERDAM", "public_private": null }, "geometry": { "type": "Point", "coordinates": [ 4.466754500000036, 51.889351600000055 ] } },
{ "type": "Feature", "properties": { "OBJECTID": 74211, "Shape": null, "id": "NL_09TV", "name": "GEREFORMEERDE BASISSCHOOL DS G DOEKES", "lat": 52.5666569, "lon": 6.6016457, "city": "HARDENBERG", "public_private": null }, "geometry": { "type": "Point", "coordinates": [ 6.601645700000063, 52.566656900000055 ] } },
{ "type": "Feature", "properties": { "OBJECTID": 74212, "Shape": null, "id": "NL_09TX", "name": "WSKO BASISSCHOOL BLINK!", "lat": 52.00130155, "lon": 4.156764131, "city": "'S-GRAVENZANDE", "public_private": null }, "geometry": { "type": "Point", "coordinates": [ 4.156764131000045, 52.001301550000051 ] } },
{ "type": "Feature", "properties": { "OBJECTID": 74213, "Shape": null, "id": "NL_09TZ", "name": "WILLEM DE ZWIJGERSCHOOL", "lat": 51.8432976, "lon": 4.650607, "city": "HENDRIK-IDO-AMBACHT", "public_private": null }, "geometry": { "type": "Point", "coordinates": [ 4.650607, 51.843297600000028 ] } },
{ "type": "Feature", "properties": { "OBJECTID": 74214, "Shape": null, "id": "NL_09UA", "name": "CHRISTELIJKE BASISSCHOOL DE BRINK", "lat": 52.1367325, "lon": 5.4299141, "city": "LEUSDEN", "public_private": null }, "geometry": { "type": "Point", "coordinates": [ 5.429914100000076, 52.136732500000051 ] } },
{ "type": "Feature", "properties": { "OBJECTID": 74215, "Shape": null, "id": "NL_09UD", "name": "CHRISTELIJKE BASISSCHOOL DE SPRANKEL", "lat": 53.25845985, "lon": 5.77400075, "city": "STIENS", "public_private": null }, "geometry": { "type": "Point", "coordinates": [ 5.774000750000027, 53.258459850000065 ] } },
{ "type": "Feature", "properties": { "OBJECTID": 74216, "Shape": null, "id": "NL_09UE", "name": "DS G H KERSTENSCHOOL", "lat": 51.8765094, "lon": 4.597239, "city": "RIDDERKERK", "public_private": null }, "geometry": { "type": "Point", "coordinates": [ 4.597239, 51.876509400000032 ] } },
{ "type": "Feature", "properties": { "OBJECTID": 74217, "Shape": null, "id": "NL_09UG", "name": "CHRISTELIJKE BASISSCHOOL DE FONTEIN", "lat": 52.44772, "lon": 6.62162, "city": "WESTERHAAR-VRIEZENV WIJK", "public_private": null }, "geometry": { "type": "Point", "coordinates": [ 6.62162, 52.44772 ] } },
{ "type": "Feature", "properties": { "OBJECTID": 74218, "Shape": null, "id": "NL_09UH", "name": "BASISSCHOOL KIENEHOEF", "lat": 51.5742172, "lon": 5.4560012, "city": "SINT-OEDENRODE", "public_private": null }, "geometry": { "type": "Point", "coordinates": [ 5.45600120000006, 51.574217200000078 ] } },
{ "type": "Feature", "properties": { "OBJECTID": 74219, "Shape": null, "id": "NL_09UI", "name": "ROOMS KATHOLIEKE BASISSCHOOL DE SCHAKEL", "lat": 52.1643491, "lon": 4.537410333, "city": "LEIDERDORP", "public_private": null }, "geometry": { "type": "Point", "coordinates": [ 4.537410333000025, 52.164349100000038 ] } },
{ "type": "Feature", "properties": { "OBJECTID": 74220, "Shape": null, "id": "NL_09UJ", "name": "HERVORMDE BASISSCHOOL 'T KOMPAS", "lat": 51.8084553, "lon": 4.8927952, "city": "WERKENDAM", "public_private": null }, "geometry": { "type": "Point", "coordinates": [ 4.892795200000023, 51.808455300000048 ] } },
{ "type": "Feature", "properties": { "OBJECTID": 74221, "Shape": null, "id": "NL_09UK", "name": "CHRISTELIJKE BASISSCHOOL DE WINGERD", "lat": 51.8625953, "lon": 4.605352, "city": "RIDDERKERK", "public_private": null }, "geometry": { "type": "Point", "coordinates": [ 4.605352, 51.862595300000066 ] } },
{ "type": "Feature", "properties": { "OBJECTID": 74222, "Shape": null, "id": "NL_09UL", "name": "PROTESTANTS CHRISTELIJKE SCHOOL DE KROEVENDONK", "lat": 51.5173891, "lon": 4.4683669, "city": "ROOSENDAAL", "public_private": null }, "geometry": { "type": "Point", "coordinates": [ 4.468366900000035, 51.517389100000059 ] } },
{ "type": "Feature", "properties": { "OBJECTID": 74223, "Shape": null, "id": "NL_09UN", "name": "DR W VD BERGHSCHOOL", "lat": 52.1881155, "lon": 5.6065691, "city": "VOORTHUIZEN", "public_private": null }, "geometry": { "type": "Point", "coordinates": [ 5.606569100000058, 52.188115500000038 ] } },
{ "type": "Feature", "properties": { "OBJECTID": 74224, "Shape": null, "id": "NL_09UO", "name": "BASISSCHOOL DE BORNE", "lat": 51.5457093, "lon": 5.0456878, "city": "TILBURG", "public_private": null }, "geometry": { "type": "Point", "coordinates": [ 5.045687800000053, 51.545709300000055 ] } },
{ "type": "Feature", "properties": { "OBJECTID": 74225, "Shape": null, "id": "NL_09UQ", "name": "DE ICHTHUS", "lat": 52.4947969, "lon": 6.1011953, "city": "ZWOLLE", "public_private": null }, "geometry": { "type": "Point", "coordinates": [ 6.101195300000029, 52.49479690000004 ] } },
{ "type": "Feature", "properties": { "OBJECTID": 74226, "Shape": null, "id": "NL_09US", "name": "FRANCISCUSSCHOOL", "lat": 51.36671835, "lon": 5.221400215, "city": "BLADEL", "public_private": null }, "geometry": { "type": "Point", "coordinates": [ 5.221400215000074, 51.366718350000042 ] } },
{ "type": "Feature", "properties": { "OBJECTID": 74227, "Shape": null, "id": "NL_09UT", "name": "NASSAUSCHOOL", "lat": 52.473826, "lon": 6.0228942, "city": "HATTEMERBROEK", "public_private": null }, "geometry": { "type": "Point", "coordinates": [ 6.022894200000053, 52.473826 ] } },
{ "type": "Feature", "properties": { "OBJECTID": 74228, "Shape": null, "id": "NL_09UU", "name": "ROOMS KATHOLIEKE BASISSCHOOL DE TOERMALIJN", "lat": 51.53397615, "lon": 4.289225315, "city": "HALSTEREN", "public_private": null }, "geometry": { "type": "Point", "coordinates": [ 4.289225315000067, 51.533976150000058 ] } },
{ "type": "Feature", "properties": { "OBJECTID": 74229, "Shape": null, "id": "NL_09UW", "name": "KONINGIN JULIANASCHOOL", "lat": 52.1959282, "lon": 4.9037807, "city": "WILNIS", "public_private": null }, "geometry": { "type": "Point", "coordinates": [ 4.903780700000027, 52.195928200000026 ] } },
{ "type": "Feature", "properties": { "OBJECTID": 74230, "Shape": null, "id": "NL_09UY", "name": "BASISSCHOOL DE GLASHORST", "lat": 52.08040145, "lon": 5.481557521, "city": "SCHERPENZEEL GLD", "public_private": null }, "geometry": { "type": "Point", "coordinates": [ 5.48155752100007, 52.080401450000068 ] } },
{ "type": "Feature", "properties": { "OBJECTID": 74231, "Shape": null, "id": "NL_09VB", "name": "BASISSCHOOL HUBERTUS", "lat": 51.5727936, "lon": 5.05738113, "city": "TILBURG", "public_private": null }, "geometry": { "type": "Point", "coordinates": [ 5.057381130000067, 51.572793600000068 ] } },
{ "type": "Feature", "properties": { "OBJECTID": 74232, "Shape": null, "id": "NL_09VE", "name": "PAUS JOANNESSCHOOL", "lat": 52.4366805, "lon": 4.845033296, "city": "ZAANDAM", "public_private": null }, "geometry": { "type": "Point", "coordinates": [ 4.845033296000054, 52.43668050000008 ] } },
{ "type": "Feature", "properties": { "OBJECTID": 74233, "Shape": null, "id": "NL_09VG", "name": "ONDERWIJSGROEP TILBURG VMBO REESHOF, VMBO LWOO", "lat": 51.5730265, "lon": 4.9947964, "city": "TILBURG", "public_private": null }, "geometry": { "type": "Point", "coordinates": [ 4.994796400000041, 51.573026500000026 ] } },
{ "type": "Feature", "properties": { "OBJECTID": 74234, "Shape": null, "id": "NL_09VH", "name": "DE TOORTS", "lat": 51.94007, "lon": 6.125096049, "city": "DIDAM", "public_private": null }, "geometry": { "type": "Point", "coordinates": [ 6.125096049000035, 51.94007 ] } },
{ "type": "Feature", "properties": { "OBJECTID": 74235, "Shape": null, "id": "NL_09VO", "name": "KATHOLIEKE BASISSCHOOL DE HASSELBRAAM", "lat": 51.5827322, "lon": 4.6525171, "city": "ETTEN-LEUR", "public_private": null }, "geometry": { "type": "Point", "coordinates": [ 4.652517100000068, 51.582732200000066 ] } },
{ "type": "Feature", "properties": { "OBJECTID": 74236, "Shape": null, "id": "NL_09VP", "name": "BASISSCHOOL CUNERA", "lat": 52.5571066, "lon": 4.6598985, "city": "CASTRICUM", "public_private": null }, "geometry": { "type": "Point", "coordinates": [ 4.659898500000054, 52.557106600000054 ] } },
{ "type": "Feature", "properties": { "OBJECTID": 74237, "Shape": null, "id": "NL_10XU", "name": "IKC HET BAKEN", "lat": 53.16844, "lon": 5.43002, "city": "HARLINGEN", "public_private": null }, "geometry": { "type": "Point", "coordinates": [ 5.43002, 53.16844 ] } },
{ "type": "Feature", "properties": { "OBJECTID": 74238, "Shape": null, "id": "NL_10XV", "name": "HET GELE PARK BASISONDERWIJS", "lat": 51.9843411, "lon": 6.5572045, "city": "LICHTENVOORDE", "public_private": null }, "geometry": { "type": "Point", "coordinates": [ 6.557204500000068, 51.984341100000051 ] } },
{ "type": "Feature", "properties": { "OBJECTID": 74239, "Shape": null, "id": "NL_10YA", "name": "MIJNDERT VAN DER THYNENSCHOOL", "lat": 52.6694652, "lon": 6.7506573, "city": "COEVORDEN", "public_private": null }, "geometry": { "type": "Point", "coordinates": [ 6.750657300000057, 52.669465200000047 ] } },
{ "type": "Feature", "properties": { "OBJECTID": 74240, "Shape": null, "id": "NL_10YD", "name": "TUSKEN DE MARREN", "lat": 52.9418956, "lon": 5.626331, "city": "WOUDSEND", "public_private": null }, "geometry": { "type": "Point", "coordinates": [ 5.626331, 52.941895600000066 ] } },
{ "type": "Feature", "properties": { "OBJECTID": 74241, "Shape": null, "id": "NL_10YE", "name": "RK BASISSCH VLASGAARD", "lat": 51.6979283, "lon": 5.6739865, "city": "ZEELAND", "public_private": null }, "geometry": { "type": "Point", "coordinates": [ 5.673986500000069, 51.697928300000058 ] } },
{ "type": "Feature", "properties": { "OBJECTID": 74242, "Shape": null, "id": "NL_10YF", "name": "BASISSCHOOL DE DIAMANT", "lat": 51.3259108, "lon": 6.0941129, "city": "BAARLO LB", "public_private": null }, "geometry": { "type": "Point", "coordinates": [ 6.094112900000027, 51.325910800000031 ] } },
{ "type": "Feature", "properties": { "OBJECTID": 74243, "Shape": null, "id": "NL_10YG", "name": "BASISSCHOOL 'T MOLENVELD", "lat": 51.7738964, "lon": 5.5798174, "city": "BERGHEM", "public_private": null }, "geometry": { "type": "Point", "coordinates": [ 5.579817400000024, 51.773896400000069 ] } },
{ "type": "Feature", "properties": { "OBJECTID": 74244, "Shape": null, "id": "NL_10YH", "name": "CHRISTELIJKE BASISSCHOOL BEURTHONK", "lat": 52.0467872, "lon": 5.2330584, "city": "ODIJK", "public_private": null }, "geometry": { "type": "Point", "coordinates": [ 5.233058400000061, 52.04678720000004 ] } },
{ "type": "Feature", "properties": { "OBJECTID": 74245, "Shape": null, "id": "NL_10YI", "name": "DE PIJLER", "lat": 52.0118301, "lon": 5.0393937, "city": "IJSSELSTEIN UT", "public_private": null }, "geometry": { "type": "Point", "coordinates": [ 5.039393700000062, 52.011830100000054 ] } },
{ "type": "Feature", "properties": { "OBJECTID": 74246, "Shape": null, "id": "NL_10YK", "name": "PROTESTANTS CHRISTELIJKE BASISSCHOOL ICHTHUS", "lat": 51.9467183, "lon": 4.8714412, "city": "SCHOONHOVEN", "public_private": null }, "geometry": { "type": "Point", "coordinates": [ 4.871441200000049, 51.946718300000043 ] } },
{ "type": "Feature", "properties": { "OBJECTID": 74247, "Shape": null, "id": "NL_10YO", "name": "CBS DE HOEKSTEEN", "lat": 53.1359931, "lon": 6.4079932, "city": "RODEN", "public_private": null }, "geometry": { "type": "Point", "coordinates": [ 6.407993200000021, 53.135993100000064 ] } },
{ "type": "Feature", "properties": { "OBJECTID": 74248, "Shape": null, "id": "NL_10YP", "name": "KINDCENTRUM DE MARSWEIJDE", "lat": 52.5816646, "lon": 6.6050843, "city": "HARDENBERG", "public_private": null }, "geometry": { "type": "Point", "coordinates": [ 6.605084300000044, 52.581664600000067 ] } },
{ "type": "Feature", "properties": { "OBJECTID": 74249, "Shape": null, "id": "NL_10YQ", "name": "DALTON KINDCENTRUM JONGLAREN", "lat": 53.0916265, "lon": 6.6644834, "city": "ZUIDLAREN", "public_private": null }, "geometry": { "type": "Point", "coordinates": [ 6.664483400000051, 53.091626500000075 ] } },
{ "type": "Feature", "properties": { "OBJECTID": 74250, "Shape": null, "id": "NL_10YR", "name": "ST HENRICUS-SCHOOL", "lat": 52.7231186, "lon": 6.9930644, "city": "KLAZIENAVEEN", "public_private": null }, "geometry": { "type": "Point", "coordinates": [ 6.993064400000037, 52.723118600000078 ] } },
{ "type": "Feature", "properties": { "OBJECTID": 74251, "Shape": null, "id": "NL_09VR", "name": "HET PALET", "lat": 51.9123056, "lon": 4.3432486, "city": "VLAARDINGEN", "public_private": null }, "geometry": { "type": "Point", "coordinates": [ 4.343248600000038, 51.912305600000082 ] } },
{ "type": "Feature", "properties": { "OBJECTID": 74252, "Shape": null, "id": "NL_09VS", "name": "HET WATERLAND", "lat": 52.1718719, "lon": 4.4874823, "city": "LEIDEN", "public_private": null }, "geometry": { "type": "Point", "coordinates": [ 4.487482300000067, 52.171871900000042 ] } },
{ "type": "Feature", "properties": { "OBJECTID": 74253, "Shape": null, "id": "NL_09VU", "name": "DALTON KINDCENTRUM AVONTUURRIJK", "lat": 51.5080351, "lon": 5.3372797, "city": "OIRSCHOT", "public_private": null }, "geometry": { "type": "Point", "coordinates": [ 5.337279700000067, 51.508035100000029 ] } },
{ "type": "Feature", "properties": { "OBJECTID": 74254, "Shape": null, "id": "NL_09VY", "name": "KBS WIJZER AAN DE VECHT", "lat": 52.1141116, "lon": 5.0951055, "city": "UTRECHT", "public_private": null }, "geometry": { "type": "Point", "coordinates": [ 5.095105500000045, 52.114111600000058 ] } },
{ "type": "Feature", "properties": { "OBJECTID": 74255, "Shape": null, "id": "NL_09VZ", "name": "BREDE SCHOOL MOESEL", "lat": 51.2408802, "lon": 5.712844559, "city": "WEERT", "public_private": null }, "geometry": { "type": "Point", "coordinates": [ 5.712844559000075, 51.240880200000049 ] } },
{ "type": "Feature", "properties": { "OBJECTID": 74256, "Shape": null, "id": "NL_09WB", "name": "SCHOOL JUUL", "lat": 52.019981, "lon": 5.5402995, "city": "VEENENDAAL", "public_private": null }, "geometry": { "type": "Point", "coordinates": [ 5.54029950000006, 52.019981 ] } },
{ "type": "Feature", "properties": { "OBJECTID": 74257, "Shape": null, "id": "NL_09WD", "name": "BASISSCHOOL TRIANGEL", "lat": 51.1555902, "lon": 5.9390522, "city": "LINNE", "public_private": null }, "geometry": { "type": "Point", "coordinates": [ 5.939052200000049, 51.155590200000063 ] } },
{ "type": "Feature", "properties": { "OBJECTID": 74258, "Shape": null, "id": "EL_15229", "name": "11Ο ΔΗΜΟΤΙΚΟ ΣΧΟΛΕΙΟ ΜΥΤΙΛΗΝΗΣ", "lat": null, "lon": null, "city": null, "public_private": null }, "geometry": null },
{ "type": "Feature", "properties": { "OBJECTID": 74259, "Shape": null, "id": "NL_09WE", "name": "KINDERCAMPUS JOSEPH", "lat": 52.2576868, "lon": 4.5496764, "city": "LISSE", "public_private": null }, "geometry": { "type": "Point", "coordinates": [ 4.549676400000067, 52.257686800000045 ] } },
{ "type": "Feature", "properties": { "OBJECTID": 74260, "Shape": null, "id": "NL_09WF", "name": "WSKO DE ZEESTER", "lat": 52.020838, "lon": 4.173868501, "city": "MONSTER", "public_private": null }, "geometry": { "type": "Point", "coordinates": [ 4.173868501000072, 52.020838 ] } },
{ "type": "Feature", "properties": { "OBJECTID": 74261, "Shape": null, "id": "NL_09WH", "name": "BASISSCHOOL KARDINAAL ALFRINK", "lat": 52.1364594, "lon": 6.617298, "city": "NEEDE", "public_private": null }, "geometry": { "type": "Point", "coordinates": [ 6.617298, 52.136459400000035 ] } },
{ "type": "Feature", "properties": { "OBJECTID": 74262, "Shape": null, "id": "NL_09WL", "name": "ROOMS KATHOLIEKE BASISSCHOOL DE DAGOBERT", "lat": 51.89355155, "lon": 5.429374208, "city": "TIEL", "public_private": null }, "geometry": { "type": "Point", "coordinates": [ 5.42937420800007, 51.893551550000041 ] } },
{ "type": "Feature", "properties": { "OBJECTID": 74263, "Shape": null, "id": "NL_09WM", "name": "KC DE KAS", "lat": 52.0366366, "lon": 4.6375768, "city": "WADDINXVEEN", "public_private": null }, "geometry": { "type": "Point", "coordinates": [ 4.637576800000033, 52.036636600000065 ] } },
{ "type": "Feature", "properties": { "OBJECTID": 74264, "Shape": null, "id": "NL_09WN", "name": "HET GALJOEN", "lat": 52.35939775, "lon": 6.603228057, "city": "WIERDEN", "public_private": null }, "geometry": { "type": "Point", "coordinates": [ 6.603228057000024, 52.359397750000028 ] } },
{ "type": "Feature", "properties": { "OBJECTID": 74265, "Shape": null, "id": "NL_09WO", "name": "BASISSCHOOL ST. AUGUSTINUS", "lat": 52.4317771, "lon": 4.9249203, "city": "LANDSMEER", "public_private": null }, "geometry": { "type": "Point", "coordinates": [ 4.924920300000053, 52.431777100000033 ] } },
{ "type": "Feature", "properties": { "OBJECTID": 74266, "Shape": null, "id": "NL_09WP", "name": "DE REGENBOOG", "lat": 52.469009, "lon": 4.7465304, "city": "ASSENDELFT", "public_private": null }, "geometry": { "type": "Point", "coordinates": [ 4.74653040000004, 52.469009 ] } },
{ "type": "Feature", "properties": { "OBJECTID": 74267, "Shape": null, "id": "NL_09WS", "name": "INTEGRAAL KIND CENTRUM SCHATRIJK", "lat": 52.0863414, "lon": 4.7523791, "city": "BODEGRAVEN", "public_private": null }, "geometry": { "type": "Point", "coordinates": [ 4.752379100000041, 52.086341400000038 ] } },
{ "type": "Feature", "properties": { "OBJECTID": 74268, "Shape": null, "id": "NL_09WT", "name": "KBS DE SPOORZOEKER", "lat": 51.5992198, "lon": 4.778472, "city": "BREDA", "public_private": null }, "geometry": { "type": "Point", "coordinates": [ 4.778472, 51.599219800000071 ] } },
{ "type": "Feature", "properties": { "OBJECTID": 74269, "Shape": null, "id": "NL_09WU", "name": "ROOMS KATHOLIEKE BASISSCHOOL DE PALSTER", "lat": 51.95324865, "lon": 5.244028256, "city": "CULEMBORG", "public_private": null }, "geometry": { "type": "Point", "coordinates": [ 5.244028256000036, 51.953248650000035 ] } },
{ "type": "Feature", "properties": { "OBJECTID": 74270, "Shape": null, "id": "NL_09WW", "name": "BASISSCHOOL 'T HEUVELKE", "lat": 50.9857747, "lon": 5.8154254, "city": "GELEEN", "public_private": null }, "geometry": { "type": "Point", "coordinates": [ 5.815425400000038, 50.985774700000036 ] } },
{ "type": "Feature", "properties": { "OBJECTID": 74271, "Shape": null, "id": "NL_09WX", "name": "BASISSCHOOL DE ESTER", "lat": 51.74291365, "lon": 5.746245897, "city": "ESCHAREN", "public_private": null }, "geometry": { "type": "Point", "coordinates": [ 5.746245897000051, 51.742913650000048 ] } },
{ "type": "Feature", "properties": { "OBJECTID": 74272, "Shape": null, "id": "NL_09WY", "name": "KC TOERMALIJN", "lat": 52.0736575, "lon": 4.2774296, "city": "'S-GRAVENHAGE", "public_private": null }, "geometry": { "type": "Point", "coordinates": [ 4.277429600000062, 52.073657500000081 ] } },
{ "type": "Feature", "properties": { "OBJECTID": 74273, "Shape": null, "id": "NL_09XA", "name": "DE PAREL", "lat": 51.38807075, "lon": 5.579773718, "city": "HEEZE", "public_private": null }, "geometry": { "type": "Point", "coordinates": [ 5.579773718000069, 51.388070750000054 ] } },
{ "type": "Feature", "properties": { "OBJECTID": 74274, "Shape": null, "id": "NL_09XB", "name": "ROOMS KATHOLIEKE BASISSCHOOL BENEDICTUS", "lat": 52.6046403, "lon": 4.7187513, "city": "HEILOO", "public_private": null }, "geometry": { "type": "Point", "coordinates": [ 4.718751300000065, 52.604640300000028 ] } },
{ "type": "Feature", "properties": { "OBJECTID": 74275, "Shape": null, "id": "NL_09XC", "name": "ROOMS KATHOLIEKE BASISSCHOOL HENDRIK BOOGAARD", "lat": 51.8352013, "lon": 4.1360394, "city": "HELLEVOETSLUIS", "public_private": null }, "geometry": { "type": "Point", "coordinates": [ 4.136039400000072, 51.835201300000051 ] } },
{ "type": "Feature", "properties": { "OBJECTID": 74276, "Shape": null, "id": "NL_09XD", "name": "DE REGENBOOGSCHOOL", "lat": 51.7794559, "lon": 5.8638138, "city": "MALDEN", "public_private": null }, "geometry": { "type": "Point", "coordinates": [ 5.863813800000059, 51.779455900000073 ] } },
{ "type": "Feature", "properties": { "OBJECTID": 74277, "Shape": null, "id": "NL_09XF", "name": "DE SPRINGPLANK", "lat": 52.2984288, "lon": 5.279826, "city": "HUIZEN", "public_private": null }, "geometry": { "type": "Point", "coordinates": [ 5.279826, 52.298428800000067 ] } },
{ "type": "Feature", "properties": { "OBJECTID": 74278, "Shape": null, "id": "NL_12MS", "name": "DE KEERKRING", "lat": 52.797531, "lon": 4.8010666, "city": "SCHAGEN", "public_private": null }, "geometry": { "type": "Point", "coordinates": [ 4.80106660000007, 52.797531 ] } },
{ "type": "Feature", "properties": { "OBJECTID": 74279, "Shape": null, "id": "NL_09XH", "name": "ROOMS KATHOLIEKE BASISSCHOOL DE MATEN", "lat": 52.3124491, "lon": 6.9077737, "city": "OLDENZAAL", "public_private": null }, "geometry": { "type": "Point", "coordinates": [ 6.907773700000064, 52.312449100000038 ] } },
{ "type": "Feature", "properties": { "OBJECTID": 74280, "Shape": null, "id": "NL_09XI", "name": "KBS DE TOEKOMST", "lat": 52.5255056, "lon": 5.723724, "city": "DRONTEN", "public_private": null }, "geometry": { "type": "Point", "coordinates": [ 5.723724, 52.525505600000031 ] } },
{ "type": "Feature", "properties": { "OBJECTID": 74281, "Shape": null, "id": "NL_09XJ", "name": "ROOMS KATHOLIEKE BASISSCHOOL 'T RUIMTESCHIP", "lat": 52.7049541, "lon": 4.942334, "city": "OPMEER", "public_private": null }, "geometry": { "type": "Point", "coordinates": [ 4.942334, 52.704954100000066 ] } },
{ "type": "Feature", "properties": { "OBJECTID": 74282, "Shape": null, "id": "NL_09XL", "name": "OECUMENISCHE BASISSCHOOL TRIFOLIUM", "lat": 52.496414, "lon": 4.9499945, "city": "PURMEREND", "public_private": null }, "geometry": { "type": "Point", "coordinates": [ 4.949994500000059, 52.496414 ] } },
{ "type": "Feature", "properties": { "OBJECTID": 74283, "Shape": null, "id": "EL_15230", "name": "ΔΗΜΟΤΙΚΟ ΣΧΟΛΕΙΟ ΠΛΑΓΙΑΣ ΙΚΑΡΙΑΣ", "lat": null, "lon": null, "city": null, "public_private": null }, "geometry": null },
{ "type": "Feature", "properties": { "OBJECTID": 74284, "Shape": null, "id": "NL_09XO", "name": "RK BINNENMEERSCHOOL", "lat": 52.5274881, "lon": 4.7150341, "city": "UITGEEST", "public_private": null }, "geometry": { "type": "Point", "coordinates": [ 4.715034100000025, 52.527488100000028 ] } },
{ "type": "Feature", "properties": { "OBJECTID": 74285, "Shape": null, "id": "NL_09XP", "name": "DE GRASSPRIET", "lat": 51.35086115, "lon": 5.471888159, "city": "VALKENSWAARD", "public_private": null }, "geometry": { "type": "Point", "coordinates": [ 5.471888159000059, 51.350861150000071 ] } },
{ "type": "Feature", "properties": { "OBJECTID": 74286, "Shape": null, "id": "NL_09XR", "name": "BASISSCHOOL WITHEIM", "lat": 50.7970035, "lon": 5.9291332, "city": "MECHELEN", "public_private": null }, "geometry": { "type": "Point", "coordinates": [ 5.929133200000024, 50.797003500000073 ] } },
{ "type": "Feature", "properties": { "OBJECTID": 74287, "Shape": null, "id": "NL_09XS", "name": "KINDCENTRUM-WIJ", "lat": 52.022942, "lon": 5.0557093, "city": "IJSSELSTEIN UT", "public_private": null }, "geometry": { "type": "Point", "coordinates": [ 5.055709300000046, 52.022942 ] } },
{ "type": "Feature", "properties": { "OBJECTID": 74288, "Shape": null, "id": "NL_09XW", "name": "ROOMS KATHOLIEKE BASISSCHOOL DE ARK", "lat": 52.3522041, "lon": 4.6067994, "city": "HEEMSTEDE", "public_private": null }, "geometry": { "type": "Point", "coordinates": [ 4.606799400000057, 52.352204100000051 ] } },
{ "type": "Feature", "properties": { "OBJECTID": 74289, "Shape": null, "id": "NL_09XZ", "name": "IKC TOERMALIJN", "lat": 53.1951585, "lon": 5.53625656, "city": "FRANEKER", "public_private": null }, "geometry": { "type": "Point", "coordinates": [ 5.536256560000027, 53.195158500000048 ] } },
{ "type": "Feature", "properties": { "OBJECTID": 74290, "Shape": null, "id": "NL_09YB", "name": "KINDCENTRUM DE SPRENG BARNEVELD", "lat": 52.1435323, "lon": 5.5795007, "city": "BARNEVELD", "public_private": null }, "geometry": { "type": "Point", "coordinates": [ 5.57950070000004, 52.143532300000061 ] } },
{ "type": "Feature", "properties": { "OBJECTID": 74291, "Shape": null, "id": "NL_09YE", "name": "PROTESTANTS CHRISTELIJKE BASISSCHOOL BETHEL", "lat": 52.4875004, "lon": 4.64703, "city": "BEVERWIJK", "public_private": null }, "geometry": { "type": "Point", "coordinates": [ 4.64703, 52.487500400000044 ] } },
{ "type": "Feature", "properties": { "OBJECTID": 74292, "Shape": null, "id": "NL_09YF", "name": "PRINSES BEATRIXSCHOOL", "lat": 52.0782794, "lon": 4.7447229, "city": "BODEGRAVEN", "public_private": null }, "geometry": { "type": "Point", "coordinates": [ 4.744722900000056, 52.078279400000042 ] } },
{ "type": "Feature", "properties": { "OBJECTID": 74293, "Shape": null, "id": "NL_09YH", "name": "CHRISTELIJKE BASISSCHOOL HET STERRENLICHT", "lat": 52.2441584, "lon": 5.3766226, "city": "BUNSCHOTEN-SPAKENBURG", "public_private": null }, "geometry": { "type": "Point", "coordinates": [ 5.376622600000076, 52.24415840000006 ] } },
{ "type": "Feature", "properties": { "OBJECTID": 74294, "Shape": null, "id": "NL_09YI", "name": "CHRISTELIJKE DOMINEE CAZEMIERSCHOOL", "lat": 52.5322527, "lon": 6.3100554, "city": "DALFSEN", "public_private": null }, "geometry": { "type": "Point", "coordinates": [ 6.310055400000067, 52.532252700000072 ] } },
{ "type": "Feature", "properties": { "OBJECTID": 74295, "Shape": null, "id": "NL_09YJ", "name": "KONINGIN BEATRIXSCHOOL", "lat": 52.1523131, "lon": 5.6706913, "city": "KOOTWIJKERBROEK", "public_private": null }, "geometry": { "type": "Point", "coordinates": [ 5.670691300000044, 52.152313100000072 ] } },
{ "type": "Feature", "properties": { "OBJECTID": 74296, "Shape": null, "id": "NL_09YM", "name": "DE VLINDERTUIN/KINDCENTRUM", "lat": 51.6834733, "lon": 5.3323285, "city": "'S-HERTOGENBOSCH", "public_private": null }, "geometry": { "type": "Point", "coordinates": [ 5.332328500000074, 51.68347330000006 ] } },
{ "type": "Feature", "properties": { "OBJECTID": 74297, "Shape": null, "id": "NL_09YN", "name": "BASISSCHOOL DE SPRENG", "lat": 52.1714988, "lon": 5.4535368, "city": "HOEVELAKEN", "public_private": null }, "geometry": { "type": "Point", "coordinates": [ 5.453536800000052, 52.171498800000052 ] } },
{ "type": "Feature", "properties": { "OBJECTID": 74298, "Shape": null, "id": "NL_09YO", "name": "PROTESTANTS CHRISTELIJKE HET MIDDELPUNT", "lat": 51.8630539, "lon": 4.3619678, "city": "HOOGVLIET ROTTERDAM", "public_private": null }, "geometry": { "type": "Point", "coordinates": [ 4.361967800000059, 51.863053900000068 ] } },
{ "type": "Feature", "properties": { "OBJECTID": 74299, "Shape": null, "id": "NL_09YP", "name": "CHRISTELIJKE BASISSCHOOL HET BASTION", "lat": 51.6646743, "lon": 4.5304333, "city": "KLUNDERT", "public_private": null }, "geometry": { "type": "Point", "coordinates": [ 4.530433300000027, 51.664674300000058 ] } },
{ "type": "Feature", "properties": { "OBJECTID": 74300, "Shape": null, "id": "NL_09YR", "name": "DE BRON", "lat": 52.0859376, "lon": 5.6173162, "city": "LUNTEREN", "public_private": null }, "geometry": { "type": "Point", "coordinates": [ 5.617316200000062, 52.085937600000079 ] } },
{ "type": "Feature", "properties": { "OBJECTID": 74301, "Shape": null, "id": "NL_09YS", "name": "CHRISTELIJKE BASISSCHOOL REHOBOTH", "lat": 51.99428735, "lon": 4.19910577, "city": "NAALDWIJK", "public_private": null }, "geometry": { "type": "Point", "coordinates": [ 4.199105770000074, 51.994287350000036 ] } },
{ "type": "Feature", "properties": { "OBJECTID": 74302, "Shape": null, "id": "NL_09YT", "name": "INTERCONFESSIONELE BASISSCHOOL DE TWEEMASTER", "lat": 52.2911028, "lon": 5.1697195, "city": "NAARDEN", "public_private": null }, "geometry": { "type": "Point", "coordinates": [ 5.169719500000042, 52.291102800000033 ] } },
{ "type": "Feature", "properties": { "OBJECTID": 74303, "Shape": null, "id": "NL_09YU", "name": "GIDEONSCHOOL", "lat": 51.97408, "lon": 4.61802, "city": "NIEUWERKERK AD IJSSEL", "public_private": null }, "geometry": { "type": "Point", "coordinates": [ 4.61802, 51.97408 ] } },
{ "type": "Feature", "properties": { "OBJECTID": 74304, "Shape": null, "id": "NL_09YW", "name": "PC BASISSCH PR MAURITS", "lat": 51.8195176, "lon": 5.8031015, "city": "NIJMEGEN", "public_private": null }, "geometry": { "type": "Point", "coordinates": [ 5.803101500000025, 51.81951760000004 ] } },
{ "type": "Feature", "properties": { "OBJECTID": 74305, "Shape": null, "id": "NL_09YY", "name": "DE REGENBOOG", "lat": 52.4483996, "lon": 5.903838, "city": "OLDEBROEK", "public_private": null }, "geometry": { "type": "Point", "coordinates": [ 5.903838, 52.448399600000073 ] } },
{ "type": "Feature", "properties": { "OBJECTID": 74306, "Shape": null, "id": "NL_09YZ", "name": "KON JULIANASCH", "lat": 53.2817691, "lon": 6.14808, "city": "KOLLUM", "public_private": null }, "geometry": { "type": "Point", "coordinates": [ 6.14808, 53.281769100000076 ] } },
{ "type": "Feature", "properties": { "OBJECTID": 74307, "Shape": null, "id": "EL_15236", "name": "3Ο ΔΗΜΟΤΙΚΟ ΣΧΟΛΕΙΟ ΜΥΤΙΛΗΝΗΣ", "lat": null, "lon": null, "city": null, "public_private": null }, "geometry": null },
{ "type": "Feature", "properties": { "OBJECTID": 74308, "Shape": null, "id": "NL_09ZA", "name": "PROTESTANTS CHRISTELIJK BASISONDERWIJS HOEF", "lat": 52.25038135, "lon": 5.546337144, "city": "PUTTEN", "public_private": null }, "geometry": { "type": "Point", "coordinates": [ 5.546337144000063, 52.250381350000055 ] } },
{ "type": "Feature", "properties": { "OBJECTID": 74309, "Shape": null, "id": "NL_09ZD", "name": "DE MORGENSTER", "lat": 52.35938865, "lon": 6.606584862, "city": "WIERDEN", "public_private": null }, "geometry": { "type": "Point", "coordinates": [ 6.606584862000034, 52.359388650000028 ] } },
{ "type": "Feature", "properties": { "OBJECTID": 74310, "Shape": null, "id": "NL_09ZF", "name": "NUTSBASISSCHOOL DIRK VAN VEEN", "lat": 51.5773724, "lon": 4.7868681, "city": "BREDA", "public_private": null }, "geometry": { "type": "Point", "coordinates": [ 4.786868100000049, 51.577372400000058 ] } },
{ "type": "Feature", "properties": { "OBJECTID": 74311, "Shape": null, "id": "NL_09ZG", "name": "RUDOLF STEINERSCHOOL", "lat": 52.3650017, "lon": 4.643115968, "city": "HAARLEM", "public_private": null }, "geometry": { "type": "Point", "coordinates": [ 4.643115968000075, 52.36500170000005 ] } },
{ "type": "Feature", "properties": { "OBJECTID": 74312, "Shape": null, "id": "NL_09ZH", "name": "ATO, BASISSCHOOL L W BEEKMAN", "lat": 51.6873066, "lon": 5.2963154, "city": "'S-HERTOGENBOSCH", "public_private": null }, "geometry": { "type": "Point", "coordinates": [ 5.296315400000026, 51.687306600000056 ] } },
{ "type": "Feature", "properties": { "OBJECTID": 74313, "Shape": null, "id": "NL_09ZJ", "name": "BASISSCHOOL DE HOVE", "lat": 51.888407, "lon": 6.4933437, "city": "DE HEURNE", "public_private": null }, "geometry": { "type": "Point", "coordinates": [ 6.493343700000025, 51.888407 ] } },
{ "type": "Feature", "properties": { "OBJECTID": 74314, "Shape": null, "id": "NL_09ZN", "name": "OPENBARE BASISSCHOOL DE SCHOENER", "lat": 51.7254473, "lon": 3.9110123, "city": "BROUWERSHAVEN", "public_private": null }, "geometry": { "type": "Point", "coordinates": [ 3.911012300000039, 51.725447300000042 ] } },
{ "type": "Feature", "properties": { "OBJECTID": 74315, "Shape": null, "id": "NL_09ZO", "name": "OPENBARE BASISSCHOOL PRINSES WILHELMINA", "lat": 51.9636979, "lon": 5.0330976, "city": "LEXMOND", "public_private": null }, "geometry": { "type": "Point", "coordinates": [ 5.033097600000076, 51.963697900000057 ] } },
{ "type": "Feature", "properties": { "OBJECTID": 74316, "Shape": null, "id": "NL_09ZP", "name": "OPENBARE BASISSCHOOL DE STAP", "lat": 52.4281, "lon": 4.914, "city": "LANDSMEER", "public_private": null }, "geometry": { "type": "Point", "coordinates": [ 4.914, 52.4281 ] } },
{ "type": "Feature", "properties": { "OBJECTID": 74317, "Shape": null, "id": "NL_09ZQ", "name": "DALTONSCHOOL KLAVERWEIDE", "lat": 52.2312553, "lon": 4.4583518, "city": "NOORDWIJK ZH", "public_private": null }, "geometry": { "type": "Point", "coordinates": [ 4.458351800000059, 52.231255300000043 ] } },
{ "type": "Feature", "properties": { "OBJECTID": 74318, "Shape": null, "id": "NL_09ZS", "name": "HET TALENT", "lat": 51.7522176, "lon": 4.5952285, "city": "MOOKHOEK", "public_private": null }, "geometry": { "type": "Point", "coordinates": [ 4.595228500000076, 51.752217600000051 ] } },
{ "type": "Feature", "properties": { "OBJECTID": 74319, "Shape": null, "id": "NL_09ZU", "name": "BREDE SCHOOL HET ANKER", "lat": 51.9732956, "lon": 5.325762346, "city": "WIJK BIJ DUURSTEDE", "public_private": null }, "geometry": { "type": "Point", "coordinates": [ 5.325762346000033, 51.973295600000029 ] } },
{ "type": "Feature", "properties": { "OBJECTID": 74320, "Shape": null, "id": "NL_09ZZ", "name": "BASISSCHOOL DE WILGENHOEK", "lat": 51.7343598, "lon": 4.9012716, "city": "HANK", "public_private": null }, "geometry": { "type": "Point", "coordinates": [ 4.90127160000003, 51.73435980000005 ] } },
{ "type": "Feature", "properties": { "OBJECTID": 74321, "Shape": null, "id": "NL_10AA", "name": "BASISSCHOOL OP 'E DOBBE", "lat": 53.3074329, "lon": 5.7886773, "city": "HALLUM", "public_private": null }, "geometry": { "type": "Point", "coordinates": [ 5.788677300000074, 53.307432900000038 ] } },
{ "type": "Feature", "properties": { "OBJECTID": 74322, "Shape": null, "id": "NL_10AB", "name": "BASISSCHOOL GIETEN", "lat": 52.99968795, "lon": 6.760091887, "city": "GIETEN", "public_private": null }, "geometry": { "type": "Point", "coordinates": [ 6.760091887000044, 52.999687950000066 ] } },
{ "type": "Feature", "properties": { "OBJECTID": 74323, "Shape": null, "id": "NL_10AC", "name": "OPENBARE BASISSCHOOL DE MOOLHOEK", "lat": 51.4832196, "lon": 3.9673013, "city": "KAPELLE", "public_private": null }, "geometry": { "type": "Point", "coordinates": [ 3.967301300000031, 51.483219600000041 ] } },
{ "type": "Feature", "properties": { "OBJECTID": 74324, "Shape": null, "id": "NL_10AD", "name": "KC DE HEIDEPARK", "lat": 52.4466588, "lon": 6.3465877, "city": "LEMELERVELD", "public_private": null }, "geometry": { "type": "Point", "coordinates": [ 6.346587700000043, 52.44665880000008 ] } },
{ "type": "Feature", "properties": { "OBJECTID": 74325, "Shape": null, "id": "NL_10AE", "name": "OPENBARE BASISSCHOOL DE TWEEMASTER", "lat": 52.01768145, "lon": 4.440801401, "city": "PIJNACKER", "public_private": null }, "geometry": { "type": "Point", "coordinates": [ 4.440801401000044, 52.017681450000055 ] } },
{ "type": "Feature", "properties": { "OBJECTID": 74326, "Shape": null, "id": "NL_10AF", "name": "OPENBARE JENAPLAN BASISSCHOOL DE TOERMALIJN", "lat": 51.3318338, "lon": 6.1542832, "city": "TEGELEN", "public_private": null }, "geometry": { "type": "Point", "coordinates": [ 6.154283200000066, 51.331833800000027 ] } },
{ "type": "Feature", "properties": { "OBJECTID": 74327, "Shape": null, "id": "NL_10AG", "name": "BASISSCHOOL DE KLIMBOOM", "lat": 51.5334859, "lon": 5.988642821, "city": "VENRAY", "public_private": null }, "geometry": { "type": "Point", "coordinates": [ 5.988642821000042, 51.533485900000073 ] } },
{ "type": "Feature", "properties": { "OBJECTID": 74328, "Shape": null, "id": "NL_10AH", "name": "JAN LIGTHARTSCHOOL", "lat": 52.0796149, "lon": 5.4193841, "city": "WOUDENBERG", "public_private": null }, "geometry": { "type": "Point", "coordinates": [ 5.419384100000059, 52.079614900000081 ] } },
{ "type": "Feature", "properties": { "OBJECTID": 74329, "Shape": null, "id": "NL_10AN", "name": "SCALA COLLEGE VOOR ATHENEUM HAVO VMBO-LOOT", "lat": 52.1392871, "lon": 4.6717542, "city": "ALPHEN AAN DEN RIJN", "public_private": null }, "geometry": { "type": "Point", "coordinates": [ 4.671754200000066, 52.139287100000047 ] } },
{ "type": "Feature", "properties": { "OBJECTID": 74330, "Shape": null, "id": "NL_10AR", "name": "CRAYENESTER-BASISSCHOOL", "lat": 52.3587774, "lon": 4.6209804, "city": "HEEMSTEDE", "public_private": null }, "geometry": { "type": "Point", "coordinates": [ 4.620980400000064, 52.358777400000065 ] } },
{ "type": "Feature", "properties": { "OBJECTID": 74331, "Shape": null, "id": "NL_10AS", "name": "OBS 'T LANGE", "lat": 51.28544835, "lon": 5.554609149, "city": "GASTEL", "public_private": null }, "geometry": { "type": "Point", "coordinates": [ 5.554609149000044, 51.285448350000081 ] } },
{ "type": "Feature", "properties": { "OBJECTID": 74332, "Shape": null, "id": "EL_15238", "name": "12Ο ΔΗΜΟΤΙΚΟ ΣΧΟΛΕΙΟ ΜΥΤΗΛΗΝΗΣ", "lat": null, "lon": null, "city": null, "public_private": null }, "geometry": null },
{ "type": "Feature", "properties": { "OBJECTID": 74333, "Shape": null, "id": "NL_10AV", "name": "DE VIJVERSTEE", "lat": 53.0714936, "lon": 6.5751423, "city": "VRIES", "public_private": null }, "geometry": { "type": "Point", "coordinates": [ 6.575142300000039, 53.071493600000053 ] } },
{ "type": "Feature", "properties": { "OBJECTID": 74334, "Shape": null, "id": "NL_10AZ", "name": "BASISSCHOOL T STARTBLOK", "lat": 51.742006, "lon": 5.870405354, "city": "CUIJK", "public_private": null }, "geometry": { "type": "Point", "coordinates": [ 5.87040535400007, 51.742006 ] } },
{ "type": "Feature", "properties": { "OBJECTID": 74335, "Shape": null, "id": "NL_10BA", "name": "OPENBARE BASISSCHOOL HET ATELIER", "lat": 52.3350987, "lon": 4.957807, "city": "DIEMEN", "public_private": null }, "geometry": { "type": "Point", "coordinates": [ 4.957807, 52.33509870000006 ] } },
{ "type": "Feature", "properties": { "OBJECTID": 74336, "Shape": null, "id": "NL_10BE", "name": "GRAAF FLORISSCHOOL", "lat": 52.2093205, "lon": 5.0168061, "city": "LOENEN AAN DE VECHT", "public_private": null }, "geometry": { "type": "Point", "coordinates": [ 5.016806100000053, 52.209320500000047 ] } },
{ "type": "Feature", "properties": { "OBJECTID": 74337, "Shape": null, "id": "NL_10BF", "name": "BASISSCHOOL STOKKUM", "lat": 52.2155726, "lon": 6.5143976, "city": "MARKELO", "public_private": null }, "geometry": { "type": "Point", "coordinates": [ 6.514397600000052, 52.21557260000003 ] } },
{ "type": "Feature", "properties": { "OBJECTID": 74338, "Shape": null, "id": "NL_10BG", "name": "OPENBARE BASISSCHOOL DE LINDE", "lat": 53.0765697, "lon": 6.9586047, "city": "NIEUWE PEKELA", "public_private": null }, "geometry": { "type": "Point", "coordinates": [ 6.958604700000024, 53.07656970000005 ] } },
{ "type": "Feature", "properties": { "OBJECTID": 74339, "Shape": null, "id": "NL_10BH", "name": "OPENBARE BASISSCHOOL DE VLIEGER", "lat": 51.9518352, "lon": 4.8391945, "city": "SCHOONHOVEN", "public_private": null }, "geometry": { "type": "Point", "coordinates": [ 4.839194500000076, 51.951835200000062 ] } },
{ "type": "Feature", "properties": { "OBJECTID": 74340, "Shape": null, "id": "NL_10BI", "name": "OPENBARE BASISSCHOOL DE RIETPUT", "lat": 51.8711057, "lon": 5.0757193, "city": "HEUKELUM", "public_private": null }, "geometry": { "type": "Point", "coordinates": [ 5.07571930000006, 51.871105700000044 ] } },
{ "type": "Feature", "properties": { "OBJECTID": 74341, "Shape": null, "id": "NL_10BJ", "name": "BASISSCHOOL DE POPULIER", "lat": 53.0585103, "lon": 5.4053304, "city": "MAKKUM FR", "public_private": null }, "geometry": { "type": "Point", "coordinates": [ 5.405330400000025, 53.05851030000008 ] } },
{ "type": "Feature", "properties": { "OBJECTID": 74342, "Shape": null, "id": "NL_10BK", "name": "BASISSCHOOL SCHUILINGSOORD", "lat": 53.079895, "lon": 6.6967873, "city": "ZUIDLAREN", "public_private": null }, "geometry": { "type": "Point", "coordinates": [ 6.69678730000004, 53.079895 ] } },
{ "type": "Feature", "properties": { "OBJECTID": 74343, "Shape": null, "id": "NL_10BP", "name": "CHRISTELIJKE BASISSCHOOL DE WIJNROAS", "lat": 53.1868492, "lon": 6.1378784, "city": "HARKEMA", "public_private": null }, "geometry": { "type": "Point", "coordinates": [ 6.137878400000034, 53.18684920000004 ] } },
{ "type": "Feature", "properties": { "OBJECTID": 74344, "Shape": null, "id": "NL_10BR", "name": "IKC HET PALET", "lat": 51.8638009, "lon": 4.6640452, "city": "ALBLASSERDAM", "public_private": null }, "geometry": { "type": "Point", "coordinates": [ 4.664045200000032, 51.863800900000058 ] } },
{ "type": "Feature", "properties": { "OBJECTID": 74345, "Shape": null, "id": "NL_10BS", "name": "BASISSCHOOL HET KOMPAS", "lat": 52.6005845, "lon": 6.4509839, "city": "DEDEMSVAART", "public_private": null }, "geometry": { "type": "Point", "coordinates": [ 6.45098390000004, 52.600584500000082 ] } },
{ "type": "Feature", "properties": { "OBJECTID": 74346, "Shape": null, "id": "NL_10BV", "name": "OPENBARE BASISSCHOOL DE GEZELLEHOEK", "lat": 51.5167683, "lon": 4.4654966, "city": "ROOSENDAAL", "public_private": null }, "geometry": { "type": "Point", "coordinates": [ 4.465496600000051, 51.516768300000081 ] } },
{ "type": "Feature", "properties": { "OBJECTID": 74347, "Shape": null, "id": "NL_10BZ", "name": "OPENBARE BASISSCHOOL DE WALSPRONG", "lat": 51.8029097, "lon": 5.250235, "city": "ZALTBOMMEL", "public_private": null }, "geometry": { "type": "Point", "coordinates": [ 5.250235, 51.802909700000043 ] } },
{ "type": "Feature", "properties": { "OBJECTID": 74348, "Shape": null, "id": "NL_10CF", "name": "OPENBARE BASISSCHOOL ROXENISSE", "lat": 51.770625, "lon": 4.0670428, "city": "MELISSANT", "public_private": null }, "geometry": { "type": "Point", "coordinates": [ 4.067042800000024, 51.770625 ] } },
{ "type": "Feature", "properties": { "OBJECTID": 74349, "Shape": null, "id": "NL_10CH", "name": "DE BUNDERTJES", "lat": 51.49885845, "lon": 5.66090312, "city": "HELMOND", "public_private": null }, "geometry": { "type": "Point", "coordinates": [ 5.660903120000057, 51.498858450000057 ] } },
{ "type": "Feature", "properties": { "OBJECTID": 74350, "Shape": null, "id": "NL_11NM", "name": "OBS DE JINT", "lat": 53.26593115, "lon": 5.760879511, "city": "STIENS", "public_private": null }, "geometry": { "type": "Point", "coordinates": [ 5.760879511000041, 53.265931150000029 ] } },
{ "type": "Feature", "properties": { "OBJECTID": 74351, "Shape": null, "id": "NL_10CI", "name": "OPENBARE BASISSCHOOL J.C. VAN GENT", "lat": 51.7584348, "lon": 4.1476927, "city": "SOMMELSDIJK", "public_private": null }, "geometry": { "type": "Point", "coordinates": [ 4.14769270000005, 51.758434800000032 ] } },
{ "type": "Feature", "properties": { "OBJECTID": 74352, "Shape": null, "id": "NL_10CJ", "name": "EERSTE VELUWSE MONTESSORISCHOOL", "lat": 52.3887287, "lon": 5.7987373, "city": "NUNSPEET", "public_private": null }, "geometry": { "type": "Point", "coordinates": [ 5.798737300000028, 52.388728700000058 ] } },
{ "type": "Feature", "properties": { "OBJECTID": 74353, "Shape": null, "id": "NL_10CO", "name": "OPENBARE BASISSCHOOL DE TANDEM", "lat": 53.1642739, "lon": 6.8641837, "city": "ZUIDBROEK", "public_private": null }, "geometry": { "type": "Point", "coordinates": [ 6.864183700000069, 53.164273900000069 ] } },
{ "type": "Feature", "properties": { "OBJECTID": 74354, "Shape": null, "id": "NL_10CR", "name": "OPENBARE BASISSCHOOL 'T VOGELNEST", "lat": 52.0767553, "lon": 4.7495585, "city": "BODEGRAVEN", "public_private": null }, "geometry": { "type": "Point", "coordinates": [ 4.749558500000035, 52.076755300000059 ] } },
{ "type": "Feature", "properties": { "OBJECTID": 74355, "Shape": null, "id": "NL_10CS", "name": "OPENBARE BASISSCHOOL DE DISTELVLINDER", "lat": 51.9474136, "lon": 5.2049557, "city": "CULEMBORG", "public_private": null }, "geometry": { "type": "Point", "coordinates": [ 5.204955700000028, 51.947413600000061 ] } },
{ "type": "Feature", "properties": { "OBJECTID": 74356, "Shape": null, "id": "NL_10CT", "name": "'T GIJMINK", "lat": 52.2342004, "lon": 6.5982224, "city": "GOOR", "public_private": null }, "geometry": { "type": "Point", "coordinates": [ 6.598222400000054, 52.234200400000077 ] } },
{ "type": "Feature", "properties": { "OBJECTID": 74357, "Shape": null, "id": "EL_15242", "name": "10Ο ΔΗΜΟΤΙΚΟ ΣΧΟΛΕΙΟ ΜΥΤΙΛΗΝΗΣ", "lat": null, "lon": null, "city": null, "public_private": null }, "geometry": null },
{ "type": "Feature", "properties": { "OBJECTID": 74358, "Shape": null, "id": "NL_10CU", "name": "BASISSCHOOL HOBBITSTEE", "lat": 51.8923277, "lon": 5.1015108, "city": "LEERDAM", "public_private": null }, "geometry": { "type": "Point", "coordinates": [ 5.101510800000028, 51.892327700000067 ] } },
{ "type": "Feature", "properties": { "OBJECTID": 74359, "Shape": null, "id": "NL_10CV", "name": "BASISSCHOOL MICHIEL DE RUYTER", "lat": 51.843324, "lon": 5.8457644, "city": "NIJMEGEN", "public_private": null }, "geometry": { "type": "Point", "coordinates": [ 5.845764400000064, 51.843324 ] } },
{ "type": "Feature", "properties": { "OBJECTID": 74360, "Shape": null, "id": "NL_10CY", "name": "BASISSCHOOL DE VLINDERHOF", "lat": 52.7970185, "lon": 6.8033849, "city": "NOORD-SLEEN", "public_private": null }, "geometry": { "type": "Point", "coordinates": [ 6.803384900000026, 52.797018500000036 ] } },
{ "type": "Feature", "properties": { "OBJECTID": 74361, "Shape": null, "id": "NL_10DA", "name": "OPENBARE BASISSCHOOL DE TRIANGEL", "lat": 52.3054031, "lon": 5.0380075, "city": "WEESP", "public_private": null }, "geometry": { "type": "Point", "coordinates": [ 5.038007500000049, 52.305403100000035 ] } },
{ "type": "Feature", "properties": { "OBJECTID": 74362, "Shape": null, "id": "NL_10DC", "name": "DE TWEEWEGEN", "lat": 52.8354976, "lon": 4.8662182, "city": "WIERINGERWAARD", "public_private": null }, "geometry": { "type": "Point", "coordinates": [ 4.866218200000048, 52.835497600000053 ] } },
{ "type": "Feature", "properties": { "OBJECTID": 74363, "Shape": null, "id": "NL_10DE", "name": "IBS 'T POMPEBLÊD", "lat": 53.2550525, "lon": 6.0415262, "city": "DE WESTEREEN", "public_private": null }, "geometry": { "type": "Point", "coordinates": [ 6.041526200000021, 53.255052500000033 ] } },
{ "type": "Feature", "properties": { "OBJECTID": 74364, "Shape": null, "id": "NL_10DF", "name": "BS DE BOSRANK", "lat": 52.7728407, "lon": 6.2386002, "city": "HAVELTE", "public_private": null }, "geometry": { "type": "Point", "coordinates": [ 6.238600200000064, 52.772840700000074 ] } },
{ "type": "Feature", "properties": { "OBJECTID": 74365, "Shape": null, "id": "NL_10DG", "name": "BASISSCHOOL DIJKERHOEK", "lat": 52.2806456, "lon": 6.3505553, "city": "HOLTEN", "public_private": null }, "geometry": { "type": "Point", "coordinates": [ 6.350555300000053, 52.280645600000071 ] } },
{ "type": "Feature", "properties": { "OBJECTID": 74366, "Shape": null, "id": "NL_10DH", "name": "OPENBARE BASISSCHOOL DE WIEKSLAG", "lat": 51.9589767, "lon": 5.3561996, "city": "RIJSWIJK GLD", "public_private": null }, "geometry": { "type": "Point", "coordinates": [ 5.356199600000025, 51.958976700000051 ] } },
{ "type": "Feature", "properties": { "OBJECTID": 74367, "Shape": null, "id": "NL_10DI", "name": "OPENBARE BASISSCHOOL WERELDWIJS MIJDRECHT", "lat": 52.2131028, "lon": 4.8628982, "city": "MIJDRECHT", "public_private": null }, "geometry": { "type": "Point", "coordinates": [ 4.862898200000075, 52.213102800000058 ] } },
{ "type": "Feature", "properties": { "OBJECTID": 74368, "Shape": null, "id": "NL_10DK", "name": "BASISSCHOOL DE DRIFT", "lat": 52.937955, "lon": 6.6687699, "city": "GROLLOO", "public_private": null }, "geometry": { "type": "Point", "coordinates": [ 6.668769900000029, 52.937955 ] } },
{ "type": "Feature", "properties": { "OBJECTID": 74369, "Shape": null, "id": "NL_10DL", "name": "APOLLO II SCHOOL VOOR OPENBAAR BASISONDERWIJS", "lat": 52.0773272, "lon": 5.0325156, "city": "DE MEERN", "public_private": null }, "geometry": { "type": "Point", "coordinates": [ 5.032515600000067, 52.07732720000007 ] } },
{ "type": "Feature", "properties": { "OBJECTID": 74370, "Shape": null, "id": "NL_10DM", "name": "OPENBARE BASISSCHOOL BINNEN DE VESTE", "lat": 51.64906955, "lon": 3.915389613, "city": "ZIERIKZEE", "public_private": null }, "geometry": { "type": "Point", "coordinates": [ 3.915389613000059, 51.649069550000036 ] } },
{ "type": "Feature", "properties": { "OBJECTID": 74371, "Shape": null, "id": "NL_10DT", "name": "SAMENWERKINGSSCHOOL DE DRIESPRONG", "lat": 53.0711209, "lon": 7.1152733, "city": "VRIESCHELOO", "public_private": null }, "geometry": { "type": "Point", "coordinates": [ 7.115273300000069, 53.071120900000039 ] } },
{ "type": "Feature", "properties": { "OBJECTID": 74372, "Shape": null, "id": "NL_10DU", "name": "DE SALLER", "lat": 52.2676587, "lon": 6.9967644, "city": "LOSSER", "public_private": null }, "geometry": { "type": "Point", "coordinates": [ 6.996764400000075, 52.267658700000027 ] } },
{ "type": "Feature", "properties": { "OBJECTID": 74373, "Shape": null, "id": "NL_10DV", "name": "BASISSCHOOL PRINS WILLEM ALEXANDER", "lat": 51.9726333, "lon": 4.61536844, "city": "NIEUWERKERK AD IJSSEL", "public_private": null }, "geometry": { "type": "Point", "coordinates": [ 4.615368440000054, 51.972633300000041 ] } },
{ "type": "Feature", "properties": { "OBJECTID": 74374, "Shape": null, "id": "NL_10DW", "name": "OBS DE VOGELS", "lat": 52.1774062, "lon": 4.493208, "city": "OEGSTGEEST", "public_private": null }, "geometry": { "type": "Point", "coordinates": [ 4.493208, 52.177406200000064 ] } },
{ "type": "Feature", "properties": { "OBJECTID": 74375, "Shape": null, "id": "NL_10DX", "name": "BASISSCHOOL DE KRONKELAAR", "lat": 53.2564617, "lon": 6.9372822, "city": "WAGENBORGEN", "public_private": null }, "geometry": { "type": "Point", "coordinates": [ 6.937282200000027, 53.256461700000045 ] } },
{ "type": "Feature", "properties": { "OBJECTID": 74376, "Shape": null, "id": "NL_10EC", "name": "DE KRANEPOORT", "lat": 51.9824837, "lon": 4.6765597, "city": "GOUDERAK", "public_private": null }, "geometry": { "type": "Point", "coordinates": [ 4.676559700000041, 51.982483700000046 ] } },
{ "type": "Feature", "properties": { "OBJECTID": 74377, "Shape": null, "id": "NL_10EE", "name": "OPENBARE BASISSCHOOL 'T WAD", "lat": 53.177619, "lon": 5.424074974, "city": "HARLINGEN", "public_private": null }, "geometry": { "type": "Point", "coordinates": [ 5.424074974000064, 53.177619 ] } },
{ "type": "Feature", "properties": { "OBJECTID": 74378, "Shape": null, "id": "NL_10GR", "name": "'T SCHOOLHUYS", "lat": 52.0361633, "lon": 5.1778267, "city": "HOUTEN", "public_private": null }, "geometry": { "type": "Point", "coordinates": [ 5.177826700000026, 52.036163300000055 ] } },
{ "type": "Feature", "properties": { "OBJECTID": 74379, "Shape": null, "id": "NL_10EF", "name": "OPENBARE BASISSCHOOL DE KIKKENDUUT", "lat": 51.57674285, "lon": 5.195188941, "city": "OISTERWIJK", "public_private": null }, "geometry": { "type": "Point", "coordinates": [ 5.195188941000026, 51.576742850000073 ] } },
{ "type": "Feature", "properties": { "OBJECTID": 74380, "Shape": null, "id": "NL_10EG", "name": "OPENBARE BASISSCHOOL STERRENDONK", "lat": 51.6559021, "lon": 4.8659401, "city": "OOSTERHOUT NB", "public_private": null }, "geometry": { "type": "Point", "coordinates": [ 4.865940100000046, 51.655902100000048 ] } },
{ "type": "Feature", "properties": { "OBJECTID": 74381, "Shape": null, "id": "NL_10EH", "name": "BASISSCHOOL DE LINDELAAR", "lat": 52.8557003, "lon": 6.6079887, "city": "WESTERBORK", "public_private": null }, "geometry": { "type": "Point", "coordinates": [ 6.607988700000021, 52.85570030000008 ] } },
{ "type": "Feature", "properties": { "OBJECTID": 74382, "Shape": null, "id": "NL_10EJ", "name": "BASISSCHOOL JAN LIGTHART", "lat": 52.0039894, "lon": 6.345521036, "city": "ZELHEM", "public_private": null }, "geometry": { "type": "Point", "coordinates": [ 6.345521036000036, 52.00398940000008 ] } },
{ "type": "Feature", "properties": { "OBJECTID": 74383, "Shape": null, "id": "NL_10EL", "name": "OPENBARE BASISSCHOOL STAPELHOF", "lat": 51.7326609, "lon": 3.7768404, "city": "RENESSE", "public_private": null }, "geometry": { "type": "Point", "coordinates": [ 3.776840400000026, 51.732660900000042 ] } },
{ "type": "Feature", "properties": { "OBJECTID": 74384, "Shape": null, "id": "NL_10ES", "name": "BASISSCH DE SPRINGPLANK", "lat": 51.9625982, "lon": 5.5665307, "city": "RHENEN", "public_private": null }, "geometry": { "type": "Point", "coordinates": [ 5.566530700000044, 51.962598200000059 ] } },
{ "type": "Feature", "properties": { "OBJECTID": 74385, "Shape": null, "id": "NL_10EU", "name": "DS C DE RIDDERSCHOOL", "lat": 52.388395, "lon": 5.7954368, "city": "NUNSPEET", "public_private": null }, "geometry": { "type": "Point", "coordinates": [ 5.795436800000061, 52.388395 ] } },
{ "type": "Feature", "properties": { "OBJECTID": 74386, "Shape": null, "id": "NL_10EW", "name": "DE DIAMANT BASISSCHOOL", "lat": 51.38981295, "lon": 5.708474838, "city": "SOMEREN", "public_private": null }, "geometry": { "type": "Point", "coordinates": [ 5.708474838000029, 51.389812950000078 ] } },
{ "type": "Feature", "properties": { "OBJECTID": 74387, "Shape": null, "id": "NL_10EY", "name": "BASISSCHOOL HEILIG HART", "lat": 50.8424121, "lon": 5.8270901, "city": "VALKENBURG LB", "public_private": null }, "geometry": { "type": "Point", "coordinates": [ 5.827090100000021, 50.842412100000047 ] } },
{ "type": "Feature", "properties": { "OBJECTID": 74388, "Shape": null, "id": "NL_10EZ", "name": "BASISSCHOOL DE LOCHTENBERGH", "lat": 51.5919128, "lon": 5.0742205, "city": "TILBURG", "public_private": null }, "geometry": { "type": "Point", "coordinates": [ 5.074220500000024, 51.591912800000046 ] } },
{ "type": "Feature", "properties": { "OBJECTID": 74389, "Shape": null, "id": "NL_10FF", "name": "IKC VOSSEPARK", "lat": 52.2944618, "lon": 4.5914977, "city": "HILLEGOM", "public_private": null }, "geometry": { "type": "Point", "coordinates": [ 4.591497700000048, 52.294461800000079 ] } },
{ "type": "Feature", "properties": { "OBJECTID": 74390, "Shape": null, "id": "NL_10FG", "name": "BASISSCHOOL ST WILLIBRORDUS", "lat": 52.0443322, "lon": 6.6006074, "city": "GROENLO", "public_private": null }, "geometry": { "type": "Point", "coordinates": [ 6.600607400000058, 52.044332200000042 ] } },
{ "type": "Feature", "properties": { "OBJECTID": 74391, "Shape": null, "id": "NL_10FH", "name": "PROTESTANTS CHRISTELIJKE BASISSCHOOL ENKHUIZEN", "lat": 52.7125971, "lon": 5.2685586, "city": "ENKHUIZEN", "public_private": null }, "geometry": { "type": "Point", "coordinates": [ 5.268558600000063, 52.712597100000039 ] } },
{ "type": "Feature", "properties": { "OBJECTID": 74392, "Shape": null, "id": "NL_10FI", "name": "UILENBURCHT", "lat": 52.6983092, "lon": 5.2211324, "city": "GROOTEBROEK", "public_private": null }, "geometry": { "type": "Point", "coordinates": [ 5.221132400000045, 52.69830920000004 ] } },
{ "type": "Feature", "properties": { "OBJECTID": 74393, "Shape": null, "id": "NL_10FJ", "name": "BASISSCHOOL SINT PAULUS", "lat": 53.189259, "lon": 5.783841848, "city": "LEEUWARDEN", "public_private": null }, "geometry": { "type": "Point", "coordinates": [ 5.783841848000066, 53.189259 ] } },
{ "type": "Feature", "properties": { "OBJECTID": 74394, "Shape": null, "id": "NL_10FL", "name": "NOBELHORST", "lat": 51.2903997, "lon": 4.05603, "city": "HULST", "public_private": null }, "geometry": { "type": "Point", "coordinates": [ 4.05603, 51.29039970000008 ] } },
{ "type": "Feature", "properties": { "OBJECTID": 74395, "Shape": null, "id": "NL_10FM", "name": "KINDERCENTRUM MOZAÏEK", "lat": 51.4937704, "lon": 5.6702562, "city": "HELMOND", "public_private": null }, "geometry": { "type": "Point", "coordinates": [ 5.67025620000004, 51.493770400000074 ] } },
{ "type": "Feature", "properties": { "OBJECTID": 74396, "Shape": null, "id": "NL_10FN", "name": "BASISSCHOOL KAMELEON", "lat": 51.5187033, "lon": 5.0537727, "city": "GOIRLE", "public_private": null }, "geometry": { "type": "Point", "coordinates": [ 5.053772700000025, 51.518703300000027 ] } },
{ "type": "Feature", "properties": { "OBJECTID": 74397, "Shape": null, "id": "NL_10FO", "name": "HORIZON", "lat": 52.2885119, "lon": 4.8719903, "city": "AMSTELVEEN", "public_private": null }, "geometry": { "type": "Point", "coordinates": [ 4.87199030000005, 52.28851190000006 ] } },
{ "type": "Feature", "properties": { "OBJECTID": 74398, "Shape": null, "id": "NL_10FQ", "name": "RK BASISSCHOOL KLIM-OP", "lat": 51.4241877, "lon": 4.3264759, "city": "HOOGERHEIDE", "public_private": null }, "geometry": { "type": "Point", "coordinates": [ 4.326475900000048, 51.424187700000061 ] } },
{ "type": "Feature", "properties": { "OBJECTID": 74399, "Shape": null, "id": "NL_10FU", "name": "BASISSCHOOL DE WEGWIJZER", "lat": 52.1033927, "lon": 5.2369757, "city": "ZEIST", "public_private": null }, "geometry": { "type": "Point", "coordinates": [ 5.236975700000073, 52.103392700000029 ] } },
{ "type": "Feature", "properties": { "OBJECTID": 74400, "Shape": null, "id": "NL_10FW", "name": "ROOMS KATHOLIEKE BASISSCHOOL VOORDELDONK", "lat": 51.4006181, "lon": 5.7670644, "city": "ASTEN", "public_private": null }, "geometry": { "type": "Point", "coordinates": [ 5.767064400000038, 51.400618100000031 ] } },
{ "type": "Feature", "properties": { "OBJECTID": 74401, "Shape": null, "id": "NL_10FX", "name": "DE MOLENKREEK", "lat": 51.3539951, "lon": 3.553024813, "city": "SCHOONDIJKE", "public_private": null }, "geometry": { "type": "Point", "coordinates": [ 3.553024813000036, 51.353995100000077 ] } },
{ "type": "Feature", "properties": { "OBJECTID": 74402, "Shape": null, "id": "NL_10FY", "name": "ROOMS KATHOLIEKE BASISSCHOOL FLORA", "lat": 52.2938058, "lon": 6.7420499, "city": "BORNE", "public_private": null }, "geometry": { "type": "Point", "coordinates": [ 6.74204990000004, 52.29380580000003 ] } },
{ "type": "Feature", "properties": { "OBJECTID": 74403, "Shape": null, "id": "NL_10FZ", "name": "BASISSCHOOL DE VLINDERBOOM", "lat": 50.8399277, "lon": 5.7326203, "city": "MAASTRICHT", "public_private": null }, "geometry": { "type": "Point", "coordinates": [ 5.732620300000065, 50.839927700000032 ] } },
{ "type": "Feature", "properties": { "OBJECTID": 74404, "Shape": null, "id": "NL_10GA", "name": "PRINSES IRENESCHOOL", "lat": 51.502103, "lon": 3.899949, "city": "GOES", "public_private": null }, "geometry": { "type": "Point", "coordinates": [ 3.899949, 51.502103 ] } },
{ "type": "Feature", "properties": { "OBJECTID": 74405, "Shape": null, "id": "NL_10GB", "name": "MARTINUS SCHOOL", "lat": 52.2679815, "lon": 6.9969528, "city": "LOSSER", "public_private": null }, "geometry": { "type": "Point", "coordinates": [ 6.996952800000031, 52.267981500000076 ] } },
{ "type": "Feature", "properties": { "OBJECTID": 74406, "Shape": null, "id": "NL_10GD", "name": "BASISSCHOOL DE TRIANGEL", "lat": 52.3777282, "lon": 6.4829398, "city": "NIJVERDAL", "public_private": null }, "geometry": { "type": "Point", "coordinates": [ 6.482939800000054, 52.377728200000035 ] } },
{ "type": "Feature", "properties": { "OBJECTID": 74407, "Shape": null, "id": "NL_10GE", "name": "KATHOLIEKE BASISSCHOOL DE 4 HEEMSKINDEREN", "lat": 51.5642664, "lon": 4.6440438, "city": "ETTEN-LEUR", "public_private": null }, "geometry": { "type": "Point", "coordinates": [ 4.64404380000002, 51.564266400000065 ] } },
{ "type": "Feature", "properties": { "OBJECTID": 74408, "Shape": null, "id": "NL_10GK", "name": "BASISSCHOOL DE PIRAMIDE", "lat": 52.04100345, "lon": 4.319447405, "city": "RIJSWIJK ZH", "public_private": null }, "geometry": { "type": "Point", "coordinates": [ 4.319447405000062, 52.041003450000062 ] } },
{ "type": "Feature", "properties": { "OBJECTID": 74409, "Shape": null, "id": "NL_10GL", "name": "BASISSCHOOL VINCENT VAN GOGH", "lat": 51.183114, "lon": 6.0092667, "city": "ROERMOND", "public_private": null }, "geometry": { "type": "Point", "coordinates": [ 6.009266700000069, 51.183114 ] } },
{ "type": "Feature", "properties": { "OBJECTID": 74410, "Shape": null, "id": "NL_10GM", "name": "CHRISTELIJKE BASISSCHOOL DE AKKER", "lat": 52.9933093, "lon": 6.299844, "city": "OOSTERWOLDE FR", "public_private": null }, "geometry": { "type": "Point", "coordinates": [ 6.299844, 52.993309300000078 ] } },
{ "type": "Feature", "properties": { "OBJECTID": 74411, "Shape": null, "id": "NL_10GP", "name": "INTERCONFESSIONELE BASISSCHOOL DE CALEIDOSCOOP", "lat": 52.300503, "lon": 4.6780402, "city": "HOOFDDORP", "public_private": null }, "geometry": { "type": "Point", "coordinates": [ 4.678040200000055, 52.300503 ] } },
{ "type": "Feature", "properties": { "OBJECTID": 74412, "Shape": null, "id": "NL_10GQ", "name": "SINT ANNASCHOOL", "lat": 51.6209736, "lon": 5.979407, "city": "VORTUM-MULLEM", "public_private": null }, "geometry": { "type": "Point", "coordinates": [ 5.979407, 51.62097360000007 ] } },
{ "type": "Feature", "properties": { "OBJECTID": 74413, "Shape": null, "id": "NL_10GT", "name": "DE VELDKAMP", "lat": 52.37916465, "lon": 7.004844234, "city": "DENEKAMP", "public_private": null }, "geometry": { "type": "Point", "coordinates": [ 7.004844234000075, 52.379164650000064 ] } },
{ "type": "Feature", "properties": { "OBJECTID": 74414, "Shape": null, "id": "NL_10GZ", "name": "BASISSCHOOL DE STAPSTEEN", "lat": 51.3123096, "lon": 5.6117677, "city": "MAARHEEZE", "public_private": null }, "geometry": { "type": "Point", "coordinates": [ 5.61176770000003, 51.312309600000049 ] } },
{ "type": "Feature", "properties": { "OBJECTID": 74415, "Shape": null, "id": "NL_10HA", "name": "IKC PRINS JOHAN FRISO", "lat": 53.1665328, "lon": 5.4421805, "city": "HARLINGEN", "public_private": null }, "geometry": { "type": "Point", "coordinates": [ 5.442180500000063, 53.166532800000027 ] } },
{ "type": "Feature", "properties": { "OBJECTID": 74416, "Shape": null, "id": "NL_10HB", "name": "BASISSCHOOL DOMINICUS SAVIO", "lat": 52.3429007, "lon": 5.6333286, "city": "HARDERWIJK", "public_private": null }, "geometry": { "type": "Point", "coordinates": [ 5.633328600000027, 52.34290070000003 ] } },
{ "type": "Feature", "properties": { "OBJECTID": 74417, "Shape": null, "id": "NL_10HD", "name": "DE MEERHOEF", "lat": 51.4139736, "lon": 5.414999739, "city": "VELDHOVEN", "public_private": null }, "geometry": { "type": "Point", "coordinates": [ 5.414999739000052, 51.413973600000077 ] } },
{ "type": "Feature", "properties": { "OBJECTID": 74418, "Shape": null, "id": "NL_10HE", "name": "BASISSCHOOL DE PIRAMIDE", "lat": 51.456871, "lon": 5.8037468, "city": "DEURNE", "public_private": null }, "geometry": { "type": "Point", "coordinates": [ 5.803746800000056, 51.456871 ] } },
{ "type": "Feature", "properties": { "OBJECTID": 74419, "Shape": null, "id": "NL_10HF", "name": "RK BS DE GANZERIK", "lat": 50.9164465, "lon": 5.9546364, "city": "HEERLEN", "public_private": null }, "geometry": { "type": "Point", "coordinates": [ 5.954636400000027, 50.916446500000063 ] } },
{ "type": "Feature", "properties": { "OBJECTID": 74420, "Shape": null, "id": "NL_10HG", "name": "BASISSCHOOL DE ALM", "lat": 51.5380222, "lon": 5.0909364, "city": "TILBURG", "public_private": null }, "geometry": { "type": "Point", "coordinates": [ 5.090936400000032, 51.538022200000057 ] } },
{ "type": "Feature", "properties": { "OBJECTID": 74421, "Shape": null, "id": "NL_10HK", "name": "CHRISTELIJKE BASISSCHOOL DE TRIANGEL", "lat": 53.3143743, "lon": 6.8647279, "city": "APPINGEDAM", "public_private": null }, "geometry": { "type": "Point", "coordinates": [ 6.864727900000048, 53.314374300000054 ] } },
{ "type": "Feature", "properties": { "OBJECTID": 74422, "Shape": null, "id": "NL_10HM", "name": "KONINGIN BEATRIXSCHOOL", "lat": 52.7026954, "lon": 6.192552321, "city": "MEPPEL", "public_private": null }, "geometry": { "type": "Point", "coordinates": [ 6.192552321000051, 52.702695400000039 ] } },
{ "type": "Feature", "properties": { "OBJECTID": 74423, "Shape": null, "id": "NL_10HN", "name": "DE ARK", "lat": 52.7920573, "lon": 4.7972705, "city": "SCHAGEN", "public_private": null }, "geometry": { "type": "Point", "coordinates": [ 4.797270500000025, 52.792057300000067 ] } },
{ "type": "Feature", "properties": { "OBJECTID": 74424, "Shape": null, "id": "NL_10HO", "name": "BASISSCHOOL WINDEKIND", "lat": 50.8724044, "lon": 5.9846047, "city": "HEERLEN", "public_private": null }, "geometry": { "type": "Point", "coordinates": [ 5.984604700000034, 50.87240440000005 ] } },
{ "type": "Feature", "properties": { "OBJECTID": 74425, "Shape": null, "id": "NL_10HT", "name": "BASISSCHOOL DE TALENTER", "lat": 52.2923716, "lon": 6.5730754, "city": "ENTER", "public_private": null }, "geometry": { "type": "Point", "coordinates": [ 6.57307540000005, 52.292371600000081 ] } },
{ "type": "Feature", "properties": { "OBJECTID": 74426, "Shape": null, "id": "NL_10HU", "name": "KINDCENTRUM BONJOUR!", "lat": 50.9771882, "lon": 5.7752219, "city": "STEIN LB", "public_private": null }, "geometry": { "type": "Point", "coordinates": [ 5.775221900000076, 50.977188200000057 ] } },
{ "type": "Feature", "properties": { "OBJECTID": 74427, "Shape": null, "id": "NL_10HV", "name": "BASISSCHOOL DE FONKELING", "lat": 51.7661632, "lon": 5.574710655, "city": "BERGHEM", "public_private": null }, "geometry": { "type": "Point", "coordinates": [ 5.574710655000047, 51.766163200000051 ] } },
{ "type": "Feature", "properties": { "OBJECTID": 74428, "Shape": null, "id": "NL_10HX", "name": "BASISSCHOOL DE VUURVOGEL", "lat": 52.2489335, "lon": 4.8310605, "city": "UITHOORN", "public_private": null }, "geometry": { "type": "Point", "coordinates": [ 4.831060500000035, 52.248933500000078 ] } },
{ "type": "Feature", "properties": { "OBJECTID": 74429, "Shape": null, "id": "NL_10HY", "name": "ROOMS KATHOLIEK BASISSCHOOL DE ROELEVAER", "lat": 52.2074099, "lon": 4.6300775, "city": "ROELOFARENDSVEEN", "public_private": null }, "geometry": { "type": "Point", "coordinates": [ 4.630077500000027, 52.207409900000073 ] } },
{ "type": "Feature", "properties": { "OBJECTID": 74430, "Shape": null, "id": "NL_10IC", "name": "'T FINSTER", "lat": 52.97445595, "lon": 5.443270128, "city": "WORKUM", "public_private": null }, "geometry": { "type": "Point", "coordinates": [ 5.443270128000051, 52.974455950000049 ] } },
{ "type": "Feature", "properties": { "OBJECTID": 74431, "Shape": null, "id": "EL_15251", "name": "ΔΗΜΟΤΙΚΟ ΣΧΟΛΕΙΟ ΛΙΒΑΔΙΩΝ ΧΙΟΥ", "lat": null, "lon": null, "city": null, "public_private": null }, "geometry": null },
{ "type": "Feature", "properties": { "OBJECTID": 74432, "Shape": null, "id": "NL_10ID", "name": "CBS DE PAREL", "lat": 53.1375818, "lon": 6.4154209, "city": "RODEN", "public_private": null }, "geometry": { "type": "Point", "coordinates": [ 6.415420900000072, 53.137581800000078 ] } },
{ "type": "Feature", "properties": { "OBJECTID": 74433, "Shape": null, "id": "NL_10IE", "name": "KINDCENTRUM DE VLINDER", "lat": 52.5660327, "lon": 6.605228095, "city": "HARDENBERG", "public_private": null }, "geometry": { "type": "Point", "coordinates": [ 6.605228095000029, 52.566032700000051 ] } },
{ "type": "Feature", "properties": { "OBJECTID": 74434, "Shape": null, "id": "NL_10IJ", "name": "CBS DE REGENBOOG", "lat": 51.8852915, "lon": 4.6053207, "city": "RIDDERKERK", "public_private": null }, "geometry": { "type": "Point", "coordinates": [ 4.60532070000005, 51.885291500000051 ] } },
{ "type": "Feature", "properties": { "OBJECTID": 74435, "Shape": null, "id": "NL_10IK", "name": "DE STAPSTIEN", "lat": 53.2641959, "lon": 6.0826175, "city": "KOLLUMERSWEACH", "public_private": null }, "geometry": { "type": "Point", "coordinates": [ 6.082617500000026, 53.264195900000061 ] } },
{ "type": "Feature", "properties": { "OBJECTID": 74436, "Shape": null, "id": "NL_10IL", "name": "CHRISTELIJK KINDCENTRUM HET STROOMDAL", "lat": 53.0838535, "lon": 6.6652696, "city": "ZUIDLAREN", "public_private": null }, "geometry": { "type": "Point", "coordinates": [ 6.665269600000045, 53.083853500000032 ] } },
{ "type": "Feature", "properties": { "OBJECTID": 74437, "Shape": null, "id": "NL_10IM", "name": "DE WIJNGAARD", "lat": 52.6440647, "lon": 6.0748752, "city": "ZWARTSLUIS", "public_private": null }, "geometry": { "type": "Point", "coordinates": [ 6.074875200000065, 52.644064700000058 ] } },
{ "type": "Feature", "properties": { "OBJECTID": 74438, "Shape": null, "id": "NL_10IU", "name": "KC TALENTRIJK", "lat": 51.4743471, "lon": 5.707023008, "city": "HELMOND", "public_private": null }, "geometry": { "type": "Point", "coordinates": [ 5.707023008000021, 51.474347100000045 ] } },
{ "type": "Feature", "properties": { "OBJECTID": 74439, "Shape": null, "id": "NL_10IW", "name": "BASISSCHOOL DE TORENBERG", "lat": 51.3112071, "lon": 3.9138285, "city": "ZAAMSLAG", "public_private": null }, "geometry": { "type": "Point", "coordinates": [ 3.913828500000022, 51.311207100000047 ] } },
{ "type": "Feature", "properties": { "OBJECTID": 74440, "Shape": null, "id": "NL_10IY", "name": "PROTESTANTS CHRISTELIJKE BASISSCHOOL DE PALM", "lat": 52.6794918, "lon": 6.5812487, "city": "ELIM", "public_private": null }, "geometry": { "type": "Point", "coordinates": [ 6.58124870000006, 52.679491800000051 ] } },
{ "type": "Feature", "properties": { "OBJECTID": 74441, "Shape": null, "id": "NL_10IZ", "name": "MARNIX ACADEMIE", "lat": 52.1036083, "lon": 5.133276775, "city": "UTRECHT", "public_private": null }, "geometry": { "type": "Point", "coordinates": [ 5.13327677500007, 52.103608300000076 ] } },
{ "type": "Feature", "properties": { "OBJECTID": 74442, "Shape": null, "id": "NL_10JF", "name": "BS DE DROMENVANGER", "lat": 51.7253749, "lon": 5.1361867, "city": "OUDHEUSDEN", "public_private": null }, "geometry": { "type": "Point", "coordinates": [ 5.136186700000053, 51.725374900000077 ] } },
{ "type": "Feature", "properties": { "OBJECTID": 74443, "Shape": null, "id": "NL_10JH", "name": "BASISSCHOOL DE NIEUWE WEG", "lat": 52.0268055, "lon": 4.2176503, "city": "POELDIJK", "public_private": null }, "geometry": { "type": "Point", "coordinates": [ 4.217650300000059, 52.02680550000008 ] } },
{ "type": "Feature", "properties": { "OBJECTID": 74444, "Shape": null, "id": "NL_10JJ", "name": "ROOMS KATHOLIEKE BASISSCHOOL ZEELSTERHOF", "lat": 51.4244237, "lon": 5.417927114, "city": "VELDHOVEN", "public_private": null }, "geometry": { "type": "Point", "coordinates": [ 5.417927114000065, 51.424423700000034 ] } },
{ "type": "Feature", "properties": { "OBJECTID": 74445, "Shape": null, "id": "NL_10JK", "name": "KINDCENTRUM DE VLIERTUIN", "lat": 51.4643457, "lon": 5.2447049, "city": "OOST WEST EN MIDDELBEERS", "public_private": null }, "geometry": { "type": "Point", "coordinates": [ 5.244704900000045, 51.464345700000081 ] } },
{ "type": "Feature", "properties": { "OBJECTID": 74446, "Shape": null, "id": "NL_10VB", "name": "'T PADLAND", "lat": 52.6668139, "lon": 5.2157743, "city": "VENHUIZEN", "public_private": null }, "geometry": { "type": "Point", "coordinates": [ 5.215774300000021, 52.666813900000079 ] } },
{ "type": "Feature", "properties": { "OBJECTID": 74447, "Shape": null, "id": "NL_10JL", "name": "BASISSCHOOL HEILIG HART", "lat": 51.6318845, "lon": 4.9357008, "city": "DONGEN", "public_private": null }, "geometry": { "type": "Point", "coordinates": [ 4.935700800000063, 51.631884500000069 ] } },
{ "type": "Feature", "properties": { "OBJECTID": 74448, "Shape": null, "id": "NL_10JM", "name": "PAADWIZER", "lat": 53.2511618, "lon": 5.8975551, "city": "OENTSJERK", "public_private": null }, "geometry": { "type": "Point", "coordinates": [ 5.897555100000034, 53.251161800000034 ] } },
{ "type": "Feature", "properties": { "OBJECTID": 74449, "Shape": null, "id": "NL_10JN", "name": "BASISSCHOOL DE GROENE OASE", "lat": 51.9360552, "lon": 4.273976934, "city": "MAASLAND", "public_private": null }, "geometry": { "type": "Point", "coordinates": [ 4.273976934000075, 51.936055200000055 ] } },
{ "type": "Feature", "properties": { "OBJECTID": 74450, "Shape": null, "id": "NL_10JO", "name": "BASISSCHOOL DE EMPEL", "lat": 51.59980335, "lon": 5.603583824, "city": "ERP", "public_private": null }, "geometry": { "type": "Point", "coordinates": [ 5.603583824000054, 51.599803350000059 ] } },
{ "type": "Feature", "properties": { "OBJECTID": 74451, "Shape": null, "id": "NL_10JP", "name": "KBS OLYMPIA", "lat": 51.6067465, "lon": 4.7276972, "city": "BREDA", "public_private": null }, "geometry": { "type": "Point", "coordinates": [ 4.727697200000023, 51.606746500000042 ] } },
{ "type": "Feature", "properties": { "OBJECTID": 74452, "Shape": null, "id": "NL_10JT", "name": "DE TRIANGEL", "lat": 51.9256747, "lon": 6.5766738, "city": "AALTEN", "public_private": null }, "geometry": { "type": "Point", "coordinates": [ 6.576673800000037, 51.925674700000059 ] } },
{ "type": "Feature", "properties": { "OBJECTID": 74453, "Shape": null, "id": "NL_10JU", "name": "CHR BASISSCHOOL T HONK", "lat": 51.4831878, "lon": 3.9675035, "city": "KAPELLE", "public_private": null }, "geometry": { "type": "Point", "coordinates": [ 3.967503500000021, 51.483187800000053 ] } },
{ "type": "Feature", "properties": { "OBJECTID": 74454, "Shape": null, "id": "NL_10JY", "name": "KOLOM PRAKTIJKCOLLEGE HET PLEIN", "lat": 52.378825, "lon": 4.8186666, "city": "AMSTERDAM", "public_private": null }, "geometry": { "type": "Point", "coordinates": [ 4.818666600000029, 52.378825 ] } },
{ "type": "Feature", "properties": { "OBJECTID": 74455, "Shape": null, "id": "NL_10KB", "name": "ROOMS KATHOLIEKE BASISSCHOOLHET KOFSCHIP", "lat": 52.2966496, "lon": 4.914809289, "city": "OUDERKERK AAN DE AMSTEL", "public_private": null }, "geometry": { "type": "Point", "coordinates": [ 4.914809289000061, 52.29664960000008 ] } },
{ "type": "Feature", "properties": { "OBJECTID": 74456, "Shape": null, "id": "EL_15255", "name": "ΔΗΜΟΤΙΚΟ ΣΧΟΛΕΙΟ ΜΥΤΙΛΗΝΗΣ ΕΙΔΙΚΟ", "lat": null, "lon": null, "city": null, "public_private": null }, "geometry": null },
{ "type": "Feature", "properties": { "OBJECTID": 74457, "Shape": null, "id": "NL_10KD", "name": "KC NATUURTALENT", "lat": 51.3210958, "lon": 6.006033, "city": "HELDEN", "public_private": null }, "geometry": { "type": "Point", "coordinates": [ 6.006033, 51.32109580000008 ] } },
{ "type": "Feature", "properties": { "OBJECTID": 74458, "Shape": null, "id": "NL_10KE", "name": "DE VRIJE SCHOOL GRONINGEN ONDERBOUW", "lat": 53.2075249, "lon": 6.567452, "city": "GRONINGEN", "public_private": null }, "geometry": { "type": "Point", "coordinates": [ 6.567452, 53.207524900000067 ] } },
{ "type": "Feature", "properties": { "OBJECTID": 74459, "Shape": null, "id": "NL_10KI", "name": "R.K. BS DE KLEINE WERELD", "lat": 50.7759081, "lon": 6.0135387, "city": "VAALS", "public_private": null }, "geometry": { "type": "Point", "coordinates": [ 6.013538700000026, 50.775908100000038 ] } },
{ "type": "Feature", "properties": { "OBJECTID": 74460, "Shape": null, "id": "NL_10KN", "name": "CHRISTELIJK DALTON KINDCENTRUM DE ESHORST", "lat": 52.8653739, "lon": 6.5165714, "city": "BEILEN", "public_private": null }, "geometry": { "type": "Point", "coordinates": [ 6.516571400000032, 52.865373900000066 ] } },
{ "type": "Feature", "properties": { "OBJECTID": 74461, "Shape": null, "id": "NL_10KP", "name": "DE MATEN", "lat": 52.4660905, "lon": 6.4969534, "city": "DEN HAM OV", "public_private": null }, "geometry": { "type": "Point", "coordinates": [ 6.496953400000052, 52.466090500000064 ] } },
{ "type": "Feature", "properties": { "OBJECTID": 74462, "Shape": null, "id": "NL_26PX", "name": "DE WALVIS", "lat": 52.064808, "lon": 4.4128242, "city": "'S-GRAVENHAGE", "public_private": null }, "geometry": { "type": "Point", "coordinates": [ 4.412824200000045, 52.064808 ] } },
{ "type": "Feature", "properties": { "OBJECTID": 74463, "Shape": null, "id": "NL_10KQ", "name": "PROTESTANTS CHRISTELYKE BASISSCHOOL DE REGENBOOG", "lat": 52.279367, "lon": 6.4210086, "city": "HOLTEN", "public_private": null }, "geometry": { "type": "Point", "coordinates": [ 6.42100860000005, 52.279367 ] } },
{ "type": "Feature", "properties": { "OBJECTID": 74464, "Shape": null, "id": "NL_10KW", "name": "OPENBARE BASISSCHOOL SLINGERBOS", "lat": 52.2884982, "lon": 6.1474289, "city": "DIEPENVEEN", "public_private": null }, "geometry": { "type": "Point", "coordinates": [ 6.147428900000023, 52.288498200000049 ] } },
{ "type": "Feature", "properties": { "OBJECTID": 74465, "Shape": null, "id": "NL_10KX", "name": "BASISSCHOOL WESTERKIM", "lat": 51.6297216, "lon": 4.9240251, "city": "DONGEN", "public_private": null }, "geometry": { "type": "Point", "coordinates": [ 4.924025100000051, 51.629721600000039 ] } },
{ "type": "Feature", "properties": { "OBJECTID": 74466, "Shape": null, "id": "NL_10KZ", "name": "ARJEN ROELOFSSKOALLE", "lat": 53.2913885, "lon": 5.7639834, "city": "HIJUM", "public_private": null }, "geometry": { "type": "Point", "coordinates": [ 5.763983400000029, 53.291388500000039 ] } },
{ "type": "Feature", "properties": { "OBJECTID": 74467, "Shape": null, "id": "NL_10LI", "name": "P.C. BASISSCHOOL 'T ANKER", "lat": 52.1631757, "lon": 5.3628264, "city": "AMERSFOORT", "public_private": null }, "geometry": { "type": "Point", "coordinates": [ 5.362826400000074, 52.163175700000068 ] } },
{ "type": "Feature", "properties": { "OBJECTID": 74468, "Shape": null, "id": "NL_10LK", "name": "BASISSCHOOL DE RYTHMEEN", "lat": 52.2488714, "lon": 6.2934817, "city": "BATHMEN", "public_private": null }, "geometry": { "type": "Point", "coordinates": [ 6.293481700000029, 52.248871400000041 ] } },
{ "type": "Feature", "properties": { "OBJECTID": 74469, "Shape": null, "id": "NL_10LM", "name": "OPENBARE BASISSCHOOL MENNO TER BRAAKSCHOOL", "lat": 52.0993294, "lon": 6.6451026, "city": "EIBERGEN", "public_private": null }, "geometry": { "type": "Point", "coordinates": [ 6.64510260000003, 52.099329400000045 ] } },
{ "type": "Feature", "properties": { "OBJECTID": 74470, "Shape": null, "id": "NL_10LU", "name": "REGIONALE SCHOLENGEMEENSCHAP 'T RIJKS SCHOOL VOOR LYCEUM HAVO MAVO", "lat": 51.4987634, "lon": 4.2827885, "city": "BERGEN OP ZOOM", "public_private": null }, "geometry": { "type": "Point", "coordinates": [ 4.282788500000038, 51.49876340000003 ] } },
{ "type": "Feature", "properties": { "OBJECTID": 74471, "Shape": null, "id": "NL_10LV", "name": "GEARWURKINGSSKOALLE DE WÂLDIIK", "lat": 53.16182, "lon": 6.13979, "city": "BOELENSLAAN", "public_private": null }, "geometry": { "type": "Point", "coordinates": [ 6.13979, 53.16182 ] } },
{ "type": "Feature", "properties": { "OBJECTID": 74472, "Shape": null, "id": "NL_10LX", "name": "OPENBARE BASISSCHOOL DE REGENBOOG", "lat": 50.8504733, "lon": 5.7218734, "city": "MAASTRICHT", "public_private": null }, "geometry": { "type": "Point", "coordinates": [ 5.72187340000005, 50.850473300000033 ] } },
{ "type": "Feature", "properties": { "OBJECTID": 74473, "Shape": null, "id": "NL_10LY", "name": "OBS WEEMEWERELD", "lat": 52.4155994, "lon": 6.6217276, "city": "VRIEZENVEEN", "public_private": null }, "geometry": { "type": "Point", "coordinates": [ 6.621727600000042, 52.415599400000076 ] } },
{ "type": "Feature", "properties": { "OBJECTID": 74474, "Shape": null, "id": "NL_10MA", "name": "BASISSCHOOL'T SKITTELJACHT", "lat": 52.6946189, "lon": 5.1701468, "city": "HOOGKARSPEL", "public_private": null }, "geometry": { "type": "Point", "coordinates": [ 5.170146800000055, 52.69461890000008 ] } },
{ "type": "Feature", "properties": { "OBJECTID": 74475, "Shape": null, "id": "NL_10MB", "name": "OBS PARELMOER", "lat": 51.4891376, "lon": 4.041315074, "city": "YERSEKE", "public_private": null }, "geometry": { "type": "Point", "coordinates": [ 4.041315074000067, 51.489137600000049 ] } },
{ "type": "Feature", "properties": { "OBJECTID": 74476, "Shape": null, "id": "NL_10ME", "name": "WILLEM VAN ORANJE", "lat": 52.0840382, "lon": 4.8740739, "city": "WOERDEN", "public_private": null }, "geometry": { "type": "Point", "coordinates": [ 4.874073900000042, 52.084038200000066 ] } },
{ "type": "Feature", "properties": { "OBJECTID": 74477, "Shape": null, "id": "NL_10MI", "name": "CHRISTELIJKE SCHOOL VOOR BASISONDERWIJS DRAKENSTEYN", "lat": 52.1944558, "lon": 6.8997479, "city": "ENSCHEDE", "public_private": null }, "geometry": { "type": "Point", "coordinates": [ 6.899747900000023, 52.194455800000071 ] } },
{ "type": "Feature", "properties": { "OBJECTID": 74478, "Shape": null, "id": "NL_10MM", "name": "IKC WERELDWIJS", "lat": 52.2952218, "lon": 4.6914976, "city": "HOOFDDORP", "public_private": null }, "geometry": { "type": "Point", "coordinates": [ 4.691497600000048, 52.295221800000036 ] } },
{ "type": "Feature", "properties": { "OBJECTID": 74479, "Shape": null, "id": "NL_10MO", "name": "ALBERT PLESMANSCHOOL VOOR PROTESTANTS CHRISTELIJK BASISONDERWIJS", "lat": 51.9550028, "lon": 4.5383085, "city": "ROTTERDAM", "public_private": null }, "geometry": { "type": "Point", "coordinates": [ 4.538308500000028, 51.955002800000045 ] } },
{ "type": "Feature", "properties": { "OBJECTID": 74480, "Shape": null, "id": "NL_10MP", "name": "PRINS MAURITSSCHOOL", "lat": 52.6529573, "lon": 6.2304786, "city": "STAPHORST", "public_private": null }, "geometry": { "type": "Point", "coordinates": [ 6.230478600000026, 52.652957300000082 ] } },
{ "type": "Feature", "properties": { "OBJECTID": 74481, "Shape": null, "id": "NL_10MR", "name": "DE LINDENHOEVE", "lat": 51.8337628, "lon": 5.7893103, "city": "NIJMEGEN", "public_private": null }, "geometry": { "type": "Point", "coordinates": [ 5.789310300000068, 51.833762800000045 ] } },
{ "type": "Feature", "properties": { "OBJECTID": 74482, "Shape": null, "id": "NL_10VC", "name": "KINDCENTRUM HAGEWINDE", "lat": 52.2199685, "lon": 6.150365, "city": "WILP GLD", "public_private": null }, "geometry": { "type": "Point", "coordinates": [ 6.150365, 52.21996850000005 ] } },
{ "type": "Feature", "properties": { "OBJECTID": 74483, "Shape": null, "id": "NL_10MV", "name": "BASISSCHOOL DE UILENBURCHT", "lat": 52.0486425, "lon": 5.2703037, "city": "DRIEBERGEN-RIJSENBURG", "public_private": null }, "geometry": { "type": "Point", "coordinates": [ 5.270303700000056, 52.048642500000028 ] } },
{ "type": "Feature", "properties": { "OBJECTID": 74484, "Shape": null, "id": "NL_10MX", "name": "CHRISTELIJKE BASISSCHOOL DE KLAROEN", "lat": 52.1463637, "lon": 5.0423558, "city": "MAARSSEN", "public_private": null }, "geometry": { "type": "Point", "coordinates": [ 5.042355800000053, 52.146363700000052 ] } },
{ "type": "Feature", "properties": { "OBJECTID": 74485, "Shape": null, "id": "NL_10MY", "name": "BEATRIXSCHOOL", "lat": 51.8727801, "lon": 4.4665712, "city": "ROTTERDAM", "public_private": null }, "geometry": { "type": "Point", "coordinates": [ 4.466571200000033, 51.872780100000057 ] } },
{ "type": "Feature", "properties": { "OBJECTID": 74486, "Shape": null, "id": "NL_10MZ", "name": "EMMASCHOOL", "lat": 51.9569552, "lon": 4.492854701, "city": "ROTTERDAM", "public_private": null }, "geometry": { "type": "Point", "coordinates": [ 4.492854701000056, 51.956955200000039 ] } },
{ "type": "Feature", "properties": { "OBJECTID": 74487, "Shape": null, "id": "NL_10NA", "name": "DE BLINKERD", "lat": 52.02682995, "lon": 4.178583137, "city": "MONSTER", "public_private": null }, "geometry": { "type": "Point", "coordinates": [ 4.178583137000032, 52.026829950000035 ] } },
{ "type": "Feature", "properties": { "OBJECTID": 74488, "Shape": null, "id": "NL_10NB", "name": "KINDCENTRUM DE ELZENHOF", "lat": 52.5860871, "lon": 6.6389779, "city": "HARDENBERG", "public_private": null }, "geometry": { "type": "Point", "coordinates": [ 6.638977900000043, 52.586087100000043 ] } },
{ "type": "Feature", "properties": { "OBJECTID": 74489, "Shape": null, "id": "NL_10NC", "name": "STADHOUDER WILLEM DE DERDE SCHOOL", "lat": 51.8485289, "lon": 4.6303644, "city": "HENDRIK-IDO-AMBACHT", "public_private": null }, "geometry": { "type": "Point", "coordinates": [ 4.630364400000076, 51.848528900000076 ] } },
{ "type": "Feature", "properties": { "OBJECTID": 74490, "Shape": null, "id": "NL_10NH", "name": "CHRISTELIJKE BASISSCHOOL DE VIJVERHOF", "lat": 52.0776242, "lon": 4.373573888, "city": "VOORBURG", "public_private": null }, "geometry": { "type": "Point", "coordinates": [ 4.373573888000067, 52.077624200000059 ] } },
{ "type": "Feature", "properties": { "OBJECTID": 74491, "Shape": null, "id": "NL_10NK", "name": "FRANCISCUSSCHOOL VOOR BASISONDERWIJS", "lat": 51.5502791, "lon": 5.4228322, "city": "SINT-OEDENRODE", "public_private": null }, "geometry": { "type": "Point", "coordinates": [ 5.422832200000073, 51.550279100000068 ] } },
{ "type": "Feature", "properties": { "OBJECTID": 74492, "Shape": null, "id": "NL_10NL", "name": "CHRISTELIJKE BASISSCHOOL DE BONGERD", "lat": 51.8647631, "lon": 4.6137207, "city": "RIDDERKERK", "public_private": null }, "geometry": { "type": "Point", "coordinates": [ 4.613720700000044, 51.864763100000062 ] } },
{ "type": "Feature", "properties": { "OBJECTID": 74493, "Shape": null, "id": "NL_10NM", "name": "IKC BEATRIX", "lat": 51.8334251, "lon": 4.6819829, "city": "PAPENDRECHT", "public_private": null }, "geometry": { "type": "Point", "coordinates": [ 4.681982900000037, 51.833425100000056 ] } },
{ "type": "Feature", "properties": { "OBJECTID": 74494, "Shape": null, "id": "NL_10NN", "name": "DS. R.P.A. RUTGERSSCHOOL", "lat": 52.2080371, "lon": 4.400093733, "city": "KATWIJK ZH", "public_private": null }, "geometry": { "type": "Point", "coordinates": [ 4.400093733000062, 52.20803710000007 ] } },
{ "type": "Feature", "properties": { "OBJECTID": 74495, "Shape": null, "id": "NL_10NO", "name": "DE ZUIDSTER", "lat": 52.4885797, "lon": 6.117163, "city": "ZWOLLE", "public_private": null }, "geometry": { "type": "Point", "coordinates": [ 6.117163, 52.488579700000059 ] } },
{ "type": "Feature", "properties": { "OBJECTID": 74496, "Shape": null, "id": "NL_10NP", "name": "IKC ICHTHUS", "lat": 51.9379393, "lon": 4.2256293, "city": "MAASSLUIS", "public_private": null }, "geometry": { "type": "Point", "coordinates": [ 4.225629300000037, 51.937939300000039 ] } },
{ "type": "Feature", "properties": { "OBJECTID": 74497, "Shape": null, "id": "NL_10NS", "name": "RK BASISSCHOOL ST MAARTEN", "lat": 51.5271061, "lon": 4.2736275, "city": "HALSTEREN", "public_private": null }, "geometry": { "type": "Point", "coordinates": [ 4.273627500000032, 51.527106100000026 ] } },
{ "type": "Feature", "properties": { "OBJECTID": 74498, "Shape": null, "id": "NL_10NW", "name": "JULIANASCHOOL", "lat": 51.966212, "lon": 6.6972309, "city": "WINTERSWIJK", "public_private": null }, "geometry": { "type": "Point", "coordinates": [ 6.697230900000022, 51.966212 ] } },
{ "type": "Feature", "properties": { "OBJECTID": 74499, "Shape": null, "id": "NL_10NY", "name": "KINDCENTRUM DE REGENBOOG", "lat": 51.60553825, "lon": 5.676189236, "city": "BOEKEL", "public_private": null }, "geometry": { "type": "Point", "coordinates": [ 5.676189236000027, 51.605538250000052 ] } },
{ "type": "Feature", "properties": { "OBJECTID": 74500, "Shape": null, "id": "NL_10NZ", "name": "DE WEIJERWERELD", "lat": 51.64999765, "lon": 5.951401338, "city": "BOXMEER", "public_private": null }, "geometry": { "type": "Point", "coordinates": [ 5.951401338000039, 51.649997650000046 ] } },
{ "type": "Feature", "properties": { "OBJECTID": 74501, "Shape": null, "id": "NL_10OA", "name": "BASISSCHOOL HULSBERG", "lat": 50.8910199, "lon": 5.860567125, "city": "HULSBERG", "public_private": null }, "geometry": { "type": "Point", "coordinates": [ 5.860567125000046, 50.89101990000006 ] } },
{ "type": "Feature", "properties": { "OBJECTID": 74502, "Shape": null, "id": "NL_10OC", "name": "BASISSCHOOL OCTA", "lat": 51.9648419, "lon": 6.250364, "city": "DOETINCHEM", "public_private": null }, "geometry": { "type": "Point", "coordinates": [ 6.250364, 51.964841900000067 ] } },
{ "type": "Feature", "properties": { "OBJECTID": 74503, "Shape": null, "id": "NL_10OD", "name": "INTERCONFESSIONELE BASISSCHOOL DE WINDROOS", "lat": 52.4488058, "lon": 4.8441718, "city": "ZAANDAM", "public_private": null }, "geometry": { "type": "Point", "coordinates": [ 4.844171800000026, 52.448805800000059 ] } },
{ "type": "Feature", "properties": { "OBJECTID": 74504, "Shape": null, "id": "NL_10OE", "name": "KBS DE HEESWIJK", "lat": 52.049617, "lon": 4.9532828, "city": "MONTFOORT", "public_private": null }, "geometry": { "type": "Point", "coordinates": [ 4.953282800000068, 52.049617 ] } },
{ "type": "Feature", "properties": { "OBJECTID": 74505, "Shape": null, "id": "NL_10OF", "name": "CBS DE KOPERWIEK", "lat": 52.7139357, "lon": 5.7510576, "city": "EMMELOORD", "public_private": null }, "geometry": { "type": "Point", "coordinates": [ 5.751057600000024, 52.713935700000036 ] } },
{ "type": "Feature", "properties": { "OBJECTID": 74506, "Shape": null, "id": "NL_10OK", "name": "BASISSCHOOL DE WINGERD", "lat": 52.4885833, "lon": 6.1182314, "city": "ZWOLLE", "public_private": null }, "geometry": { "type": "Point", "coordinates": [ 6.11823140000007, 52.488583300000073 ] } },
{ "type": "Feature", "properties": { "OBJECTID": 74507, "Shape": null, "id": "NL_10OP", "name": "KINDCENTRUM HELMGRAS", "lat": 52.5463637, "lon": 4.6780766, "city": "CASTRICUM", "public_private": null }, "geometry": { "type": "Point", "coordinates": [ 4.678076600000054, 52.546363700000029 ] } },
{ "type": "Feature", "properties": { "OBJECTID": 74508, "Shape": null, "id": "NL_10OR", "name": "BASISSCHOOL DE BRUG", "lat": 52.2771542, "lon": 4.801137, "city": "AALSMEER", "public_private": null }, "geometry": { "type": "Point", "coordinates": [ 4.801137, 52.277154200000041 ] } },
{ "type": "Feature", "properties": { "OBJECTID": 74509, "Shape": null, "id": "NL_10OU", "name": "PJ SMITSCHOOL", "lat": 52.6701034, "lon": 4.850685114, "city": "HEERHUGOWAARD", "public_private": null }, "geometry": { "type": "Point", "coordinates": [ 4.850685114000044, 52.670103400000073 ] } },
{ "type": "Feature", "properties": { "OBJECTID": 74510, "Shape": null, "id": "NL_10OV", "name": "TUIN 17", "lat": 51.955291, "lon": 5.7578608, "city": "HETEREN", "public_private": null }, "geometry": { "type": "Point", "coordinates": [ 5.75786080000006, 51.955291 ] } },
{ "type": "Feature", "properties": { "OBJECTID": 74511, "Shape": null, "id": "NL_10OW", "name": "ST. ANTONIUSSCHOOL", "lat": 52.373121, "lon": 4.9022071, "city": "AMSTERDAM", "public_private": null }, "geometry": { "type": "Point", "coordinates": [ 4.902207100000055, 52.373121 ] } },
{ "type": "Feature", "properties": { "OBJECTID": 74512, "Shape": null, "id": "NL_10OY", "name": "BASISSCHOOL SINT WILLIBRORDUSSCHOOL", "lat": 52.2614601, "lon": 4.5650315, "city": "LISSE", "public_private": null }, "geometry": { "type": "Point", "coordinates": [ 4.565031500000032, 52.261460100000079 ] } },
{ "type": "Feature", "properties": { "OBJECTID": 74513, "Shape": null, "id": "NL_10PA", "name": "RK BS ST. ANTONIUSSCHOOL", "lat": 52.748624, "lon": 4.9001993, "city": "NIEUWE NIEDORP", "public_private": null }, "geometry": { "type": "Point", "coordinates": [ 4.900199300000054, 52.748624 ] } },
{ "type": "Feature", "properties": { "OBJECTID": 74514, "Shape": null, "id": "NL_10PB", "name": "BASISSCHOOL DE FIRTEL", "lat": 51.19409195, "lon": 5.719201351, "city": "STRAMPROY", "public_private": null }, "geometry": { "type": "Point", "coordinates": [ 5.719201351000038, 51.194091950000029 ] } },
{ "type": "Feature", "properties": { "OBJECTID": 74515, "Shape": null, "id": "NL_10PC", "name": "ROTONDASCHOOL", "lat": 51.87090135, "lon": 5.401406377, "city": "TIEL", "public_private": null }, "geometry": { "type": "Point", "coordinates": [ 5.401406377000058, 51.870901350000054 ] } },
{ "type": "Feature", "properties": { "OBJECTID": 74516, "Shape": null, "id": "NL_10PE", "name": "KINDCENTRUM DE RAAGTEN", "lat": 51.5361724, "lon": 5.626749803, "city": "BEEK EN DONK", "public_private": null }, "geometry": { "type": "Point", "coordinates": [ 5.626749803000052, 51.536172400000055 ] } },
{ "type": "Feature", "properties": { "OBJECTID": 74517, "Shape": null, "id": "NL_10PF", "name": "ROOMS KATHOLIEKE BASISSCHOOL DE WELLE", "lat": 51.5099983, "lon": 4.2836466, "city": "BERGEN OP ZOOM", "public_private": null }, "geometry": { "type": "Point", "coordinates": [ 4.283646600000054, 51.509998300000063 ] } },
{ "type": "Feature", "properties": { "OBJECTID": 74518, "Shape": null, "id": "NL_10PG", "name": "ROOMS KATHOLIEKE BASISSCHOOL WILLIBRORD-MILAND", "lat": 52.0789852, "lon": 4.7451265, "city": "BODEGRAVEN", "public_private": null }, "geometry": { "type": "Point", "coordinates": [ 4.745126500000026, 52.078985200000034 ] } },
{ "type": "Feature", "properties": { "OBJECTID": 74519, "Shape": null, "id": "NL_10PI", "name": "KATHOLIEKE BASISSCHOOL D'N OVERKANT", "lat": 51.57658, "lon": 4.63380372, "city": "ETTEN-LEUR", "public_private": null }, "geometry": { "type": "Point", "coordinates": [ 4.63380372000006, 51.57658 ] } },
{ "type": "Feature", "properties": { "OBJECTID": 74520, "Shape": null, "id": "NL_10PN", "name": "ROOMS KATHOLIEKE BASISSCHOOL SINT WILLIBRORD", "lat": 52.6003081, "lon": 4.6873909, "city": "HEILOO", "public_private": null }, "geometry": { "type": "Point", "coordinates": [ 4.687390900000025, 52.600308100000063 ] } },
{ "type": "Feature", "properties": { "OBJECTID": 74521, "Shape": null, "id": "NL_10PS", "name": "DE LEEMSTEE", "lat": 52.3017815, "lon": 6.9389431, "city": "OLDENZAAL", "public_private": null }, "geometry": { "type": "Point", "coordinates": [ 6.938943100000074, 52.301781500000061 ] } },
{ "type": "Feature", "properties": { "OBJECTID": 74522, "Shape": null, "id": "NL_10PT", "name": "DE WINGERD", "lat": 52.456514, "lon": 5.691882, "city": "BIDDINGHUIZEN", "public_private": null }, "geometry": { "type": "Point", "coordinates": [ 5.691882, 52.456514 ] } },
{ "type": "Feature", "properties": { "OBJECTID": 74523, "Shape": null, "id": "NL_10PW", "name": "BASISSCHOOL DE OVERPLAATS", "lat": 52.2279555, "lon": 4.5195829, "city": "SASSENHEIM", "public_private": null }, "geometry": { "type": "Point", "coordinates": [ 4.519582900000046, 52.227955500000064 ] } },
{ "type": "Feature", "properties": { "OBJECTID": 74524, "Shape": null, "id": "NL_10PX", "name": "DE RANK", "lat": 52.7969227, "lon": 4.797976, "city": "SCHAGEN", "public_private": null }, "geometry": { "type": "Point", "coordinates": [ 4.797976, 52.796922700000039 ] } },
{ "type": "Feature", "properties": { "OBJECTID": 74525, "Shape": null, "id": "NL_10PY", "name": "BASISSCHOOL DE BEIAARD", "lat": 52.1044849, "lon": 5.1400909, "city": "UTRECHT", "public_private": null }, "geometry": { "type": "Point", "coordinates": [ 5.140090900000075, 52.104484900000045 ] } },
{ "type": "Feature", "properties": { "OBJECTID": 74526, "Shape": null, "id": "NL_10PZ", "name": "DE SMELEN", "lat": 51.3567652, "lon": 5.470608188, "city": "VALKENSWAARD", "public_private": null }, "geometry": { "type": "Point", "coordinates": [ 5.470608188000028, 51.356765200000041 ] } },
{ "type": "Feature", "properties": { "OBJECTID": 74527, "Shape": null, "id": "NL_10QA", "name": "RK BASISSCHOOL JOZEF", "lat": 51.4534456, "lon": 3.5672278, "city": "VLISSINGEN", "public_private": null }, "geometry": { "type": "Point", "coordinates": [ 3.567227800000069, 51.453445600000066 ] } },
{ "type": "Feature", "properties": { "OBJECTID": 74528, "Shape": null, "id": "NL_10QB", "name": "ROOMS KATHOLIEKE BASISSCHOOL KLAVERTJE VIER", "lat": 50.8251453, "lon": 5.9417639, "city": "EYS", "public_private": null }, "geometry": { "type": "Point", "coordinates": [ 5.941763900000069, 50.825145300000031 ] } },
{ "type": "Feature", "properties": { "OBJECTID": 74529, "Shape": null, "id": "NL_10QC", "name": "KINDCENTRUM DE MINSTREEL", "lat": 52.01904, "lon": 5.03595, "city": "IJSSELSTEIN UT", "public_private": null }, "geometry": { "type": "Point", "coordinates": [ 5.03595, 52.01904 ] } },
{ "type": "Feature", "properties": { "OBJECTID": 74530, "Shape": null, "id": "NL_10QE", "name": "KBS FRANCISCUS", "lat": 52.0794818, "lon": 4.8594707, "city": "WOERDEN", "public_private": null }, "geometry": { "type": "Point", "coordinates": [ 4.859470700000031, 52.079481800000053 ] } },
{ "type": "Feature", "properties": { "OBJECTID": 74531, "Shape": null, "id": "NL_10QF", "name": "KINDCENTRUM DE MOLENWERF", "lat": 52.3441811, "lon": 4.6263868, "city": "HEEMSTEDE", "public_private": null }, "geometry": { "type": "Point", "coordinates": [ 4.626386800000034, 52.344181100000071 ] } },
{ "type": "Feature", "properties": { "OBJECTID": 74532, "Shape": null, "id": "NL_10QL", "name": "CNS - BASISSCHOOL DE PLATAAN", "lat": 52.0055885, "lon": 5.6792804, "city": "BENNEKOM", "public_private": null },