{
"type": "FeatureCollection",
"name": "EU_education26",
"crs": { "type": "name", "properties": { "name": "urn:ogc:def:crs:OGC:1.3:CRS84" } },
"features": [
{ "type": "Feature", "properties": { "OBJECTID": 309151, "Shape": null, "id": "CZ_600089894", "name": "MATEŘSKÁ ŠKOLA SLUNÍČKO, STRADOUŇ", "lat": 49.9694193, "lon": 16.0622384, "city": null, "public_private": null }, "geometry": { "type": "Point", "coordinates": [ 16.062238400000069, 49.969419300000027 ] } },
{ "type": "Feature", "properties": { "OBJECTID": 309152, "Shape": null, "id": "CZ_600047342", "name": "ZÁKLADNÍ UMĚLECKÁ ŠKOLA MĚLNÍK, PŘÍSPĚVKOVÁ ORGANIZACE", "lat": 50.3502854, "lon": 14.4746309, "city": null, "public_private": null }, "geometry": { "type": "Point", "coordinates": [ 14.474630900000022, 50.350285400000075 ] } },
{ "type": "Feature", "properties": { "OBJECTID": 309153, "Shape": null, "id": "CZ_600047377", "name": "ZÁKLADNÍ ŠKOLA MĚLNÍK - MLAZICE, PŘÍSPĚVKOVÁ ORGANIZACE", "lat": 50.3729384, "lon": 14.4666949, "city": null, "public_private": null }, "geometry": { "type": "Point", "coordinates": [ 14.46669490000005, 50.372938400000066 ] } },
{ "type": "Feature", "properties": { "OBJECTID": 309154, "Shape": null, "id": "CZ_600047385", "name": "ZÁKLADNÍ ŠKOLA JINDŘICHA MATIEGKY MĚLNÍK, PŘÍSPĚVKOVÁ ORGANIZACE", "lat": 50.345708, "lon": 14.4831905, "city": null, "public_private": null }, "geometry": { "type": "Point", "coordinates": [ 14.483190500000035, 50.345708 ] } },
{ "type": "Feature", "properties": { "OBJECTID": 309155, "Shape": null, "id": "CZ_600047393", "name": "ZÁKLADNÍ ŠKOLA MĚLNÍK - PŠOVKA, PŘÍSPĚVKOVÁ ORGANIZACE", "lat": 50.3628806, "lon": 14.4728902, "city": null, "public_private": null }, "geometry": { "type": "Point", "coordinates": [ 14.472890200000052, 50.36288060000004 ] } },
{ "type": "Feature", "properties": { "OBJECTID": 309156, "Shape": null, "id": "CZ_600047440", "name": "ZÁKLADNÍ ŠKOLA A MATEŘSKÁ ŠKOLA MĚLNICKÉ VTELNO, OKRES MĚLNÍK", "lat": 50.351048, "lon": 14.6912626, "city": null, "public_private": null }, "geometry": { "type": "Point", "coordinates": [ 14.691262600000073, 50.351048 ] } },
{ "type": "Feature", "properties": { "OBJECTID": 309157, "Shape": null, "id": "CZ_600047466", "name": "ZÁKLADNÍ ŠKOLA NELAHOZEVES, OKRES MĚLNÍK", "lat": 50.2613838, "lon": 14.299155, "city": null, "public_private": null }, "geometry": { "type": "Point", "coordinates": [ 14.299155, 50.261383800000033 ] } },
{ "type": "Feature", "properties": { "OBJECTID": 309158, "Shape": null, "id": "CZ_600046893", "name": "MATEŘSKÁ ŠKOLA MĚLNÍK, V ZÁTIŠÍ 2948, PŘÍSPĚVKOVÁ ORGANIZACE", "lat": 50.372352, "lon": 14.4679714, "city": null, "public_private": null }, "geometry": { "type": "Point", "coordinates": [ 14.467971400000067, 50.372352 ] } },
{ "type": "Feature", "properties": { "OBJECTID": 309159, "Shape": null, "id": "CZ_600047598", "name": "ZÁKLADNÍ ŠKOLA A MATEŘSKÁ ŠKOLA VŠETATY - OKRES MĚLNÍK, PŘÍSPĚVKOVÁ ORGANIZACE", "lat": 50.2827525, "lon": 14.5929525, "city": null, "public_private": null }, "geometry": { "type": "Point", "coordinates": [ 14.592952500000024, 50.282752500000072 ] } },
{ "type": "Feature", "properties": { "OBJECTID": 309160, "Shape": null, "id": "CZ_600047610", "name": "ZÁKLADNÍ ŠKOLA A MATEŘSKÁ ŠKOLA BYŠICE, OKRES MĚLNÍK", "lat": 50.3125033, "lon": 14.6119937, "city": null, "public_private": null }, "geometry": { "type": "Point", "coordinates": [ 14.611993700000028, 50.31250330000006 ] } },
{ "type": "Feature", "properties": { "OBJECTID": 309161, "Shape": null, "id": "CZ_600047636", "name": "ZÁKLADNÍ ŠKOLA T. STOLZOVÉ KOSTELEC NAD LABEM, PŘÍSPĚVKOVÁ ORGANIZACE", "lat": 50.2304976, "lon": 14.5881188, "city": null, "public_private": null }, "geometry": { "type": "Point", "coordinates": [ 14.588118800000075, 50.230497600000035 ] } },
{ "type": "Feature", "properties": { "OBJECTID": 309162, "Shape": null, "id": "CZ_600047644", "name": "ZÁKLADNÍ ŠKOLA KRALUPY NAD VLTAVOU, GEN. KLAPÁLKA 1029, OKRES MĚLNÍK, PŘÍSPĚVKOVÁ ORGANIZACE", "lat": 50.23907135, "lon": 14.30261432, "city": null, "public_private": null }, "geometry": { "type": "Point", "coordinates": [ 14.302614320000032, 50.239071350000074 ] } },
{ "type": "Feature", "properties": { "OBJECTID": 309163, "Shape": null, "id": "CZ_600047652", "name": "ZÁKLADNÍ ŠKOLA VÁCLAVA HAVLA V KRALUPECH NAD VLTAVOU, PŘÍSPĚVKOVÁ ORGANIZACE", "lat": 50.24946085, "lon": 14.30885309, "city": null, "public_private": null }, "geometry": { "type": "Point", "coordinates": [ 14.308853090000071, 50.249460850000048 ] } },
{ "type": "Feature", "properties": { "OBJECTID": 309164, "Shape": null, "id": "CZ_600047687", "name": "ZÁKLADNÍ ŠKOLA LUŽEC NAD VLTAVOU, PŘÍSPĚVKOVÁ ORGANIZACE", "lat": 50.32041, "lon": 14.4013738, "city": null, "public_private": null }, "geometry": { "type": "Point", "coordinates": [ 14.401373800000044, 50.32041 ] } },
{ "type": "Feature", "properties": { "OBJECTID": 309165, "Shape": null, "id": "CZ_600047695", "name": "ZÁKLADNÍ ŠKOLA MŠENO, PŘÍSPĚVKOVÁ ORGANIZACE", "lat": 50.4376, "lon": 14.6391688, "city": null, "public_private": null }, "geometry": { "type": "Point", "coordinates": [ 14.63916880000005, 50.4376 ] } },
{ "type": "Feature", "properties": { "OBJECTID": 309166, "Shape": null, "id": "CZ_600047717", "name": "ZÁKLADNÍ ŠKOLA OBŘÍSTVÍ, OKRES MĚLNÍK", "lat": 50.29463165, "lon": 14.47769247, "city": null, "public_private": null }, "geometry": { "type": "Point", "coordinates": [ 14.477692470000022, 50.294631650000042 ] } },
{ "type": "Feature", "properties": { "OBJECTID": 309167, "Shape": null, "id": "CZ_600047725", "name": "ZÁKLADNÍ ŠKOLA VELTRUSY, PŘÍSPĚVKOVÁ ORGANIZACE", "lat": 50.2692813, "lon": 14.32464386, "city": null, "public_private": null }, "geometry": { "type": "Point", "coordinates": [ 14.324643860000037, 50.269281300000046 ] } },
{ "type": "Feature", "properties": { "OBJECTID": 309168, "Shape": null, "id": "CZ_600047733", "name": "ZÁKLADNÍ ŠKOLA LIBIŠ, OKRES MĚLNÍK", "lat": 50.2765385, "lon": 14.4984615, "city": null, "public_private": null }, "geometry": { "type": "Point", "coordinates": [ 14.498461500000076, 50.276538500000072 ] } },
{ "type": "Feature", "properties": { "OBJECTID": 309169, "Shape": null, "id": "CZ_600047768", "name": "ZÁKLADNÍ ŠKOLA A MATEŘSKÁ ŠKOLA ÚŽICE, PŘÍSPĚVKOVÁ ORGANIZACE", "lat": 50.2547264, "lon": 14.3784173, "city": null, "public_private": null }, "geometry": { "type": "Point", "coordinates": [ 14.378417300000024, 50.254726400000038 ] } },
{ "type": "Feature", "properties": { "OBJECTID": 309170, "Shape": null, "id": "CZ_600047491", "name": "ZÁKLADNÍ ŠKOLA VELKÝ BOREK, OKRES MĚLNÍK, PŘÍSPĚVKOVÁ ORGANIZACE", "lat": 50.3443122, "lon": 14.517392, "city": null, "public_private": null }, "geometry": { "type": "Point", "coordinates": [ 14.517392, 50.344312200000047 ] } },
{ "type": "Feature", "properties": { "OBJECTID": 309171, "Shape": null, "id": "CZ_600047849", "name": "ZÁKLADNÍ ŠKOLA A PRAKTICKÁ ŠKOLA NERATOVICE, PŘÍSPĚVKOVÁ ORGANIZACE", "lat": 50.2559913, "lon": 14.4980775, "city": null, "public_private": null }, "geometry": { "type": "Point", "coordinates": [ 14.498077500000022, 50.255991300000062 ] } },
{ "type": "Feature", "properties": { "OBJECTID": 309172, "Shape": null, "id": "CZ_600048411", "name": "MATEŘSKÁ ŠKOLA BĚLÁ POD BEZDĚZEM, PŘÍSPĚVKOVÁ ORGANIZACE", "lat": 50.5026075, "lon": 14.7974075, "city": null, "public_private": null }, "geometry": { "type": "Point", "coordinates": [ 14.797407500000077, 50.502607500000067 ] } },
{ "type": "Feature", "properties": { "OBJECTID": 309173, "Shape": null, "id": "CZ_600048497", "name": "MATEŘSKÁ ŠKOLA BAKOV NAD JIZEROU, OKRES MLADÁ BOLESLAV", "lat": 50.4795038, "lon": 14.936135, "city": null, "public_private": null }, "geometry": { "type": "Point", "coordinates": [ 14.936135, 50.479503800000032 ] } },
{ "type": "Feature", "properties": { "OBJECTID": 309174, "Shape": null, "id": "CZ_600048594", "name": "MATEŘSKÁ ŠKOLA A ŠKOLNÍ JÍDELNA CHOTĚTOV, OKRES MLADÁ BOLESLAV", "lat": 50.3395438, "lon": 14.8035738, "city": null, "public_private": null }, "geometry": { "type": "Point", "coordinates": [ 14.803573800000038, 50.339543800000058 ] } },
{ "type": "Feature", "properties": { "OBJECTID": 309175, "Shape": null, "id": "CZ_600048756", "name": "MATEŘSKÁ ŠKOLA LUŠTĚNICE, PŘÍSPĚVKOVÁ ORGANIZACE", "lat": 50.3209114, "lon": 14.9350521, "city": null, "public_private": null }, "geometry": { "type": "Point", "coordinates": [ 14.935052100000064, 50.320911400000057 ] } },
{ "type": "Feature", "properties": { "OBJECTID": 309176, "Shape": null, "id": "CZ_600092054", "name": "MATEŘSKÁ ŠKOLA, HOŘICE, HUSOVA 2166", "lat": 50.364575, "lon": 15.6320113, "city": null, "public_private": null }, "geometry": { "type": "Point", "coordinates": [ 15.632011300000045, 50.364575 ] } },
{ "type": "Feature", "properties": { "OBJECTID": 309177, "Shape": null, "id": "CZ_600048781", "name": "MATEŘSKÁ ŠKOLA ČTYŘLÍSTEK MLADÁ BOLESLAV, HAVLÍČKOVA 1000, PŘÍSPĚVKOVÁ ORGANIZACE", "lat": 50.4292026, "lon": 14.9110875, "city": null, "public_private": null }, "geometry": { "type": "Point", "coordinates": [ 14.911087500000065, 50.429202600000053 ] } },
{ "type": "Feature", "properties": { "OBJECTID": 309178, "Shape": null, "id": "CZ_600048799", "name": "MATEŘSKÁ ŠKOLA PAMPELIŠKA MLADÁ BOLESLAV, NERUDOVA 797, PŘÍSPĚVKOVÁ ORGANIZACE", "lat": 50.4231918, "lon": 14.9093699, "city": null, "public_private": null }, "geometry": { "type": "Point", "coordinates": [ 14.909369900000058, 50.423191800000041 ] } },
{ "type": "Feature", "properties": { "OBJECTID": 309179, "Shape": null, "id": "CZ_600048802", "name": "MATEŘSKÁ ŠKOLA KOSMONOSY, PIONÝRŮ 781, OKRES MLADÁ BOLESLAV, PŘÍSPĚVKOVÁ ORGANIZACE", "lat": 50.4353888, "lon": 14.9209038, "city": null, "public_private": null }, "geometry": { "type": "Point", "coordinates": [ 14.920903800000076, 50.435388800000055 ] } },
{ "type": "Feature", "properties": { "OBJECTID": 309180, "Shape": null, "id": "CZ_600048896", "name": "MATEŘSKÁ ŠKOLA VŠEJANY, OKRES MLADÁ BOLESLAV", "lat": 50.2564738, "lon": 14.9560625, "city": null, "public_private": null }, "geometry": { "type": "Point", "coordinates": [ 14.95606250000003, 50.256473800000037 ] } },
{ "type": "Feature", "properties": { "OBJECTID": 309181, "Shape": null, "id": "CZ_600047806", "name": "ZÁKLADNÍ UMĚLECKÁ ŠKOLA MŠENO, PŘÍSPĚVKOVÁ ORGANIZACE", "lat": 50.4363338, "lon": 14.6401375, "city": null, "public_private": null }, "geometry": { "type": "Point", "coordinates": [ 14.640137500000037, 50.436333800000057 ] } },
{ "type": "Feature", "properties": { "OBJECTID": 309182, "Shape": null, "id": "CZ_600049124", "name": "ZÁKLADNÍ ŠKOLA A MATEŘSKÁ ŠKOLA ČACHOVICE, PŘÍSPĚVKOVÁ ORGANIZACE", "lat": 50.2723663, "lon": 14.9422388, "city": null, "public_private": null }, "geometry": { "type": "Point", "coordinates": [ 14.942238800000041, 50.272366300000044 ] } },
{ "type": "Feature", "properties": { "OBJECTID": 309183, "Shape": null, "id": "CZ_600049132", "name": "ZÁKLADNÍ ŠKOLA A MATEŘSKÁ ŠKOLA DOBROVICE", "lat": 50.3702913, "lon": 14.95885, "city": null, "public_private": null }, "geometry": { "type": "Point", "coordinates": [ 14.95885, 50.370291300000076 ] } },
{ "type": "Feature", "properties": { "OBJECTID": 309184, "Shape": null, "id": "CZ_600049167", "name": "ZÁKLADNÍ ŠKOLA A MATEŘSKÁ ŠKOLA, KNĚŽMOST, OKRES MLADÁ BOLESLAV", "lat": 50.4888488, "lon": 15.04014, "city": null, "public_private": null }, "geometry": { "type": "Point", "coordinates": [ 15.04014, 50.488848800000028 ] } },
{ "type": "Feature", "properties": { "OBJECTID": 309185, "Shape": null, "id": "CZ_600049175", "name": "ZÁKLADNÍ ŠKOLA LUŠTĚNICE, OKRES MLADÁ BOLESLAV", "lat": 50.32098585, "lon": 14.93768149, "city": null, "public_private": null }, "geometry": { "type": "Point", "coordinates": [ 14.937681490000045, 50.320985850000056 ] } },
{ "type": "Feature", "properties": { "OBJECTID": 309186, "Shape": null, "id": "CZ_600049221", "name": "ZÁKLADNÍ ŠKOLA A MATEŘSKÁ ŠKOLA MLADÁ BOLESLAV, 17. LISTOPADU 1325, PŘÍSPĚVKOVÁ ORGANIZACE", "lat": 50.4341705, "lon": 14.91001219, "city": null, "public_private": null }, "geometry": { "type": "Point", "coordinates": [ 14.910012190000032, 50.43417050000005 ] } },
{ "type": "Feature", "properties": { "OBJECTID": 309187, "Shape": null, "id": "CZ_600049230", "name": "ZÁKLADNÍ ŠKOLA A MATEŘSKÁ ŠKOLA MLADÁ BOLESLAV, JILEMNICKÉHO 1152, PŘÍSPĚVKOVÁ ORGANIZACE", "lat": 50.4130371, "lon": 14.9273024, "city": null, "public_private": null }, "geometry": { "type": "Point", "coordinates": [ 14.927302400000031, 50.413037100000054 ] } },
{ "type": "Feature", "properties": { "OBJECTID": 309188, "Shape": null, "id": "CZ_600049248", "name": "ZÁKLADNÍ ŠKOLA MLADÁ BOLESLAV, VÁCLAVKOVA 1082, PŘÍSPĚVKOVÁ ORGANIZACE", "lat": 50.4249338, "lon": 14.9052654, "city": null, "public_private": null }, "geometry": { "type": "Point", "coordinates": [ 14.905265400000076, 50.424933800000076 ] } },
{ "type": "Feature", "properties": { "OBJECTID": 309189, "Shape": null, "id": "CZ_600049256", "name": "MASARYKOVA ZÁKLADNÍ ŠKOLA A MATEŘSKÁ ŠKOLA DEBŘ, MLADÁ BOLESLAV, BAKOVSKÁ 7, PŘÍSPĚVKOVÁ ORGANIZACE", "lat": 50.4462738, "lon": 14.887795, "city": null, "public_private": null }, "geometry": { "type": "Point", "coordinates": [ 14.887795, 50.446273800000029 ] } },
{ "type": "Feature", "properties": { "OBJECTID": 309190, "Shape": null, "id": "CZ_600050670", "name": "ZÁKLADNÍ ŠKOLA A MATEŘSKÁ ŠKOLA TATCE", "lat": 50.093387, "lon": 14.9779037, "city": null, "public_private": null }, "geometry": { "type": "Point", "coordinates": [ 14.97790370000007, 50.093387 ] } },
{ "type": "Feature", "properties": { "OBJECTID": 309191, "Shape": null, "id": "CZ_600049051", "name": "ZÁKLADNÍ ŠKOLA BAKOV NAD JIZEROU, OKRES MLADÁ BOLESLAV", "lat": 50.4796263, "lon": 14.9355313, "city": null, "public_private": null }, "geometry": { "type": "Point", "coordinates": [ 14.935531300000036, 50.479626300000064 ] } },
{ "type": "Feature", "properties": { "OBJECTID": 309192, "Shape": null, "id": "CZ_600050254", "name": "MATEŘSKÁ ŠKOLA BĚRUNICE, OKRES NYMBURK", "lat": 50.1856397, "lon": 15.3319773, "city": null, "public_private": null }, "geometry": { "type": "Point", "coordinates": [ 15.331977300000062, 50.185639700000081 ] } },
{ "type": "Feature", "properties": { "OBJECTID": 309193, "Shape": null, "id": "CZ_600050297", "name": "MATEŘSKÁ ŠKOLA ČTYŘLÍSTEK LYSÁ NAD LABEM, BRANDLOVA 1590", "lat": 50.1985077, "lon": 14.8315387, "city": null, "public_private": null }, "geometry": { "type": "Point", "coordinates": [ 14.831538700000067, 50.19850770000005 ] } },
{ "type": "Feature", "properties": { "OBJECTID": 309194, "Shape": null, "id": "CZ_600050319", "name": "MATEŘSKÁ ŠKOLA MĚSTEC KRÁLOVÉ, BEZRUČOVA 830", "lat": 50.2039463, "lon": 15.3009806, "city": null, "public_private": null }, "geometry": { "type": "Point", "coordinates": [ 15.300980600000059, 50.203946300000041 ] } },
{ "type": "Feature", "properties": { "OBJECTID": 309195, "Shape": null, "id": "CZ_600050564", "name": "MATEŘSKÁ ŠKOLA TŘEBESTOVICE, PŘÍSPĚVKOVÁ ORGANIZACE", "lat": 50.1238996, "lon": 14.9571622, "city": null, "public_private": null }, "geometry": { "type": "Point", "coordinates": [ 14.957162200000027, 50.123899600000072 ] } },
{ "type": "Feature", "properties": { "OBJECTID": 309196, "Shape": null, "id": "CZ_600050653", "name": "ZÁKLADNÍ ŠKOLA A MATEŘSKÁ ŠKOLA G. A. LINDNERA ROŽĎALOVICE", "lat": 50.3053823, "lon": 15.1669055, "city": null, "public_private": null }, "geometry": { "type": "Point", "coordinates": [ 15.166905500000041, 50.305382300000076 ] } },
{ "type": "Feature", "properties": { "OBJECTID": 309197, "Shape": null, "id": "CZ_600049311", "name": "ZÁKLADNÍ ŠKOLA KOSMONOSY, PODZÁMECKÁ 1, OKRES MLADÁ BOLESLAV, PŘÍSPĚVKOVÁ ORGANIZACE", "lat": 50.4403865, "lon": 14.9244796, "city": null, "public_private": null }, "geometry": { "type": "Point", "coordinates": [ 14.924479600000041, 50.440386500000045 ] } },
{ "type": "Feature", "properties": { "OBJECTID": 309198, "Shape": null, "id": "CZ_600050769", "name": "ZÁKLADNÍ ŠKOLA A MATEŘSKÁ ŠKOLA KRCHLEBY, OKRES NYMBURK", "lat": 50.2358364, "lon": 15.022016, "city": null, "public_private": null }, "geometry": { "type": "Point", "coordinates": [ 15.022016, 50.235836400000039 ] } },
{ "type": "Feature", "properties": { "OBJECTID": 309199, "Shape": null, "id": "CZ_600050777", "name": "ZÁKLADNÍ ŠKOLA A MATEŘSKÁ ŠKOLA LOUČEŇ", "lat": 50.2843509, "lon": 15.0173812, "city": null, "public_private": null }, "geometry": { "type": "Point", "coordinates": [ 15.017381200000045, 50.284350900000049 ] } },
{ "type": "Feature", "properties": { "OBJECTID": 309200, "Shape": null, "id": "CZ_600050823", "name": "ZÁKLADNÍ ŠKOLA A MATEŘSKÁ ŠKOLA KŘINEC - PŘÍSPĚVKOVÁ ORGANIZACE", "lat": 50.2676831, "lon": 15.1326473, "city": null, "public_private": null }, "geometry": { "type": "Point", "coordinates": [ 15.132647300000031, 50.267683100000056 ] } },
{ "type": "Feature", "properties": { "OBJECTID": 309201, "Shape": null, "id": "CZ_600050840", "name": "ZÁKLADNÍ ŠKOLA MĚSTEC KRÁLOVÉ", "lat": 50.2030528, "lon": 15.3018221, "city": null, "public_private": null }, "geometry": { "type": "Point", "coordinates": [ 15.301822100000038, 50.20305280000008 ] } },
{ "type": "Feature", "properties": { "OBJECTID": 309202, "Shape": null, "id": "CZ_600050866", "name": "ZÁKLADNÍ ŠKOLA A MATEŘSKÁ ŠKOLA NYMBURK, KOMENSKÉHO 589 - PŘÍSPĚVKOVÁ ORGANIZACE", "lat": 50.1905781, "lon": 15.0410243, "city": null, "public_private": null }, "geometry": { "type": "Point", "coordinates": [ 15.041024300000061, 50.190578100000039 ] } },
{ "type": "Feature", "properties": { "OBJECTID": 309203, "Shape": null, "id": "CZ_600050874", "name": "ZÁKLADNÍ ŠKOLA A MATEŘSKÁ ŠKOLA ZÁHORNICE, OKRES NYMBURK", "lat": 50.24698305, "lon": 15.28568299, "city": null, "public_private": null }, "geometry": { "type": "Point", "coordinates": [ 15.285682990000055, 50.24698305000004 ] } },
{ "type": "Feature", "properties": { "OBJECTID": 309204, "Shape": null, "id": "CZ_600050891", "name": "MASARYKOVA ZÁKLADNÍ ŠKOLA A MATEŘSKÁ ŠKOLA BOBNICE", "lat": 50.2161126, "lon": 15.0571447, "city": null, "public_private": null }, "geometry": { "type": "Point", "coordinates": [ 15.057144700000038, 50.216112600000031 ] } },
{ "type": "Feature", "properties": { "OBJECTID": 309205, "Shape": null, "id": "CZ_600051005", "name": "ZÁKLADNÍ ŠKOLA J. A. KOMENSKÉHO LYSÁ NAD LABEM, KOMENSKÉHO 1534, OKRES NYMBURK", "lat": 50.2047904, "lon": 14.8399127, "city": null, "public_private": null }, "geometry": { "type": "Point", "coordinates": [ 14.83991270000007, 50.204790400000036 ] } },
{ "type": "Feature", "properties": { "OBJECTID": 309206, "Shape": null, "id": "CZ_600050700", "name": "MASARYKOVA ZÁKLADNÍ ŠKOLA A MATEŘSKÁ ŠKOLA DYMOKURY", "lat": 50.2501688, "lon": 15.2069445, "city": null, "public_private": null }, "geometry": { "type": "Point", "coordinates": [ 15.206944500000077, 50.25016880000004 ] } },
{ "type": "Feature", "properties": { "OBJECTID": 309207, "Shape": null, "id": "CZ_600051536", "name": "MATEŘSKÁ ŠKOLA LÍBEZNICE, OKRES PRAHA - VÝCHOD", "lat": 50.1953063, "lon": 14.4985075, "city": null, "public_private": null }, "geometry": { "type": "Point", "coordinates": [ 14.498507500000073, 50.195306300000027 ] } },
{ "type": "Feature", "properties": { "OBJECTID": 309208, "Shape": null, "id": "CZ_600051544", "name": "MATEŘSKÁ ŠKOLA MÁSLOVICE", "lat": 50.2096362, "lon": 14.3813493, "city": null, "public_private": null }, "geometry": { "type": "Point", "coordinates": [ 14.381349300000068, 50.209636200000034 ] } },
{ "type": "Feature", "properties": { "OBJECTID": 309209, "Shape": null, "id": "CZ_600051561", "name": "ZÁKLADNÍ ŠKOLA A MATEŘSKÁ ŠKOLA HOVORČOVICE, PŘÍSPĚVKOVÁ ORGANIZACE", "lat": 50.1813878, "lon": 14.519171, "city": null, "public_private": null }, "geometry": { "type": "Point", "coordinates": [ 14.519171, 50.181387800000039 ] } },
{ "type": "Feature", "properties": { "OBJECTID": 309210, "Shape": null, "id": "CZ_600051587", "name": "MATEŘSKÁ ŠKOLA MRATÍN, OKRES PRAHA - VÝCHOD", "lat": 50.2020188, "lon": 14.5516663, "city": null, "public_private": null }, "geometry": { "type": "Point", "coordinates": [ 14.551666300000022, 50.202018800000076 ] } },
{ "type": "Feature", "properties": { "OBJECTID": 309211, "Shape": null, "id": "CZ_600051609", "name": "MATEŘSKÁ ŠKOLA ČAKOVIČKY", "lat": 50.2294872, "lon": 14.530921, "city": null, "public_private": null }, "geometry": { "type": "Point", "coordinates": [ 14.530921, 50.229487200000051 ] } },
{ "type": "Feature", "properties": { "OBJECTID": 309212, "Shape": null, "id": "CZ_600051668", "name": "MATEŘSKÁ ŠKOLA HOROUŠANY", "lat": 50.10533, "lon": 14.739155, "city": null, "public_private": null }, "geometry": { "type": "Point", "coordinates": [ 14.739155, 50.10533 ] } },
{ "type": "Feature", "properties": { "OBJECTID": 309213, "Shape": null, "id": "CZ_600051692", "name": "MATEŘSKÁ ŠKOLA ZELENEČ, OKRES PRAHA - VÝCHOD", "lat": 50.1319526, "lon": 14.6647988, "city": null, "public_private": null }, "geometry": { "type": "Point", "coordinates": [ 14.664798800000028, 50.131952600000034 ] } },
{ "type": "Feature", "properties": { "OBJECTID": 309214, "Shape": null, "id": "CZ_600051714", "name": "MATEŘSKÁ ŠKOLA BAŠŤ, OKRES PRAHA - VÝCHOD", "lat": 50.2037906, "lon": 14.4730976, "city": null, "public_private": null }, "geometry": { "type": "Point", "coordinates": [ 14.473097600000074, 50.203790600000048 ] } },
{ "type": "Feature", "properties": { "OBJECTID": 309215, "Shape": null, "id": "CZ_600051731", "name": "MATEŘSKÁ ŠKOLA MOCHOV, OKRES PRAHA - VÝCHOD", "lat": 50.1423052, "lon": 14.7975903, "city": null, "public_private": null }, "geometry": { "type": "Point", "coordinates": [ 14.797590300000024, 50.142305200000067 ] } },
{ "type": "Feature", "properties": { "OBJECTID": 309216, "Shape": null, "id": "CZ_600051757", "name": "MATEŘSKÁ ŠKOLA KLÍČANY", "lat": 50.200855, "lon": 14.4341225, "city": null, "public_private": null }, "geometry": { "type": "Point", "coordinates": [ 14.434122500000058, 50.200855 ] } },
{ "type": "Feature", "properties": { "OBJECTID": 309217, "Shape": null, "id": "CZ_600051765", "name": "MATEŘSKÁ ŠKOLA ÚVALY, PŘÍSPĚVKOVÁ ORGANIZACE", "lat": 50.0718289, "lon": 14.7156427, "city": null, "public_private": null }, "geometry": { "type": "Point", "coordinates": [ 14.715642700000046, 50.071828900000071 ] } },
{ "type": "Feature", "properties": { "OBJECTID": 309218, "Shape": null, "id": "CZ_600051781", "name": "MATEŘSKÁ ŠKOLA STONOŽKA STRUHAŘOV", "lat": 49.955803, "lon": 14.7491995, "city": null, "public_private": null }, "geometry": { "type": "Point", "coordinates": [ 14.749199500000032, 49.955803 ] } },
{ "type": "Feature", "properties": { "OBJECTID": 309219, "Shape": null, "id": "CZ_600051803", "name": "MATEŘSKÁ ŠKOLA LOUŇOVICE", "lat": 49.9837413, "lon": 14.7586375, "city": null, "public_private": null }, "geometry": { "type": "Point", "coordinates": [ 14.758637500000077, 49.983741300000077 ] } },
{ "type": "Feature", "properties": { "OBJECTID": 309220, "Shape": null, "id": "CZ_600051811", "name": "MATEŘSKÁ ŠKOLA SVOJETICE, OKRES PRAHA - VÝCHOD", "lat": 49.9731466, "lon": 14.7430447, "city": null, "public_private": null }, "geometry": { "type": "Point", "coordinates": [ 14.743044700000041, 49.973146600000064 ] } },
{ "type": "Feature", "properties": { "OBJECTID": 309221, "Shape": null, "id": "CZ_600051854", "name": "MATEŘSKÁ ŠKOLA JARUŠKA, PŘÍSPĚVKOVÁ ORGANIZACE", "lat": 49.9317706, "lon": 14.6660637, "city": null, "public_private": null }, "geometry": { "type": "Point", "coordinates": [ 14.666063700000052, 49.93177060000005 ] } },
{ "type": "Feature", "properties": { "OBJECTID": 309222, "Shape": null, "id": "CZ_600051871", "name": "MATEŘSKÁ ŠKOLA SVĚTICE, OKRES PRAHA-VÝCHOD", "lat": 49.9693308, "lon": 14.6609635, "city": null, "public_private": null }, "geometry": { "type": "Point", "coordinates": [ 14.660963500000037, 49.96933080000008 ] } },
{ "type": "Feature", "properties": { "OBJECTID": 309223, "Shape": null, "id": "CZ_600051919", "name": "MATEŘSKÁ ŠKOLA ČELÁKOVICE, PŘÍSTAVNÍ 333, PŘÍSPĚVKOVÁ ORGANIZACE", "lat": 50.17066425, "lon": 14.76567544, "city": null, "public_private": null }, "geometry": { "type": "Point", "coordinates": [ 14.765675440000052, 50.170664250000073 ] } },
{ "type": "Feature", "properties": { "OBJECTID": 309224, "Shape": null, "id": "CZ_600051510", "name": "MATEŘSKÁ ŠKOLA ČELÁKOVICE, RUMUNSKÁ 1477, PŘÍSPĚVKOVÁ ORGANIZACE", "lat": 50.1590313, "lon": 14.7468463, "city": null, "public_private": null }, "geometry": { "type": "Point", "coordinates": [ 14.746846300000072, 50.159031300000038 ] } },
{ "type": "Feature", "properties": { "OBJECTID": 309225, "Shape": null, "id": "CZ_600051960", "name": "MATEŘSKÁ ŠKOLA U SLUNEČNÍCH HODIN, PŘÍSPĚVKOVÁ ORGANIZACE", "lat": 49.992446, "lon": 14.6626855, "city": null, "public_private": null }, "geometry": { "type": "Point", "coordinates": [ 14.662685500000066, 49.992446 ] } },
{ "type": "Feature", "properties": { "OBJECTID": 309226, "Shape": null, "id": "CZ_600051978", "name": "MATEŘSKÁ ŠKOLA ODOLENA VODA, OKRES PRAHA - VÝCHOD", "lat": 50.2289525, "lon": 14.41202239, "city": null, "public_private": null }, "geometry": { "type": "Point", "coordinates": [ 14.412022390000061, 50.228952500000048 ] } },
{ "type": "Feature", "properties": { "OBJECTID": 309227, "Shape": null, "id": "CZ_600052010", "name": "ZÁKLADNÍ ŠKOLA ČELÁKOVICE, J. A. KOMENSKÉHO 414, PŘÍSPĚVKOVÁ ORGANIZACE", "lat": 50.1607445, "lon": 14.7488354, "city": null, "public_private": null }, "geometry": { "type": "Point", "coordinates": [ 14.748835400000075, 50.160744500000078 ] } },
{ "type": "Feature", "properties": { "OBJECTID": 309228, "Shape": null, "id": "CZ_600052028", "name": "ZÁKLADNÍ ŠKOLA A MATEŘSKÁ ŠKOLA ČESTLICE", "lat": 50.0022451, "lon": 14.5834088, "city": null, "public_private": null }, "geometry": { "type": "Point", "coordinates": [ 14.583408800000029, 50.002245100000039 ] } },
{ "type": "Feature", "properties": { "OBJECTID": 309229, "Shape": null, "id": "CZ_600052036", "name": "ZÁKLADNÍ ŠKOLA JIRNY, OKRES PRAHA - VÝCHOD", "lat": 50.1198043, "lon": 14.6934443, "city": null, "public_private": null }, "geometry": { "type": "Point", "coordinates": [ 14.693444300000067, 50.119804300000055 ] } },
{ "type": "Feature", "properties": { "OBJECTID": 309230, "Shape": null, "id": "CZ_600052044", "name": "ZÁKLADNÍ ŠKOLA A MATEŘSKÁ ŠKOLA KOJETICE, PŘÍSPĚVKOVÁ ORGANIZACE", "lat": 50.2381138, "lon": 14.5085575, "city": null, "public_private": null }, "geometry": { "type": "Point", "coordinates": [ 14.508557500000052, 50.238113800000065 ] } },
{ "type": "Feature", "properties": { "OBJECTID": 309231, "Shape": null, "id": "CZ_600052052", "name": "ZÁKLADNÍ ŠKOLA MOCHOV, OKRES PRAHA - VÝCHOD", "lat": 50.1423052, "lon": 14.7975903, "city": null, "public_private": null }, "geometry": { "type": "Point", "coordinates": [ 14.797590300000024, 50.142305200000067 ] } },
{ "type": "Feature", "properties": { "OBJECTID": 309232, "Shape": null, "id": "CZ_600052095", "name": "ZÁKLADNÍ ŠKOLA A MATEŘSKÁ ŠKOLA VELEŇ", "lat": 50.1716113, "lon": 14.5476062, "city": null, "public_private": null }, "geometry": { "type": "Point", "coordinates": [ 14.547606200000075, 50.171611300000052 ] } },
{ "type": "Feature", "properties": { "OBJECTID": 309233, "Shape": null, "id": "CZ_600052117", "name": "ZÁKLADNÍ ŠKOLA A MATEŘSKÁ ŠKOLA HUSINEC - ŘEŽ, PŘÍSPĚVKOVÁ ORGANIZACE", "lat": 50.1701563, "lon": 14.363755, "city": null, "public_private": null }, "geometry": { "type": "Point", "coordinates": [ 14.363755, 50.170156300000031 ] } },
{ "type": "Feature", "properties": { "OBJECTID": 309234, "Shape": null, "id": "CZ_600052125", "name": "ZÁKLADNÍ ŠKOLA ŠESTAJOVICE, OKRES PRAHA - VÝCHOD", "lat": 50.1121798, "lon": 14.6828143, "city": null, "public_private": null }, "geometry": { "type": "Point", "coordinates": [ 14.682814300000075, 50.112179800000035 ] } },
{ "type": "Feature", "properties": { "OBJECTID": 309235, "Shape": null, "id": "CZ_600052133", "name": "ZÁKLADNÍ ŠKOLA A MATEŘSKÁ ŠKOLA ZDIBY, PŘÍSPĚVKOVÁ ORGANIZACE", "lat": 50.1675333, "lon": 14.4374889, "city": null, "public_private": null }, "geometry": { "type": "Point", "coordinates": [ 14.437488900000062, 50.167533300000059 ] } },
{ "type": "Feature", "properties": { "OBJECTID": 309236, "Shape": null, "id": "CZ_600052184", "name": "ZÁKLADNÍ ŠKOLA MIROŠOVICE, OKRES PRAHA - VÝCHOD", "lat": 49.9111888, "lon": 14.7164888, "city": null, "public_private": null }, "geometry": { "type": "Point", "coordinates": [ 14.716488800000036, 49.911188800000048 ] } },
{ "type": "Feature", "properties": { "OBJECTID": 309237, "Shape": null, "id": "CZ_600052192", "name": "ZÁKLADNÍ ŠKOLA A MATEŘSKÁ ŠKOLA SENOHRABY, OKRES PRAHA - VÝCHOD, PŘÍSPĚVKOVÁ ORGANIZACE", "lat": 49.8951263, "lon": 14.7219674, "city": null, "public_private": null }, "geometry": { "type": "Point", "coordinates": [ 14.72196740000004, 49.895126300000072 ] } },
{ "type": "Feature", "properties": { "OBJECTID": 309238, "Shape": null, "id": "CZ_600052206", "name": "ZÁKLADNÍ ŠKOLA EMILA KOLBENA, PŘÍSPĚVKOVÁ ORGANIZACE", "lat": 49.9470086, "lon": 14.674952, "city": null, "public_private": null }, "geometry": { "type": "Point", "coordinates": [ 14.674952, 49.947008600000061 ] } },
{ "type": "Feature", "properties": { "OBJECTID": 309239, "Shape": null, "id": "CZ_600052214", "name": "ZÁKLADNÍ ŠKOLA A MATEŘSKÁ ŠKOLA LÁZNĚ TOUŠEŇ", "lat": 50.1693063, "lon": 14.7156788, "city": null, "public_private": null }, "geometry": { "type": "Point", "coordinates": [ 14.715678800000035, 50.169306300000073 ] } },
{ "type": "Feature", "properties": { "OBJECTID": 309240, "Shape": null, "id": "CZ_600052231", "name": "ZÁKLADNÍ ŠKOLA ŠKVOREC, OKRES PRAHA - VÝCHOD", "lat": 50.0464213, "lon": 14.73343, "city": null, "public_private": null }, "geometry": { "type": "Point", "coordinates": [ 14.73343, 50.046421300000077 ] } },
{ "type": "Feature", "properties": { "OBJECTID": 309241, "Shape": null, "id": "CZ_600051935", "name": "MATEŘSKÁ ŠKOLA VELKÉ POPOVICE, PŘÍSPĚVKOVÁ ORGANIZACE", "lat": 49.9193105, "lon": 14.6425053, "city": null, "public_private": null }, "geometry": { "type": "Point", "coordinates": [ 14.642505300000039, 49.919310500000051 ] } },
{ "type": "Feature", "properties": { "OBJECTID": 309242, "Shape": null, "id": "CZ_600052303", "name": "2. ZÁKLADNÍ ŠKOLA BEZRUČOVA ŘÍČANY, PŘÍSPĚVKOVÁ ORGANIZACE", "lat": 49.99804185, "lon": 14.66942673, "city": null, "public_private": null }, "geometry": { "type": "Point", "coordinates": [ 14.669426730000055, 49.99804185000005 ] } },
{ "type": "Feature", "properties": { "OBJECTID": 309243, "Shape": null, "id": "CZ_600052311", "name": "ZÁKLADNÍ ŠKOLA VELKÉ POPOVICE, PŘÍSPĚVKOVÁ ORGANIZACE", "lat": 49.9227239, "lon": 14.639175, "city": null, "public_private": null }, "geometry": { "type": "Point", "coordinates": [ 14.639175, 49.922723900000051 ] } },
{ "type": "Feature", "properties": { "OBJECTID": 309244, "Shape": null, "id": "CZ_600052338", "name": "ZÁKLADNÍ ŠKOLA A MATEŘSKÁ ŠKOLA TEHOV", "lat": 49.9704851, "lon": 14.69352, "city": null, "public_private": null }, "geometry": { "type": "Point", "coordinates": [ 14.69352, 49.970485100000076 ] } },
{ "type": "Feature", "properties": { "OBJECTID": 309245, "Shape": null, "id": "CZ_600052362", "name": "ZÁKLADNÍ ŠKOLA ÚVALY", "lat": 50.07402415, "lon": 14.73150087, "city": null, "public_private": null }, "geometry": { "type": "Point", "coordinates": [ 14.731500870000048, 50.074024150000071 ] } },
{ "type": "Feature", "properties": { "OBJECTID": 309246, "Shape": null, "id": "CZ_600052389", "name": "ZÁKLADNÍ UMĚLECKÁ ŠKOLA BRANDÝS N. L. - STARÁ BOLESLAV", "lat": 50.1872325, "lon": 14.6621645, "city": null, "public_private": null }, "geometry": { "type": "Point", "coordinates": [ 14.662164500000074, 50.18723250000005 ] } },
{ "type": "Feature", "properties": { "OBJECTID": 309247, "Shape": null, "id": "CZ_600052401", "name": "ZÁKLADNÍ UMĚLECKÁ ŠKOLA JANA ZACHA ČELÁKOVICE, PŘÍSPĚVKOVÁ ORGANIZACE", "lat": 50.1609038, "lon": 14.7533663, "city": null, "public_private": null }, "geometry": { "type": "Point", "coordinates": [ 14.753366300000039, 50.160903800000028 ] } },
{ "type": "Feature", "properties": { "OBJECTID": 309248, "Shape": null, "id": "CZ_600052419", "name": "ZÁKLADNÍ UMĚLECKÁ ŠKOLA ŘÍČANY, PŘÍSPĚVKOVÁ ORGANIZACE", "lat": 49.99184, "lon": 14.65632355, "city": null, "public_private": null }, "geometry": { "type": "Point", "coordinates": [ 14.656323550000025, 49.99184 ] } },
{ "type": "Feature", "properties": { "OBJECTID": 309249, "Shape": null, "id": "CZ_600052451", "name": "4. ZÁKLADNÍ ŠKOLA NERUDOVA ŘÍČANY, PŘÍSPĚVKOVÁ ORGANIZACE", "lat": 49.993692, "lon": 14.6619199, "city": null, "public_private": null }, "geometry": { "type": "Point", "coordinates": [ 14.661919900000044, 49.993692 ] } },
{ "type": "Feature", "properties": { "OBJECTID": 309250, "Shape": null, "id": "CZ_600052541", "name": "MATEŘSKÁ ŠKOLA ČERNOŠICE, KARLICKÁ 1170, OKRES PRAHA - ZÁPAD", "lat": 49.9566338, "lon": 14.3200575, "city": null, "public_private": null }, "geometry": { "type": "Point", "coordinates": [ 14.320057500000075, 49.956633800000077 ] } },
{ "type": "Feature", "properties": { "OBJECTID": 309251, "Shape": null, "id": "CZ_600052567", "name": "MATEŘSKÁ ŠKOLA DOBŘICHOVICE, OKRES PRAHA - ZÁPAD", "lat": 49.9303796, "lon": 14.2783945, "city": null, "public_private": null }, "geometry": { "type": "Point", "coordinates": [ 14.278394500000047, 49.930379600000037 ] } },
{ "type": "Feature", "properties": { "OBJECTID": 309252, "Shape": null, "id": "CZ_600052613", "name": "MATEŘSKÁ ŠKOLA HOROMĚŘICE, OKRES PRAHA - ZÁPAD", "lat": 50.1329149, "lon": 14.3472368, "city": null, "public_private": null }, "geometry": { "type": "Point", "coordinates": [ 14.347236800000076, 50.13291490000006 ] } },
{ "type": "Feature", "properties": { "OBJECTID": 309253, "Shape": null, "id": "CZ_600052621", "name": "ZÁKLADNÍ ŠKOLA, MATEŘSKÁ ŠKOLA A ZÁKLADNÍ UMĚLECKÁ ŠKOLA HNÍZDO V ÚNĚTICÍCH", "lat": 50.1509763, "lon": 14.35272, "city": null, "public_private": null }, "geometry": { "type": "Point", "coordinates": [ 14.35272, 50.150976300000082 ] } },
{ "type": "Feature", "properties": { "OBJECTID": 309254, "Shape": null, "id": "CZ_600052664", "name": "MATEŘSKÁ ŠKOLA OŘECH, OKRES PRAHA-ZÁPAD", "lat": 50.0194988, "lon": 14.2952188, "city": null, "public_private": null }, "geometry": { "type": "Point", "coordinates": [ 14.295218800000043, 50.019498800000065 ] } },
{ "type": "Feature", "properties": { "OBJECTID": 309255, "Shape": null, "id": "CZ_600052711", "name": "MATEŘSKÁ ŠKOLA ŘEVNICE", "lat": 49.9117213, "lon": 14.2343825, "city": null, "public_private": null }, "geometry": { "type": "Point", "coordinates": [ 14.234382500000038, 49.911721300000067 ] } },
{ "type": "Feature", "properties": { "OBJECTID": 309256, "Shape": null, "id": "CZ_600052729", "name": "MATEŘSKÁ ŠKOLA ROZTOKY, SPĚŠNÉHO 288, OKRES PRAHA-ZÁPAD, PŘÍSPĚVKOVÁ ORGANIZACE", "lat": 50.1673363, "lon": 14.3975163, "city": null, "public_private": null }, "geometry": { "type": "Point", "coordinates": [ 14.397516300000063, 50.167336300000045 ] } },
{ "type": "Feature", "properties": { "OBJECTID": 309257, "Shape": null, "id": "CZ_600052737", "name": "MATEŘSKÁ ŠKOLA RUDNÁ, OKRES PRAHA - ZÁPAD", "lat": 50.0317251, "lon": 14.230345, "city": null, "public_private": null }, "geometry": { "type": "Point", "coordinates": [ 14.230345, 50.031725100000074 ] } },
{ "type": "Feature", "properties": { "OBJECTID": 309258, "Shape": null, "id": "CZ_600052770", "name": "MATEŘSKÁ ŠKOLA KOSOŘ, OKRES PRAHA - ZÁPAD", "lat": 49.9873363, "lon": 14.32576, "city": null, "public_private": null }, "geometry": { "type": "Point", "coordinates": [ 14.32576, 49.987336300000038 ] } },
{ "type": "Feature", "properties": { "OBJECTID": 309259, "Shape": null, "id": "CZ_600052796", "name": "MATEŘSKÁ ŠKOLA TUCHOMĚŘICE, OKRES PRAHA-ZÁPAD, PŘÍSPĚVKOVÁ ORGANIZACE", "lat": 50.1336975, "lon": 14.2802827, "city": null, "public_private": null }, "geometry": { "type": "Point", "coordinates": [ 14.280282700000043, 50.133697500000039 ] } },
{ "type": "Feature", "properties": { "OBJECTID": 309260, "Shape": null, "id": "CZ_600052800", "name": "MATEŘSKÁ ŠKOLA TURSKO, OKRES PRAHA-ZÁPAD", "lat": 50.1908357, "lon": 14.3213582, "city": null, "public_private": null }, "geometry": { "type": "Point", "coordinates": [ 14.321358200000077, 50.190835700000036 ] } },
{ "type": "Feature", "properties": { "OBJECTID": 309261, "Shape": null, "id": "CZ_600052907", "name": "MATEŘSKÁ ŠKOLA VRANÉ NAD VLTAVOU, OKRES PRAHA - ZÁPAD", "lat": 49.93648015, "lon": 14.38082494, "city": null, "public_private": null }, "geometry": { "type": "Point", "coordinates": [ 14.380824940000025, 49.936480150000079 ] } },
{ "type": "Feature", "properties": { "OBJECTID": 309262, "Shape": null, "id": "CZ_600052923", "name": "MATEŘSKÁ ŠKOLA DAVLE, OKRES PRAHA - ZÁPAD", "lat": 49.886876, "lon": 14.3961334, "city": null, "public_private": null }, "geometry": { "type": "Point", "coordinates": [ 14.396133400000053, 49.886876 ] } },
{ "type": "Feature", "properties": { "OBJECTID": 309263, "Shape": null, "id": "CZ_600052931", "name": "MATEŘSKÁ ŠKOLA ŘITKA, OKRES PRAHA - ZÁPAD", "lat": 49.893324, "lon": 14.3019319, "city": null, "public_private": null }, "geometry": { "type": "Point", "coordinates": [ 14.301931900000056, 49.893324 ] } },
{ "type": "Feature", "properties": { "OBJECTID": 309264, "Shape": null, "id": "CZ_600052940", "name": "MATEŘSKÁ ŠKOLA HOSTIVICE, OKRES PRAHA-ZÁPAD", "lat": 50.08075695, "lon": 14.25064608, "city": null, "public_private": null }, "geometry": { "type": "Point", "coordinates": [ 14.250646080000024, 50.08075695000008 ] } },
{ "type": "Feature", "properties": { "OBJECTID": 309265, "Shape": null, "id": "CZ_600052982", "name": "MATEŘSKÁ ŠKOLA ROZTOKY, HAVLÍČKOVA 1024, OKRES PRAHA-ZÁPAD, PŘÍSPĚVKOVÁ ORGANIZACE", "lat": 50.1637663, "lon": 14.39041, "city": null, "public_private": null }, "geometry": { "type": "Point", "coordinates": [ 14.39041, 50.163766300000077 ] } },
{ "type": "Feature", "properties": { "OBJECTID": 309266, "Shape": null, "id": "CZ_600053016", "name": "MATEŘSKÁ ŠKOLA ÚHOLIČKY, PŘÍSPĚVKOVÁ ORGANIZACE", "lat": 50.1574585, "lon": 14.3346529, "city": null, "public_private": null }, "geometry": { "type": "Point", "coordinates": [ 14.334652900000037, 50.157458500000075 ] } },
{ "type": "Feature", "properties": { "OBJECTID": 309267, "Shape": null, "id": "CZ_600053024", "name": "MATEŘSKÁ ŠKOLA HRADIŠTKO, OKRES PRAHA - ZÁPAD", "lat": 49.8657524, "lon": 14.41142673, "city": null, "public_private": null }, "geometry": { "type": "Point", "coordinates": [ 14.411426730000073, 49.865752400000076 ] } },
{ "type": "Feature", "properties": { "OBJECTID": 309268, "Shape": null, "id": "CZ_600053041", "name": "ZÁKLADNÍ ŠKOLA A MATEŘSKÁ ŠKOLA TACHLOVICE, PŘÍSPĚVKOVÁ ORGANIZACE", "lat": 50.0113475, "lon": 14.2456688, "city": null, "public_private": null }, "geometry": { "type": "Point", "coordinates": [ 14.245668800000033, 50.011347500000056 ] } },
{ "type": "Feature", "properties": { "OBJECTID": 309269, "Shape": null, "id": "CZ_600053059", "name": "ZÁKLADNÍ ŠKOLA A MATEŘSKÁ ŠKOLA ÚHONICE, OKRES PRAHA - ZÁPAD", "lat": 50.0411723, "lon": 14.1864135, "city": null, "public_private": null }, "geometry": { "type": "Point", "coordinates": [ 14.186413500000072, 50.041172300000028 ] } },
{ "type": "Feature", "properties": { "OBJECTID": 309270, "Shape": null, "id": "CZ_600053083", "name": "ZÁKLADNÍ ŠKOLA DOBŘICHOVICE", "lat": 49.9269301, "lon": 14.2752125, "city": null, "public_private": null }, "geometry": { "type": "Point", "coordinates": [ 14.275212500000066, 49.92693010000005 ] } },
{ "type": "Feature", "properties": { "OBJECTID": 309271, "Shape": null, "id": "CZ_600053105", "name": "ZÁKLADNÍ ŠKOLA DOLNÍ BŘEŽANY, PŘÍSPĚVKOVÁ ORGANIZACE", "lat": 49.96440935, "lon": 14.46153527, "city": null, "public_private": null }, "geometry": { "type": "Point", "coordinates": [ 14.46153527000007, 49.964409350000039 ] } },
{ "type": "Feature", "properties": { "OBJECTID": 309272, "Shape": null, "id": "CZ_600053113", "name": "ZÁKLADNÍ ŠKOLA HOROMĚŘICE, OKRES PRAHA - ZÁPAD", "lat": 50.1319441, "lon": 14.3377017, "city": null, "public_private": null }, "geometry": { "type": "Point", "coordinates": [ 14.337701700000025, 50.131944100000055 ] } },
{ "type": "Feature", "properties": { "OBJECTID": 309273, "Shape": null, "id": "CZ_600053121", "name": "ZÁKLADNÍ ŠKOLA HOSTIVICE", "lat": 50.0801334, "lon": 14.2515924, "city": null, "public_private": null }, "geometry": { "type": "Point", "coordinates": [ 14.25159240000005, 50.080133400000079 ] } },
{ "type": "Feature", "properties": { "OBJECTID": 309274, "Shape": null, "id": "CZ_600053148", "name": "ZÁKLADNÍ ŠKOLA A MATEŘSKÁ ŠKOLA CHRÁŠŤANY, OKRES PRAHA - ZÁPAD", "lat": 50.0438626, "lon": 14.25866, "city": null, "public_private": null }, "geometry": { "type": "Point", "coordinates": [ 14.25866, 50.043862600000068 ] } },
{ "type": "Feature", "properties": { "OBJECTID": 309275, "Shape": null, "id": "CZ_600053156", "name": "ZÁKLADNÍ ŠKOLA A MATEŘSKÁ ŠKOLA CHÝNĚ, OKRES PRAHA - ZÁPAD", "lat": 50.0572521, "lon": 14.2212793, "city": null, "public_private": null }, "geometry": { "type": "Point", "coordinates": [ 14.221279300000049, 50.057252100000028 ] } },
{ "type": "Feature", "properties": { "OBJECTID": 309276, "Shape": null, "id": "CZ_600053164", "name": "ZÁKLADNÍ ŠKOLA A MATEŘSKÁ ŠKOLA JENEČ, PŘÍSPĚVKOVÁ ORGANIZACE", "lat": 50.0885188, "lon": 14.2142538, "city": null, "public_private": null }, "geometry": { "type": "Point", "coordinates": [ 14.214253800000051, 50.088518800000031 ] } },
{ "type": "Feature", "properties": { "OBJECTID": 309277, "Shape": null, "id": "CZ_600053181", "name": "ZÁKLADNÍ ŠKOLA JÍLOVÉ U PRAHY", "lat": 49.8973238, "lon": 14.49973, "city": null, "public_private": null }, "geometry": { "type": "Point", "coordinates": [ 14.49973, 49.897323800000038 ] } },
{ "type": "Feature", "properties": { "OBJECTID": 309278, "Shape": null, "id": "CZ_600053199", "name": "ZÁKLADNÍ ŠKOLA JINOČANY, PŘÍSPĚVKOVÁ ORGANIZACE", "lat": 50.0330705, "lon": 14.2696135, "city": null, "public_private": null }, "geometry": { "type": "Point", "coordinates": [ 14.269613500000048, 50.033070500000065 ] } },
{ "type": "Feature", "properties": { "OBJECTID": 309279, "Shape": null, "id": "CZ_600053211", "name": "ZÁKLADNÍ ŠKOLA KOSOŘ, OKRES PRAHA - ZÁPAD", "lat": 49.986629, "lon": 14.325167, "city": null, "public_private": null }, "geometry": { "type": "Point", "coordinates": [ 14.325167, 49.986629 ] } },
{ "type": "Feature", "properties": { "OBJECTID": 309280, "Shape": null, "id": "CZ_600053768", "name": "2. MATEŘSKÁ ŠKOLA DOBŘÍŠ", "lat": 49.7831594, "lon": 14.167676, "city": null, "public_private": null }, "geometry": { "type": "Point", "coordinates": [ 14.167676, 49.783159400000045 ] } },
{ "type": "Feature", "properties": { "OBJECTID": 309281, "Shape": null, "id": "CZ_600053288", "name": "ZÁKLADNÍ ŠKOLA STŘEDOKLUKY, PŘÍSPĚVKOVÁ ORGANIZACE", "lat": 50.1326838, "lon": 14.2359314, "city": null, "public_private": null }, "geometry": { "type": "Point", "coordinates": [ 14.235931400000027, 50.132683800000052 ] } },
{ "type": "Feature", "properties": { "OBJECTID": 309282, "Shape": null, "id": "CZ_600053296", "name": "ZÁKLADNÍ ŠKOLA ŠTĚCHOVICE, OKRES PRAHA - ZÁPAD, PŘÍSPĚVKOVÁ ORGANIZACE", "lat": 49.84954, "lon": 14.4071988, "city": null, "public_private": null }, "geometry": { "type": "Point", "coordinates": [ 14.40719880000006, 49.84954 ] } },
{ "type": "Feature", "properties": { "OBJECTID": 309283, "Shape": null, "id": "CZ_600053318", "name": "ZÁKLADNÍ ŠKOLA TUCHOMĚŘICE, OKRES PRAHA - ZÁPAD, PŘÍSPĚVKOVÁ ORGANIZACE", "lat": 50.1358884, "lon": 14.2823337, "city": null, "public_private": null }, "geometry": { "type": "Point", "coordinates": [ 14.282333700000038, 50.135888400000056 ] } },
{ "type": "Feature", "properties": { "OBJECTID": 309284, "Shape": null, "id": "CZ_600053334", "name": "ZÁKLADNÍ ŠKOLA VELKÉ PŘÍLEPY", "lat": 50.1617203, "lon": 14.3108753, "city": null, "public_private": null }, "geometry": { "type": "Point", "coordinates": [ 14.310875300000077, 50.16172030000007 ] } },
{ "type": "Feature", "properties": { "OBJECTID": 309285, "Shape": null, "id": "CZ_600053342", "name": "ZÁKLADNÍ ŠKOLA VRANÉ NAD VLTAVOU, OKRES PRAHA - ZÁPAD", "lat": 49.937, "lon": 14.3783475, "city": null, "public_private": null }, "geometry": { "type": "Point", "coordinates": [ 14.378347500000075, 49.937 ] } },
{ "type": "Feature", "properties": { "OBJECTID": 309286, "Shape": null, "id": "CZ_600053369", "name": "ZÁKLADNÍ ŠKOLA ZVOLE, PŘÍSPĚVKOVÁ ORGANIZACE", "lat": 49.93427695, "lon": 14.41857314, "city": null, "public_private": null }, "geometry": { "type": "Point", "coordinates": [ 14.418573140000035, 49.934276950000026 ] } },
{ "type": "Feature", "properties": { "OBJECTID": 309287, "Shape": null, "id": "CZ_600053385", "name": "ZÁKLADNÍ ŠKOLA A MATEŘSKÁ ŠKOLA NUČICE, OKRES PRAHA - ZÁPAD, PŘÍSPĚVKOVÁ ORGANIZACE", "lat": 50.01849445, "lon": 14.23144559, "city": null, "public_private": null }, "geometry": { "type": "Point", "coordinates": [ 14.231445590000021, 50.018494450000048 ] } },
{ "type": "Feature", "properties": { "OBJECTID": 309288, "Shape": null, "id": "CZ_600053393", "name": "ZÁKLADNÍ ŠKOLA RUDNÁ, OKRES PRAHA - ZÁPAD", "lat": 50.0299075, "lon": 14.2229288, "city": null, "public_private": null }, "geometry": { "type": "Point", "coordinates": [ 14.222928800000034, 50.029907500000036 ] } },
{ "type": "Feature", "properties": { "OBJECTID": 309289, "Shape": null, "id": "CZ_600053407", "name": "ZÁKLADNÍ ŠKOLA DAVLE", "lat": 49.8925438, "lon": 14.4005018, "city": null, "public_private": null }, "geometry": { "type": "Point", "coordinates": [ 14.400501800000029, 49.892543800000055 ] } },
{ "type": "Feature", "properties": { "OBJECTID": 309290, "Shape": null, "id": "CZ_600053466", "name": "ZÁKLADNÍ UMĚLECKÁ ŠKOLA ČERNOŠICE, PŘÍSPĚVKOVÁ ORGANIZACE", "lat": 49.955375, "lon": 14.3244413, "city": null, "public_private": null }, "geometry": { "type": "Point", "coordinates": [ 14.324441300000046, 49.955375 ] } },
{ "type": "Feature", "properties": { "OBJECTID": 309291, "Shape": null, "id": "CZ_600053474", "name": "ZÁKLADNÍ UMĚLECKÁ ŠKOLA ROZTOKY, OKRES PRAHA-ZÁPAD, PŘÍSPĚVKOVÁ ORGANIZACE", "lat": 50.1642213, "lon": 14.3962713, "city": null, "public_private": null }, "geometry": { "type": "Point", "coordinates": [ 14.396271300000024, 50.164221300000065 ] } },
{ "type": "Feature", "properties": { "OBJECTID": 309292, "Shape": null, "id": "CZ_600053482", "name": "ZÁKLADNÍ UMĚLECKÁ ŠKOLA ŘEVNICE", "lat": 49.91334945, "lon": 14.23403319, "city": null, "public_private": null }, "geometry": { "type": "Point", "coordinates": [ 14.234033190000048, 49.913349450000055 ] } },
{ "type": "Feature", "properties": { "OBJECTID": 309293, "Shape": null, "id": "CZ_600053504", "name": "ZÁKLADNÍ UMĚLECKÁ ŠKOLA LIBČICE NAD VLTAVOU", "lat": 50.1941058, "lon": 14.3692106, "city": null, "public_private": null }, "geometry": { "type": "Point", "coordinates": [ 14.369210600000031, 50.194105800000045 ] } },
{ "type": "Feature", "properties": { "OBJECTID": 309294, "Shape": null, "id": "CZ_600053521", "name": "ZÁKLADNÍ ŠKOLA, MNÍŠEK POD BRDY, KOMENSKÉHO 886", "lat": 49.86257425, "lon": 14.26439407, "city": null, "public_private": null }, "geometry": { "type": "Point", "coordinates": [ 14.264394070000037, 49.86257425000008 ] } },
{ "type": "Feature", "properties": { "OBJECTID": 309295, "Shape": null, "id": "CZ_600053563", "name": "ZÁKLADNÍ ŠKOLA, RUDNÁ, 5. KVĚTNA 583", "lat": 50.0256688, "lon": 14.2122, "city": null, "public_private": null }, "geometry": { "type": "Point", "coordinates": [ 14.2122, 50.025668800000062 ] } },
{ "type": "Feature", "properties": { "OBJECTID": 309296, "Shape": null, "id": "CZ_600053717", "name": "1. MATEŘSKÁ ŠKOLA BŘEZNICE", "lat": 49.5598374, "lon": 13.952368, "city": null, "public_private": null }, "geometry": { "type": "Point", "coordinates": [ 13.952368, 49.559837400000049 ] } },
{ "type": "Feature", "properties": { "OBJECTID": 309297, "Shape": null, "id": "CZ_600053245", "name": "ZÁKLADNÍ ŠKOLA OŘECH, OKRES PRAHA-ZÁPAD", "lat": 50.0195663, "lon": 14.2959038, "city": null, "public_private": null }, "geometry": { "type": "Point", "coordinates": [ 14.295903800000076, 50.019566300000065 ] } },
{ "type": "Feature", "properties": { "OBJECTID": 309298, "Shape": null, "id": "CZ_600054098", "name": "MATEŘSKÁ ŠKOLA POHÁDKA", "lat": 49.6908407, "lon": 14.0087569, "city": null, "public_private": null }, "geometry": { "type": "Point", "coordinates": [ 14.008756900000037, 49.690840700000081 ] } },
{ "type": "Feature", "properties": { "OBJECTID": 309299, "Shape": null, "id": "CZ_600054110", "name": "MATEŘSKÁ ŠKOLA, PŘÍBRAM III, JUNGMANNOVA 91", "lat": 49.6856224, "lon": 14.0104689, "city": null, "public_private": null }, "geometry": { "type": "Point", "coordinates": [ 14.010468900000035, 49.685622400000057 ] } },
{ "type": "Feature", "properties": { "OBJECTID": 309300, "Shape": null, "id": "CZ_600054152", "name": "ALTERNATIVNÍ MATEŘSKÁ ŠKOLA", "lat": 49.6719436, "lon": 13.99741649, "city": null, "public_private": null }, "geometry": { "type": "Point", "coordinates": [ 13.997416490000035, 49.671943600000077 ] } },
{ "type": "Feature", "properties": { "OBJECTID": 309301, "Shape": null, "id": "CZ_600054161", "name": "MATEŘSKÁ ŠKOLA RYBIČKA", "lat": 49.6912774, "lon": 14.0182517, "city": null, "public_private": null }, "geometry": { "type": "Point", "coordinates": [ 14.018251700000064, 49.691277400000047 ] } },
{ "type": "Feature", "properties": { "OBJECTID": 309302, "Shape": null, "id": "CZ_600058671", "name": "MATEŘSKÁ ŠKOLA KAPLICE, 1. MÁJE 771", "lat": 48.7440434, "lon": 14.4891435, "city": null, "public_private": null }, "geometry": { "type": "Point", "coordinates": [ 14.489143500000068, 48.744043400000066 ] } },
{ "type": "Feature", "properties": { "OBJECTID": 309303, "Shape": null, "id": "CZ_600054233", "name": "MATEŘSKÁ ŠKOLA SEDLČANY, ŠAFAŘÍKOVA 1070", "lat": 49.6582213, "lon": 14.4238025, "city": null, "public_private": null }, "geometry": { "type": "Point", "coordinates": [ 14.423802500000022, 49.658221300000037 ] } },
{ "type": "Feature", "properties": { "OBJECTID": 309304, "Shape": null, "id": "CZ_600054390", "name": "ZÁKLADNÍ ŠKOLA BŘEZNICE", "lat": 49.5598627, "lon": 13.946662, "city": null, "public_private": null }, "geometry": { "type": "Point", "coordinates": [ 13.946662, 49.559862700000053 ] } },
{ "type": "Feature", "properties": { "OBJECTID": 309305, "Shape": null, "id": "CZ_600054411", "name": "ZÁKLADNÍ ŠKOLA DOBŘÍŠ, KOMENSKÉHO NÁM. 35, OKRES PŘÍBRAM", "lat": 49.780263, "lon": 14.1719778, "city": null, "public_private": null }, "geometry": { "type": "Point", "coordinates": [ 14.171977800000036, 49.780263 ] } },
{ "type": "Feature", "properties": { "OBJECTID": 309306, "Shape": null, "id": "CZ_600054420", "name": "2. ZÁKLADNÍ ŠKOLA DOBŘÍŠ, ŠKOLNÍ 1035, OKRES PŘÍBRAM", "lat": 49.778808, "lon": 14.1726523, "city": null, "public_private": null }, "geometry": { "type": "Point", "coordinates": [ 14.172652300000038, 49.778808 ] } },
{ "type": "Feature", "properties": { "OBJECTID": 309307, "Shape": null, "id": "CZ_600054021", "name": "MATEŘSKÁ ŠKOLA V ZAHRADĚ", "lat": 49.6853285, "lon": 14.0100661, "city": null, "public_private": null }, "geometry": { "type": "Point", "coordinates": [ 14.010066100000074, 49.685328500000026 ] } },
{ "type": "Feature", "properties": { "OBJECTID": 309308, "Shape": null, "id": "CZ_600054632", "name": "2. ZÁKLADNÍ ŠKOLA - ŠKOLA PROPOJENÍ SEDLČANY, PŘÍKRÁ 67, OKRES PŘÍBRAM", "lat": 49.6564681, "lon": 14.42271115, "city": null, "public_private": null }, "geometry": { "type": "Point", "coordinates": [ 14.422711150000055, 49.656468100000041 ] } },
{ "type": "Feature", "properties": { "OBJECTID": 309309, "Shape": null, "id": "CZ_600054721", "name": "ZÁKLADNÍ ŠKOLA A MATEŘSKÁ ŠKOLA STARÁ HUŤ, OKRES PŘÍBRAM", "lat": 49.7819239, "lon": 14.1993597, "city": null, "public_private": null }, "geometry": { "type": "Point", "coordinates": [ 14.199359700000059, 49.781923900000038 ] } },
{ "type": "Feature", "properties": { "OBJECTID": 309310, "Shape": null, "id": "CZ_600054802", "name": "ZÁKLADNÍ ŠKOLA A MATEŘSKÁ ŠKOLA JINCE", "lat": 49.7892139, "lon": 13.9767376, "city": null, "public_private": null }, "geometry": { "type": "Point", "coordinates": [ 13.976737600000035, 49.78921390000005 ] } },
{ "type": "Feature", "properties": { "OBJECTID": 309311, "Shape": null, "id": "CZ_600054934", "name": "ZÁKLADNÍ ŠKOLA DOBŘÍŠ, LIDICKÁ 384", "lat": 49.7836912, "lon": 14.1751419, "city": null, "public_private": null }, "geometry": { "type": "Point", "coordinates": [ 14.175141900000028, 49.783691200000078 ] } },
{ "type": "Feature", "properties": { "OBJECTID": 309312, "Shape": null, "id": "CZ_600054942", "name": "SPECIÁLNÍ ZÁKLADNÍ ŠKOLA ROŽMITÁL POD TŘEMŠÍNEM", "lat": 49.6059823, "lon": 13.8689433, "city": null, "public_private": null }, "geometry": { "type": "Point", "coordinates": [ 13.868943300000069, 49.605982300000051 ] } },
{ "type": "Feature", "properties": { "OBJECTID": 309313, "Shape": null, "id": "CZ_600055221", "name": "MATEŘSKÁ ŠKOLA RYNHOLEC, OKRES RAKOVNÍK", "lat": 50.1357372, "lon": 13.9251401, "city": null, "public_private": null }, "geometry": { "type": "Point", "coordinates": [ 13.925140100000021, 50.135737200000051 ] } },
{ "type": "Feature", "properties": { "OBJECTID": 309314, "Shape": null, "id": "CZ_600055434", "name": "MATEŘSKÁ ŠKOLA KLICPEROVA RAKOVNÍK, KLICPEROVA 1904", "lat": 50.10377135, "lon": 13.723542, "city": null, "public_private": null }, "geometry": { "type": "Point", "coordinates": [ 13.723542, 50.103771350000045 ] } },
{ "type": "Feature", "properties": { "OBJECTID": 309315, "Shape": null, "id": "CZ_600055540", "name": "MATEŘSKÁ ŠKOLA MUTĚJOVICE, OKRES RAKOVNÍK", "lat": 50.1937244, "lon": 13.7061633, "city": null, "public_private": null }, "geometry": { "type": "Point", "coordinates": [ 13.706163300000071, 50.193724400000065 ] } },
{ "type": "Feature", "properties": { "OBJECTID": 309316, "Shape": null, "id": "CZ_600055612", "name": "MATEŘSKÁ ŠKOLA PRŮBĚŽNÁ RAKOVNÍK, PRŮBĚŽNÁ 2312", "lat": 50.09286655, "lon": 13.72803761, "city": null, "public_private": null }, "geometry": { "type": "Point", "coordinates": [ 13.728037610000058, 50.092866550000053 ] } },
{ "type": "Feature", "properties": { "OBJECTID": 309317, "Shape": null, "id": "CZ_600055621", "name": "MATEŘSKÁ ŠKOLA V LUKÁCH RAKOVNÍK, V LUKÁCH 2174", "lat": 50.10589285, "lon": 13.71720263, "city": null, "public_private": null }, "geometry": { "type": "Point", "coordinates": [ 13.717202630000031, 50.105892850000032 ] } },
{ "type": "Feature", "properties": { "OBJECTID": 309318, "Shape": null, "id": "CZ_600055663", "name": "ZÁKLADNÍ ŠKOLA A MATEŘSKÁ ŠKOLA KRUŠOVICE, OKRES RAKOVNÍK", "lat": 50.1745951, "lon": 13.7749255, "city": null, "public_private": null }, "geometry": { "type": "Point", "coordinates": [ 13.774925500000052, 50.174595100000033 ] } },
{ "type": "Feature", "properties": { "OBJECTID": 309319, "Shape": null, "id": "CZ_600054896", "name": "ZÁKLADNÍ UMĚLECKÁ ŠKOLA, PŘÍBRAM I, NÁM. T. G. MASARYKA 155", "lat": 49.6878038, "lon": 14.0087848, "city": null, "public_private": null }, "geometry": { "type": "Point", "coordinates": [ 14.008784800000058, 49.68780380000004 ] } },
{ "type": "Feature", "properties": { "OBJECTID": 309320, "Shape": null, "id": "CZ_600055795", "name": "ZÁKLADNÍ ŠKOLA CHARLOTTY GARRIGUE MASARYKOVÉ LÁNY, OKRES KLADNO", "lat": 50.1260676, "lon": 13.9521163, "city": null, "public_private": null }, "geometry": { "type": "Point", "coordinates": [ 13.952116300000057, 50.126067600000056 ] } },
{ "type": "Feature", "properties": { "OBJECTID": 309321, "Shape": null, "id": "CZ_600055825", "name": "ZÁKLADNÍ ŠKOLA MUTĚJOVICE, OKRES RAKOVNÍK", "lat": 50.1936156, "lon": 13.7054549, "city": null, "public_private": null }, "geometry": { "type": "Point", "coordinates": [ 13.705454900000063, 50.193615600000044 ] } },
{ "type": "Feature", "properties": { "OBJECTID": 309322, "Shape": null, "id": "CZ_600055833", "name": "2. ZÁKLADNÍ ŠKOLA, RAKOVNÍK, HUSOVO NÁMĚSTÍ 3", "lat": 50.10332285, "lon": 13.73224474, "city": null, "public_private": null }, "geometry": { "type": "Point", "coordinates": [ 13.732244740000056, 50.10332285000004 ] } },
{ "type": "Feature", "properties": { "OBJECTID": 309323, "Shape": null, "id": "CZ_600055841", "name": "3. ZÁKLADNÍ ŠKOLA, RAKOVNÍK, OKRUŽNÍ 2331", "lat": 50.0947518, "lon": 13.73298393, "city": null, "public_private": null }, "geometry": { "type": "Point", "coordinates": [ 13.732983930000046, 50.09475180000004 ] } },
{ "type": "Feature", "properties": { "OBJECTID": 309324, "Shape": null, "id": "CZ_600056376", "name": "MATEŘSKÁ ŠKOLA NOVÉ HOMOLE", "lat": 48.9360427, "lon": 14.4053846, "city": null, "public_private": null }, "geometry": { "type": "Point", "coordinates": [ 14.405384600000048, 48.93604270000003 ] } },
{ "type": "Feature", "properties": { "OBJECTID": 309325, "Shape": null, "id": "CZ_600056457", "name": "MATEŘSKÁ ŠKOLA HRDĚJOVICE", "lat": 49.0238251, "lon": 14.481472, "city": null, "public_private": null }, "geometry": { "type": "Point", "coordinates": [ 14.481472, 49.023825100000067 ] } },
{ "type": "Feature", "properties": { "OBJECTID": 309326, "Shape": null, "id": "CZ_600056473", "name": "MATEŘSKÁ ŠKOLA NOVÉ HRADY", "lat": 48.7877035, "lon": 14.7794593, "city": null, "public_private": null }, "geometry": { "type": "Point", "coordinates": [ 14.779459300000042, 48.787703500000077 ] } },
{ "type": "Feature", "properties": { "OBJECTID": 309327, "Shape": null, "id": "CZ_600061566", "name": "ZÁKLADNÍ UMĚLECKÁ ŠKOLA ŽIROVNICE, BRANKA 1", "lat": 49.25157115, "lon": 15.18394462, "city": null, "public_private": null }, "geometry": { "type": "Point", "coordinates": [ 15.183944620000034, 49.251571150000075 ] } },
{ "type": "Feature", "properties": { "OBJECTID": 309328, "Shape": null, "id": "CZ_600056490", "name": "MATEŘSKÁ ŠKOLA ADAMOV, OKRES ČESKÉ BUDĚJOVICE", "lat": 49.0005356, "lon": 14.5404549, "city": null, "public_private": null }, "geometry": { "type": "Point", "coordinates": [ 14.540454900000043, 49.000535600000035 ] } },
{ "type": "Feature", "properties": { "OBJECTID": 309329, "Shape": null, "id": "CZ_600056601", "name": "MATEŘSKÁ ŠKOLA TÝN NAD VLTAVOU", "lat": 49.2263797, "lon": 14.4290496, "city": null, "public_private": null }, "geometry": { "type": "Point", "coordinates": [ 14.429049600000042, 49.226379700000052 ] } },
{ "type": "Feature", "properties": { "OBJECTID": 309330, "Shape": null, "id": "CZ_600056643", "name": "MATEŘSKÁ ŠKOLA, K. ŠTĚCHA 5, ČESKÉ BUDĚJOVICE", "lat": 48.988085, "lon": 14.4392776, "city": null, "public_private": null }, "geometry": { "type": "Point", "coordinates": [ 14.439277600000025, 48.988085 ] } },
{ "type": "Feature", "properties": { "OBJECTID": 309331, "Shape": null, "id": "CZ_600055752", "name": "ZÁKLADNÍ ŠKOLA A MATEŘSKÁ ŠKOLA ČISTÁ, OKRES RAKOVNÍK", "lat": 50.0285682, "lon": 13.5687682, "city": null, "public_private": null }, "geometry": { "type": "Point", "coordinates": [ 13.568768200000022, 50.028568200000052 ] } },
{ "type": "Feature", "properties": { "OBJECTID": 309332, "Shape": null, "id": "CZ_600056783", "name": "MATEŘSKÁ ŠKOLA SEDMIKRÁSKA, ŽELEZNIČÁŘSKÁ 12, ČESKÉ BUDĚJOVICE", "lat": 48.9739986, "lon": 14.502146, "city": null, "public_private": null }, "geometry": { "type": "Point", "coordinates": [ 14.502146, 48.973998600000073 ] } },
{ "type": "Feature", "properties": { "OBJECTID": 309333, "Shape": null, "id": "CZ_600056805", "name": "MATEŘSKÁ ŠKOLA, PRAŽSKÁ 17, ČESKÉ BUDĚJOVICE", "lat": 48.9803889, "lon": 14.4712448, "city": null, "public_private": null }, "geometry": { "type": "Point", "coordinates": [ 14.471244800000022, 48.980388900000037 ] } },
{ "type": "Feature", "properties": { "OBJECTID": 309334, "Shape": null, "id": "CZ_600056988", "name": "ZÁKLADNÍ ŠKOLA A MATEŘSKÁ ŠKOLA SRUBEC", "lat": 48.9549219, "lon": 14.5298485, "city": null, "public_private": null }, "geometry": { "type": "Point", "coordinates": [ 14.529848500000071, 48.954921900000045 ] } },
{ "type": "Feature", "properties": { "OBJECTID": 309335, "Shape": null, "id": "CZ_600057101", "name": "MATEŘSKÁ ŠKOLA TRHOVÉ SVINY", "lat": 48.8434662, "lon": 14.6328741, "city": null, "public_private": null }, "geometry": { "type": "Point", "coordinates": [ 14.632874100000038, 48.84346620000008 ] } },
{ "type": "Feature", "properties": { "OBJECTID": 309336, "Shape": null, "id": "CZ_600057160", "name": "MATEŘSKÁ ŠKOLA, NERUDOVA 53, ČESKÉ BUDĚJOVICE", "lat": 48.98548565, "lon": 14.47625755, "city": null, "public_private": null }, "geometry": { "type": "Point", "coordinates": [ 14.476257550000071, 48.985485650000044 ] } },
{ "type": "Feature", "properties": { "OBJECTID": 309337, "Shape": null, "id": "CZ_600057178", "name": "MATEŘSKÁ ŠKOLA, ZEYEROVA 33, ČESKÉ BUDĚJOVICE", "lat": 48.96363335, "lon": 14.48050201, "city": null, "public_private": null }, "geometry": { "type": "Point", "coordinates": [ 14.480502010000066, 48.963633350000066 ] } },
{ "type": "Feature", "properties": { "OBJECTID": 309338, "Shape": null, "id": "CZ_600057186", "name": "MATEŘSKÁ ŠKOLA ZLIV, LIDICKÁ 599", "lat": 49.0657331, "lon": 14.365077, "city": null, "public_private": null }, "geometry": { "type": "Point", "coordinates": [ 14.365077, 49.065733100000045 ] } },
{ "type": "Feature", "properties": { "OBJECTID": 309339, "Shape": null, "id": "CZ_600057224", "name": "MATEŘSKÁ ŠKOLA, VRCHLICKÉHO NÁBŘEŽÍ 1A, ČESKÉ BUDĚJOVICE", "lat": 48.9708373, "lon": 14.48020713, "city": null, "public_private": null }, "geometry": { "type": "Point", "coordinates": [ 14.480207130000053, 48.970837300000028 ] } },
{ "type": "Feature", "properties": { "OBJECTID": 309340, "Shape": null, "id": "CZ_600057259", "name": "MATEŘSKÁ ŠKOLA BOROVANY", "lat": 48.9001386, "lon": 14.6390512, "city": null, "public_private": null }, "geometry": { "type": "Point", "coordinates": [ 14.63905120000004, 48.900138600000048 ] } },
{ "type": "Feature", "properties": { "OBJECTID": 309341, "Shape": null, "id": "CZ_600057356", "name": "ZÁKLADNÍ ŠKOLA MÁJ I, M. CHLAJNA 21, ČESKÉ BUDĚJOVICE", "lat": 48.9866133, "lon": 14.4331964, "city": null, "public_private": null }, "geometry": { "type": "Point", "coordinates": [ 14.433196400000043, 48.986613300000045 ] } },
{ "type": "Feature", "properties": { "OBJECTID": 309342, "Shape": null, "id": "CZ_600057364", "name": "ZÁKLADNÍ ŠKOLA A ZÁKLADNÍ UMĚLECKÁ ŠKOLA, ZLIV, OKR. ČESKÉ BUDĚJOVICE", "lat": 49.0657243, "lon": 14.3667606, "city": null, "public_private": null }, "geometry": { "type": "Point", "coordinates": [ 14.366760600000077, 49.065724300000056 ] } },
{ "type": "Feature", "properties": { "OBJECTID": 309343, "Shape": null, "id": "CZ_600057372", "name": "ZÁKLADNÍ ŠKOLA TRHOVÉ SVINY", "lat": 48.8431774, "lon": 14.6344078, "city": null, "public_private": null }, "geometry": { "type": "Point", "coordinates": [ 14.634407800000076, 48.843177400000059 ] } },
{ "type": "Feature", "properties": { "OBJECTID": 309344, "Shape": null, "id": "CZ_600057402", "name": "ZÁKLADNÍ ŠKOLA DR. MIROSLAVA TYRŠE, HRDĚJOVICE", "lat": 49.0147502, "lon": 14.4767801, "city": null, "public_private": null }, "geometry": { "type": "Point", "coordinates": [ 14.476780100000042, 49.014750200000037 ] } },
{ "type": "Feature", "properties": { "OBJECTID": 309345, "Shape": null, "id": "CZ_600057453", "name": "ZÁKLADNÍ ŠKOLA A MATEŘSKÁ ŠKOLA T. G. MASARYKA, RUDOLFOVSKÁ 143, ČESKÉ BUDĚJOVICE", "lat": 48.9763094, "lon": 14.4825927, "city": null, "public_private": null }, "geometry": { "type": "Point", "coordinates": [ 14.482592700000055, 48.976309400000048 ] } },
{ "type": "Feature", "properties": { "OBJECTID": 309346, "Shape": null, "id": "CZ_600057461", "name": "ZÁKLADNÍ ŠKOLA BOROVANY", "lat": 48.8986898, "lon": 14.6397904, "city": null, "public_private": null }, "geometry": { "type": "Point", "coordinates": [ 14.639790400000038, 48.898689800000056 ] } },
{ "type": "Feature", "properties": { "OBJECTID": 309347, "Shape": null, "id": "CZ_600056741", "name": "MATEŘSKÁ ŠKOLA, NEPLACHOVA 3, ČESKÉ BUDĚJOVICE", "lat": 48.9858592, "lon": 14.4671257, "city": null, "public_private": null }, "geometry": { "type": "Point", "coordinates": [ 14.467125700000054, 48.98585920000005 ] } },
{ "type": "Feature", "properties": { "OBJECTID": 309348, "Shape": null, "id": "CZ_600057585", "name": "ZÁKLADNÍ ŠKOLA A ZÁKLADNÍ UMĚLECKÁ ŠKOLA, BEZDREVSKÁ 3, ČESKÉ BUDĚJOVICE", "lat": 48.9925028, "lon": 14.4520089, "city": null, "public_private": null }, "geometry": { "type": "Point", "coordinates": [ 14.452008900000067, 48.992502800000068 ] } },
{ "type": "Feature", "properties": { "OBJECTID": 309349, "Shape": null, "id": "CZ_600057593", "name": "ZÁKLADNÍ ŠKOLA TÝN NAD VLTAVOU, MALÁ STRANA", "lat": 49.220086, "lon": 14.4183945, "city": null, "public_private": null }, "geometry": { "type": "Point", "coordinates": [ 14.418394500000034, 49.220086 ] } },
{ "type": "Feature", "properties": { "OBJECTID": 309350, "Shape": null, "id": "CZ_600057623", "name": "ZÁKLADNÍ ŠKOLA, ČESKÉ BUDĚJOVICE, OSKARA NEDBALA 30", "lat": 48.9856092, "lon": 14.4483683, "city": null, "public_private": null }, "geometry": { "type": "Point", "coordinates": [ 14.448368300000027, 48.985609200000056 ] } },
{ "type": "Feature", "properties": { "OBJECTID": 309351, "Shape": null, "id": "CZ_600057640", "name": "ZÁKLADNÍ ŠKOLA A MATEŘSKÁ ŠKOLA J. Š. BAARA, JÍROVCOVA 9/A, ČESKÉ BUDĚJOVICE", "lat": 48.97870785, "lon": 14.47844041, "city": null, "public_private": null }, "geometry": { "type": "Point", "coordinates": [ 14.478440410000076, 48.978707850000035 ] } },
{ "type": "Feature", "properties": { "OBJECTID": 309352, "Shape": null, "id": "CZ_600057887", "name": "ZÁKLADNÍ ŠKOLA, POHŮRECKÁ 16, ČESKÉ BUDĚJOVICE", "lat": 48.9667519, "lon": 14.50802, "city": null, "public_private": null }, "geometry": { "type": "Point", "coordinates": [ 14.50802, 48.966751900000077 ] } },
{ "type": "Feature", "properties": { "OBJECTID": 309353, "Shape": null, "id": "CZ_600058743", "name": "MATEŘSKÁ ŠKOLA, ČESKÝ KRUMLOV, T.G.MASARYKA 199", "lat": 48.8158654, "lon": 14.31457762, "city": null, "public_private": null }, "geometry": { "type": "Point", "coordinates": [ 14.314577620000023, 48.815865400000064 ] } },
{ "type": "Feature", "properties": { "OBJECTID": 309354, "Shape": null, "id": "CZ_600058778", "name": "MATEŘSKÁ ŠKOLA, ČESKÝ KRUMLOV, PLEŠIVEC II/391", "lat": 48.80234955, "lon": 14.30844004, "city": null, "public_private": null }, "geometry": { "type": "Point", "coordinates": [ 14.30844004000005, 48.802349550000031 ] } },
{ "type": "Feature", "properties": { "OBJECTID": 309355, "Shape": null, "id": "CZ_600058794", "name": "MATEŘSKÁ ŠKOLA, ČESKÝ KRUMLOV, TAVÍRNA 119", "lat": 48.8065188, "lon": 14.31602544, "city": null, "public_private": null }, "geometry": { "type": "Point", "coordinates": [ 14.316025440000033, 48.806518800000049 ] } },
{ "type": "Feature", "properties": { "OBJECTID": 309356, "Shape": null, "id": "CZ_600058832", "name": "MATEŘSKÁ ŠKOLA, ČESKÝ KRUMLOV, ZA SOUDEM 344", "lat": 48.80745045, "lon": 14.31680396, "city": null, "public_private": null }, "geometry": { "type": "Point", "coordinates": [ 14.316803960000072, 48.807450450000033 ] } },
{ "type": "Feature", "properties": { "OBJECTID": 309357, "Shape": null, "id": "CZ_600059081", "name": "ZÁKLADNÍ ŠKOLA A MATEŘSKÁ ŠKOLA BESEDNICE, OKRES ČESKÝ KRUMLOV", "lat": 48.7875988, "lon": 14.54917912, "city": null, "public_private": null }, "geometry": { "type": "Point", "coordinates": [ 14.549179120000076, 48.787598800000069 ] } },
{ "type": "Feature", "properties": { "OBJECTID": 309358, "Shape": null, "id": "CZ_600059090", "name": "ZÁKLADNÍ ŠKOLA KAPLICE, FANTOVA 446", "lat": 48.739488, "lon": 14.48615205, "city": null, "public_private": null }, "geometry": { "type": "Point", "coordinates": [ 14.486152050000044, 48.739488 ] } },
{ "type": "Feature", "properties": { "OBJECTID": 309359, "Shape": null, "id": "CZ_600057542", "name": "ZÁKLADNÍ ŠKOLA, GRÜNWALDOVA 13, ČESKÉ BUDĚJOVICE", "lat": 48.9635316, "lon": 14.4676961, "city": null, "public_private": null }, "geometry": { "type": "Point", "coordinates": [ 14.467696100000069, 48.963531600000067 ] } },
{ "type": "Feature", "properties": { "OBJECTID": 309360, "Shape": null, "id": "CZ_600059227", "name": "ZÁKLADNÍ ŠKOLA A MATEŘSKÁ ŠKOLA VYŠŠÍ BROD", "lat": 48.6132415, "lon": 14.3113029, "city": null, "public_private": null }, "geometry": { "type": "Point", "coordinates": [ 14.311302900000044, 48.613241500000072 ] } },
{ "type": "Feature", "properties": { "OBJECTID": 309361, "Shape": null, "id": "CZ_600059235", "name": "ZÁKLADNÍ ŠKOLA A MATEŘSKÁ ŠKOLA HORNÍ PLANÁ", "lat": 48.7639964, "lon": 14.03026806, "city": null, "public_private": null }, "geometry": { "type": "Point", "coordinates": [ 14.030268060000026, 48.763996400000053 ] } },
{ "type": "Feature", "properties": { "OBJECTID": 309362, "Shape": null, "id": "CZ_600059367", "name": "ZÁKLADNÍ ŠKOLA A MATEŘSKÁ ŠKOLA KŘEMŽE", "lat": 48.904097, "lon": 14.3099576, "city": null, "public_private": null }, "geometry": { "type": "Point", "coordinates": [ 14.309957600000075, 48.904097 ] } },
{ "type": "Feature", "properties": { "OBJECTID": 309363, "Shape": null, "id": "CZ_600059375", "name": "ZÁKLADNÍ ŠKOLA VELEŠÍN, OKRES ČESKÝ KRUMLOV", "lat": 48.828833, "lon": 14.4591935, "city": null, "public_private": null }, "geometry": { "type": "Point", "coordinates": [ 14.459193500000026, 48.828833 ] } },
{ "type": "Feature", "properties": { "OBJECTID": 309364, "Shape": null, "id": "CZ_600059596", "name": "MATEŘSKÁ ŠKOLA SLAVONICE, BRNĚNSKÁ 200", "lat": 48.9968452, "lon": 15.3586044, "city": null, "public_private": null }, "geometry": { "type": "Point", "coordinates": [ 15.358604400000047, 48.996845200000053 ] } },
{ "type": "Feature", "properties": { "OBJECTID": 309365, "Shape": null, "id": "CZ_600059677", "name": "MATEŘSKÁ ŠKOLA CHLUM U TŘEBONĚ", "lat": 48.9597281, "lon": 14.9266647, "city": null, "public_private": null }, "geometry": { "type": "Point", "coordinates": [ 14.92666470000006, 48.959728100000063 ] } },
{ "type": "Feature", "properties": { "OBJECTID": 309366, "Shape": null, "id": "CZ_600059847", "name": "MATEŘSKÁ ŠKOLA KUNŽAK", "lat": 49.1180427, "lon": 15.1912916, "city": null, "public_private": null }, "geometry": { "type": "Point", "coordinates": [ 15.191291600000056, 49.118042700000046 ] } },
{ "type": "Feature", "properties": { "OBJECTID": 309367, "Shape": null, "id": "CZ_600059979", "name": "MATEŘSKÁ ŠKOLA STRMILOV, OKRES JINDŘICHŮV HRADEC", "lat": 49.1627175, "lon": 15.2011594, "city": null, "public_private": null }, "geometry": { "type": "Point", "coordinates": [ 15.201159400000051, 49.162717500000042 ] } },
{ "type": "Feature", "properties": { "OBJECTID": 309368, "Shape": null, "id": "CZ_600059162", "name": "ZÁKLADNÍ ŠKOLA ČESKÝ KRUMLOV, LINECKÁ 43", "lat": 48.80896325, "lon": 14.31547682, "city": null, "public_private": null }, "geometry": { "type": "Point", "coordinates": [ 14.315476820000072, 48.808963250000033 ] } },
{ "type": "Feature", "properties": { "OBJECTID": 309369, "Shape": null, "id": "CZ_600070441", "name": "ZÁKLADNÍ ŠKOLA BLOVICE, OKRES PLZEŇ-JIH", "lat": 49.5842531, "lon": 13.53353548, "city": null, "public_private": null }, "geometry": { "type": "Point", "coordinates": [ 13.533535480000069, 49.584253100000069 ] } },
{ "type": "Feature", "properties": { "OBJECTID": 309370, "Shape": null, "id": "CZ_600060454", "name": "ZÁKLADNÍ ŠKOLA JINDŘICHŮV HRADEC II, JANDEROVA 160", "lat": 49.1461201, "lon": 15.0012254, "city": null, "public_private": null }, "geometry": { "type": "Point", "coordinates": [ 15.001225400000067, 49.146120100000076 ] } },
{ "type": "Feature", "properties": { "OBJECTID": 309371, "Shape": null, "id": "CZ_600060535", "name": "ZÁKLADNÍ ŠKOLA NOVÁ VČELNICE, PŘÍSPĚVKOVÁ ORGANIZACE", "lat": 49.243029, "lon": 15.075327, "city": null, "public_private": null }, "geometry": { "type": "Point", "coordinates": [ 15.075327, 49.243029 ] } },
{ "type": "Feature", "properties": { "OBJECTID": 309372, "Shape": null, "id": "CZ_600060586", "name": "ZÁKLADNÍ ŠKOLA STRMILOV, OKRES JINDŘICHŮV HRADEC", "lat": 49.1627544, "lon": 15.2018999, "city": null, "public_private": null }, "geometry": { "type": "Point", "coordinates": [ 15.201899900000058, 49.16275440000004 ] } },
{ "type": "Feature", "properties": { "OBJECTID": 309373, "Shape": null, "id": "CZ_600060616", "name": "ZÁKLADNÍ ŠKOLA TŘEBOŇ, SOKOLSKÁ 296", "lat": 49.00479045, "lon": 14.76732061, "city": null, "public_private": null }, "geometry": { "type": "Point", "coordinates": [ 14.76732061000007, 49.00479045000003 ] } },
{ "type": "Feature", "properties": { "OBJECTID": 309374, "Shape": null, "id": "CZ_600060624", "name": "ZÁKLADNÍ ŠKOLA TŘEBOŇ, NA SADECH 375", "lat": 49.0053722, "lon": 14.76551923, "city": null, "public_private": null }, "geometry": { "type": "Point", "coordinates": [ 14.765519230000052, 49.005372200000068 ] } },
{ "type": "Feature", "properties": { "OBJECTID": 309375, "Shape": null, "id": "CZ_600060799", "name": "MATEŘSKÁ ŠKOLA KEJŽLICE", "lat": 49.5901058, "lon": 15.3929985, "city": null, "public_private": null }, "geometry": { "type": "Point", "coordinates": [ 15.392998500000033, 49.59010580000006 ] } },
{ "type": "Feature", "properties": { "OBJECTID": 309376, "Shape": null, "id": "CZ_600060934", "name": "MATEŘSKÁ ŠKOLA PELHŘIMOV, PŘÍSPĚVKOVÁ ORGANIZACE", "lat": 49.4345151, "lon": 15.2193052, "city": null, "public_private": null }, "geometry": { "type": "Point", "coordinates": [ 15.219305200000065, 49.434515100000056 ] } },
{ "type": "Feature", "properties": { "OBJECTID": 309377, "Shape": null, "id": "CZ_600061001", "name": "MATEŘSKÁ ŠKOLA HORNÍ CEREKEV, OKRES PELHŘIMOV", "lat": 49.3228458, "lon": 15.3231143, "city": null, "public_private": null }, "geometry": { "type": "Point", "coordinates": [ 15.323114300000043, 49.322845800000039 ] } },
{ "type": "Feature", "properties": { "OBJECTID": 309378, "Shape": null, "id": "CZ_600060403", "name": "ZÁKLADNÍ ŠKOLA J. A. KOMENSKÉHO DAČICE", "lat": 49.0814463, "lon": 15.4328683, "city": null, "public_private": null }, "geometry": { "type": "Point", "coordinates": [ 15.432868300000052, 49.081446300000039 ] } },
{ "type": "Feature", "properties": { "OBJECTID": 309379, "Shape": null, "id": "CZ_600061388", "name": "ZÁKLADNÍ ŠKOLA KAMENICE NAD LIPOU, OKRES PELHŘIMOV", "lat": 49.3036941, "lon": 15.0751611, "city": null, "public_private": null }, "geometry": { "type": "Point", "coordinates": [ 15.075161100000059, 49.30369410000003 ] } },
{ "type": "Feature", "properties": { "OBJECTID": 309380, "Shape": null, "id": "CZ_600061469", "name": "ZÁKLADNÍ ŠKOLA PELHŘIMOV, KRÁSOVY DOMKY 989, PŘÍSPĚVKOVÁ ORGANIZACE", "lat": 49.4286589, "lon": 15.2186228, "city": null, "public_private": null }, "geometry": { "type": "Point", "coordinates": [ 15.218622800000048, 49.428658900000073 ] } },
{ "type": "Feature", "properties": { "OBJECTID": 309381, "Shape": null, "id": "CZ_600061477", "name": "ZÁKLADNÍ ŠKOLA PELHŘIMOV, KOMENSKÉHO 1465, PŘÍSPĚVKOVÁ ORGANIZACE", "lat": 49.4276948, "lon": 15.218423, "city": null, "public_private": null }, "geometry": { "type": "Point", "coordinates": [ 15.218423, 49.42769480000004 ] } },
{ "type": "Feature", "properties": { "OBJECTID": 309382, "Shape": null, "id": "CZ_600061531", "name": "ZÁKLADNÍ ŠKOLA A MATEŘSKÁ ŠKOLA ŽIROVNICE", "lat": 49.2544164, "lon": 15.1887501, "city": null, "public_private": null }, "geometry": { "type": "Point", "coordinates": [ 15.18875010000005, 49.254416400000082 ] } },
{ "type": "Feature", "properties": { "OBJECTID": 309383, "Shape": null, "id": "CZ_600061540", "name": "ZÁKLADNÍ ŠKOLA HUMPOLEC, HRADSKÁ 894, OKRES PELHŘIMOV", "lat": 49.5421116, "lon": 15.36525686, "city": null, "public_private": null }, "geometry": { "type": "Point", "coordinates": [ 15.365256860000045, 49.542111600000055 ] } },
{ "type": "Feature", "properties": { "OBJECTID": 309384, "Shape": null, "id": "CZ_600061558", "name": "ZÁKLADNÍ UMĚLECKÁ ŠKOLA GUSTAVA MAHLERA HUMPOLEC, ŠKOLNÍ 701", "lat": 49.53798555, "lon": 15.35310102, "city": null, "public_private": null }, "geometry": { "type": "Point", "coordinates": [ 15.353101020000054, 49.53798555000003 ] } },
{ "type": "Feature", "properties": { "OBJECTID": 309385, "Shape": null, "id": "CZ_600061698", "name": "MATEŘSKÁ ŠKOLA PASTELKA MILEVSKO, J. MAŘÁNKA 226, OKRES PÍSEK", "lat": 49.4473628, "lon": 14.3685188, "city": null, "public_private": null }, "geometry": { "type": "Point", "coordinates": [ 14.368518800000061, 49.447362800000064 ] } },
{ "type": "Feature", "properties": { "OBJECTID": 309386, "Shape": null, "id": "CZ_600061701", "name": "MATEŘSKÁ ŠKOLA SLUNÍČKO MILEVSKO, JEŘÁBKOVA 781, OKRES PÍSEK", "lat": 49.4521909, "lon": 14.3580087, "city": null, "public_private": null }, "geometry": { "type": "Point", "coordinates": [ 14.358008700000028, 49.452190900000062 ] } },
{ "type": "Feature", "properties": { "OBJECTID": 309387, "Shape": null, "id": "CZ_600062121", "name": "ZÁKLADNÍ ŠKOLA EDVARDA BENEŠE A MATEŘSKÁ ŠKOLA PÍSEK, MÍROVÉ NÁM. 1466", "lat": 49.3111847, "lon": 14.1584021, "city": null, "public_private": null }, "geometry": { "type": "Point", "coordinates": [ 14.158402100000046, 49.311184700000069 ] } },
{ "type": "Feature", "properties": { "OBJECTID": 309388, "Shape": null, "id": "CZ_600062155", "name": "ZÁKLADNÍ ŠKOLA JANA HUSA A MATEŘSKÁ ŠKOLA PÍSEK, HUSOVO NÁM. 725", "lat": 49.30400555, "lon": 14.15089602, "city": null, "public_private": null }, "geometry": { "type": "Point", "coordinates": [ 14.150896020000062, 49.304005550000056 ] } },
{ "type": "Feature", "properties": { "OBJECTID": 309389, "Shape": null, "id": "CZ_600062163", "name": "ZÁKLADNÍ ŠKOLA TOMÁŠE ŠOBRA A MATEŘSKÁ ŠKOLA PÍSEK, ŠOBROVA 2070", "lat": 49.30378085, "lon": 14.16520347, "city": null, "public_private": null }, "geometry": { "type": "Point", "coordinates": [ 14.165203470000051, 49.303780850000066 ] } },
{ "type": "Feature", "properties": { "OBJECTID": 309390, "Shape": null, "id": "CZ_600062171", "name": "ZÁKLADNÍ ŠKOLA JOSEFA KAJETÁNA TYLA A MATEŘSKÁ ŠKOLA PÍSEK, TYLOVA 2391", "lat": 49.3107466, "lon": 14.1512377, "city": null, "public_private": null }, "geometry": { "type": "Point", "coordinates": [ 14.151237700000024, 49.310746600000073 ] } },
{ "type": "Feature", "properties": { "OBJECTID": 309391, "Shape": null, "id": "CZ_600062180", "name": "ZÁKLADNÍ ŠKOLA PROTIVÍN, SE SÍDLEM 398 11 PROTIVÍN, KOMENSKÉHO 238", "lat": 49.196421, "lon": 14.2142139, "city": null, "public_private": null }, "geometry": { "type": "Point", "coordinates": [ 14.214213900000061, 49.196421 ] } },
{ "type": "Feature", "properties": { "OBJECTID": 309392, "Shape": null, "id": "CZ_600062635", "name": "MATEŘSKÁ ŠKOLA, VIMPERK 1. MÁJE 180 PŘÍSPĚVKOVÁ ORGANIZACE", "lat": 49.055486, "lon": 13.78123504, "city": null, "public_private": null }, "geometry": { "type": "Point", "coordinates": [ 13.78123504000007, 49.055486 ] } },
{ "type": "Feature", "properties": { "OBJECTID": 309393, "Shape": null, "id": "CZ_600062694", "name": "MATEŘSKÁ ŠKOLA NETOLICE", "lat": 49.0494916, "lon": 14.1916019, "city": null, "public_private": null }, "geometry": { "type": "Point", "coordinates": [ 14.191601900000023, 49.049491600000067 ] } },
{ "type": "Feature", "properties": { "OBJECTID": 309394, "Shape": null, "id": "CZ_600062783", "name": "MATEŘSKÁ ŠKOLA VIMPERK, KLOSTERMANNOVA 365, OKRES PRACHATICE", "lat": 49.05969355, "lon": 13.78203058, "city": null, "public_private": null }, "geometry": { "type": "Point", "coordinates": [ 13.782030580000026, 49.059693550000077 ] } },
{ "type": "Feature", "properties": { "OBJECTID": 309395, "Shape": null, "id": "CZ_600061922", "name": "2. MATEŘSKÁ ŠKOLA PROTIVÍN SE SÍDLEM PROTIVÍN BOŽENY NĚMCOVÉ 806", "lat": 49.1986228, "lon": 14.2135948, "city": null, "public_private": null }, "geometry": { "type": "Point", "coordinates": [ 14.213594800000067, 49.198622800000066 ] } },
{ "type": "Feature", "properties": { "OBJECTID": 309396, "Shape": null, "id": "CZ_600063011", "name": "ZÁKLADNÍ ŠKOLA A MATEŘSKÁ ŠKOLA LHENICE", "lat": 48.992766, "lon": 14.1502605, "city": null, "public_private": null }, "geometry": { "type": "Point", "coordinates": [ 14.150260500000059, 48.992766 ] } },
{ "type": "Feature", "properties": { "OBJECTID": 309397, "Shape": null, "id": "CZ_600063020", "name": "ZÁKLADNÍ ŠKOLA, NETOLICE, OKRES PRACHATICE", "lat": 49.0501904, "lon": 14.1921926, "city": null, "public_private": null }, "geometry": { "type": "Point", "coordinates": [ 14.192192600000055, 49.050190400000076 ] } },
{ "type": "Feature", "properties": { "OBJECTID": 309398, "Shape": null, "id": "CZ_600063062", "name": "ZÁKLADNÍ ŠKOLA MISTRA JANA HUSA A MATEŘSKÁ ŠKOLA HUSINEC", "lat": 49.052062, "lon": 13.9818829, "city": null, "public_private": null }, "geometry": { "type": "Point", "coordinates": [ 13.981882900000073, 49.052062 ] } },
{ "type": "Feature", "properties": { "OBJECTID": 309399, "Shape": null, "id": "CZ_600066541", "name": "ZÁKLADNÍ UMĚLECKÁ ŠKOLA ROBERTA SCHUMANNA AŠ", "lat": 50.2261089, "lon": 12.1867058, "city": null, "public_private": null }, "geometry": { "type": "Point", "coordinates": [ 12.186705800000027, 50.226108900000042 ] } },
{ "type": "Feature", "properties": { "OBJECTID": 309400, "Shape": null, "id": "CZ_600063232", "name": "ZÁKLADNÍ UMĚLECKÁ ŠKOLA NETOLICE, OKRES PRACHATICE", "lat": 49.0499463, "lon": 14.1916379, "city": null, "public_private": null }, "geometry": { "type": "Point", "coordinates": [ 14.191637900000046, 49.049946300000045 ] } },
{ "type": "Feature", "properties": { "OBJECTID": 309401, "Shape": null, "id": "CZ_600063241", "name": "ZÁKLADNÍ UMĚLECKÁ ŠKOLA VOLARY, OKRES PRACHATICE", "lat": 48.9122523, "lon": 13.8930635, "city": null, "public_private": null }, "geometry": { "type": "Point", "coordinates": [ 13.893063500000039, 48.912252300000034 ] } },
{ "type": "Feature", "properties": { "OBJECTID": 309402, "Shape": null, "id": "CZ_600063313", "name": "MATEŘSKÁ ŠKOLA ČTYŘLÍSTEK, STRAKONICE, HOLEČKOVA 410", "lat": 49.2565986, "lon": 13.9070735, "city": null, "public_private": null }, "geometry": { "type": "Point", "coordinates": [ 13.907073500000024, 49.256598600000075 ] } },
{ "type": "Feature", "properties": { "OBJECTID": 309403, "Shape": null, "id": "CZ_600063356", "name": "MATEŘSKÁ ŠKOLA BAVOROV, OKRES STRAKONICE", "lat": 49.123291, "lon": 14.0750511, "city": null, "public_private": null }, "geometry": { "type": "Point", "coordinates": [ 14.075051100000053, 49.123291 ] } },
{ "type": "Feature", "properties": { "OBJECTID": 309404, "Shape": null, "id": "CZ_600063372", "name": "MATEŘSKÁ ŠKOLA BLATNÁ, ŠILHOVA", "lat": 49.4293562, "lon": 13.8861278, "city": null, "public_private": null }, "geometry": { "type": "Point", "coordinates": [ 13.886127800000054, 49.429356200000029 ] } },
{ "type": "Feature", "properties": { "OBJECTID": 309405, "Shape": null, "id": "CZ_600063453", "name": "MATEŘSKÁ ŠKOLA RADOMYŠL, OKRES STRAKONICE", "lat": 49.3161858, "lon": 13.9271909, "city": null, "public_private": null }, "geometry": { "type": "Point", "coordinates": [ 13.927190900000028, 49.316185800000028 ] } },
{ "type": "Feature", "properties": { "OBJECTID": 309406, "Shape": null, "id": "CZ_600063551", "name": "MATEŘSKÁ ŠKOLA VODŇANY, SMETANOVA 204", "lat": 49.1466264, "lon": 14.17044335, "city": null, "public_private": null }, "geometry": { "type": "Point", "coordinates": [ 14.170443350000028, 49.146626400000059 ] } },
{ "type": "Feature", "properties": { "OBJECTID": 309407, "Shape": null, "id": "CZ_600063577", "name": "MATEŘSKÁ ŠKOLA VOLYNĚ, OKRES STRAKONICE", "lat": 49.16423525, "lon": 13.88400961, "city": null, "public_private": null }, "geometry": { "type": "Point", "coordinates": [ 13.884009610000021, 49.164235250000047 ] } },
{ "type": "Feature", "properties": { "OBJECTID": 309408, "Shape": null, "id": "CZ_600063691", "name": "ZÁKLADNÍ ŠKOLA STRAKONICE, DUKELSKÁ 166", "lat": 49.2577874, "lon": 13.9097919, "city": null, "public_private": null }, "geometry": { "type": "Point", "coordinates": [ 13.909791900000073, 49.257787400000041 ] } },
{ "type": "Feature", "properties": { "OBJECTID": 309409, "Shape": null, "id": "CZ_600062970", "name": "ZÁKLADNÍ ŠKOLA VOLARY, PŘÍSPĚVKOVÁ ORGANIZACE", "lat": 48.909836, "lon": 13.8823695, "city": null, "public_private": null }, "geometry": { "type": "Point", "coordinates": [ 13.882369500000038, 48.909836 ] } },
{ "type": "Feature", "properties": { "OBJECTID": 309410, "Shape": null, "id": "CZ_600063887", "name": "ZÁKLADNÍ ŠKOLA VOLYNĚ, OKRES STRAKONICE", "lat": 49.16871115, "lon": 13.88554442, "city": null, "public_private": null }, "geometry": { "type": "Point", "coordinates": [ 13.885544420000031, 49.168711150000036 ] } },
{ "type": "Feature", "properties": { "OBJECTID": 309411, "Shape": null, "id": "CZ_600064140", "name": "MATEŘSKÁ ŠKOLA SEZIMOVO ÚSTÍ, LIPOVÁ 649", "lat": 49.37771555, "lon": 14.70327886, "city": null, "public_private": null }, "geometry": { "type": "Point", "coordinates": [ 14.703278860000069, 49.377715550000062 ] } },
{ "type": "Feature", "properties": { "OBJECTID": 309412, "Shape": null, "id": "CZ_600064182", "name": "MATEŘSKÁ ŠKOLA U ZASTÁVKY VESELÍ NAD LUŽNICÍ, POD MARKEM 532", "lat": 49.17939185, "lon": 14.69304041, "city": null, "public_private": null }, "geometry": { "type": "Point", "coordinates": [ 14.693040410000037, 49.179391850000059 ] } },
{ "type": "Feature", "properties": { "OBJECTID": 309413, "Shape": null, "id": "CZ_600064221", "name": "MATEŘSKÁ ŠKOLA JAHŮDKA, BECHYNĚ, NA LIBUŠI 859", "lat": 49.3007534, "lon": 14.4789455, "city": null, "public_private": null }, "geometry": { "type": "Point", "coordinates": [ 14.478945500000066, 49.300753400000076 ] } },
{ "type": "Feature", "properties": { "OBJECTID": 309414, "Shape": null, "id": "CZ_600064271", "name": "MATEŘSKÁ ŠKOLA ZAHRÁDKA SEZIMOVO ÚSTÍ, KAPLICKÉHO 1037", "lat": 49.3844835, "lon": 14.6917597, "city": null, "public_private": null }, "geometry": { "type": "Point", "coordinates": [ 14.691759700000034, 49.384483500000044 ] } },
{ "type": "Feature", "properties": { "OBJECTID": 309415, "Shape": null, "id": "CZ_600064468", "name": "MATEŘSKÁ ŠKOLA CHÝNOV, OKRES TÁBOR", "lat": 49.408893, "lon": 14.8088832, "city": null, "public_private": null }, "geometry": { "type": "Point", "coordinates": [ 14.808883200000025, 49.408893 ] } },
{ "type": "Feature", "properties": { "OBJECTID": 309416, "Shape": null, "id": "CZ_600064514", "name": "ZÁKLADNÍ ŠKOLA A MATEŘSKÁ ŠKOLA JISTEBNICE", "lat": 49.4863719, "lon": 14.5259357, "city": null, "public_private": null }, "geometry": { "type": "Point", "coordinates": [ 14.525935700000048, 49.486371900000051 ] } },
{ "type": "Feature", "properties": { "OBJECTID": 309417, "Shape": null, "id": "CZ_600064557", "name": "ZÁKLADNÍ ŠKOLA CHÝNOV, OKRES TÁBOR", "lat": 49.4078855, "lon": 14.8122656, "city": null, "public_private": null }, "geometry": { "type": "Point", "coordinates": [ 14.812265600000046, 49.407885500000077 ] } },
{ "type": "Feature", "properties": { "OBJECTID": 309418, "Shape": null, "id": "CZ_600064620", "name": "ZÁKLADNÍ ŠKOLA TÁBOR, ZBOROVSKÁ 2696", "lat": 49.423292, "lon": 14.6498071, "city": null, "public_private": null }, "geometry": { "type": "Point", "coordinates": [ 14.649807100000032, 49.423292 ] } },
{ "type": "Feature", "properties": { "OBJECTID": 309419, "Shape": null, "id": "CZ_600063801", "name": "ZÁKLADNÍ ŠKOLA T.G.MASARYKA BLATNÁ, OKR. STRAKONICE", "lat": 49.4284808, "lon": 13.8787434, "city": null, "public_private": null }, "geometry": { "type": "Point", "coordinates": [ 13.878743400000076, 49.428480800000045 ] } },
{ "type": "Feature", "properties": { "OBJECTID": 309420, "Shape": null, "id": "CZ_600064824", "name": "ZÁKLADNÍ ŠKOLA A MATEŘSKÁ ŠKOLA CHOTOVINY, OKRES TÁBOR", "lat": 49.4784264, "lon": 14.6754509, "city": null, "public_private": null }, "geometry": { "type": "Point", "coordinates": [ 14.675450900000044, 49.478426400000046 ] } },
{ "type": "Feature", "properties": { "OBJECTID": 309421, "Shape": null, "id": "CZ_600064867", "name": "ZÁKLADNÍ ŠKOLA A MATEŘSKÁ ŠKOLA SEZIMOVO ÚSTÍ, 9. KVĚTNA 489, OKRES TÁBOR", "lat": 49.3814371, "lon": 14.7035802, "city": null, "public_private": null }, "geometry": { "type": "Point", "coordinates": [ 14.703580200000033, 49.381437100000028 ] } },
{ "type": "Feature", "properties": { "OBJECTID": 309422, "Shape": null, "id": "CZ_600064875", "name": "ZÁKLADNÍ ŠKOLA A MATEŘSKÁ ŠKOLA TÁBOR, HUSOVA 1570", "lat": 49.4087411, "lon": 14.6763741, "city": null, "public_private": null }, "geometry": { "type": "Point", "coordinates": [ 14.676374100000032, 49.408741100000043 ] } },
{ "type": "Feature", "properties": { "OBJECTID": 309423, "Shape": null, "id": "CZ_600064891", "name": "ZÁKLADNÍ ŠKOLA A MATEŘSKÁ ŠKOLA TÁBOR, HELSINSKÁ 2732", "lat": 49.3864211, "lon": 14.68949939, "city": null, "public_private": null }, "geometry": { "type": "Point", "coordinates": [ 14.689499390000037, 49.386421100000064 ] } },
{ "type": "Feature", "properties": { "OBJECTID": 309424, "Shape": null, "id": "CZ_600064981", "name": "MATEŘSKÁ ŠKOLA KDYNĚ, DĚLNICKÁ 35, PŘÍSPĚVKOVÁ ORGANIZACE", "lat": 49.3944971, "lon": 13.0358567, "city": null, "public_private": null }, "geometry": { "type": "Point", "coordinates": [ 13.035856700000068, 49.394497100000081 ] } },
{ "type": "Feature", "properties": { "OBJECTID": 309425, "Shape": null, "id": "CZ_600065146", "name": "MATEŘSKÁ ŠKOLA HOSTOUŇ, OKRES DOMAŽLICE, PŘÍSPĚVKOVÁ ORGANIZACE", "lat": 49.5583032, "lon": 12.7696566, "city": null, "public_private": null }, "geometry": { "type": "Point", "coordinates": [ 12.769656600000076, 49.558303200000069 ] } },
{ "type": "Feature", "properties": { "OBJECTID": 309426, "Shape": null, "id": "CZ_600065235", "name": "MATEŘSKÁ ŠKOLA POBĚŽOVICE, OKRES DOMAŽLICE, PŘÍSPĚVKOVÁ ORGANIZACE", "lat": 49.5112897, "lon": 12.7976301, "city": null, "public_private": null }, "geometry": { "type": "Point", "coordinates": [ 12.797630100000049, 49.511289700000077 ] } },
{ "type": "Feature", "properties": { "OBJECTID": 309427, "Shape": null, "id": "CZ_600064743", "name": "ZÁKLADNÍ ŠKOLA SEZIMOVO ÚSTÍ, ŠVEHLOVA 111, OKRES TÁBOR", "lat": 49.3853949, "lon": 14.685052, "city": null, "public_private": null }, "geometry": { "type": "Point", "coordinates": [ 14.685052, 49.385394900000051 ] } },
{ "type": "Feature", "properties": { "OBJECTID": 309428, "Shape": null, "id": "CZ_600065529", "name": "MASARYKOVA ZÁKLADNÍ ŠKOLA KDYNĚ, OKRES DOMAŽLICE, PŘÍSPĚVKOVÁ ORGANIZACE", "lat": 49.3930182, "lon": 13.0430935, "city": null, "public_private": null }, "geometry": { "type": "Point", "coordinates": [ 13.043093500000055, 49.393018200000029 ] } },
{ "type": "Feature", "properties": { "OBJECTID": 309429, "Shape": null, "id": "CZ_600065537", "name": "ZÁKLADNÍ ŠKOLA KOLOVEČ, OKRES DOMAŽLICE, PŘÍSPĚVKOVÁ ORGANIZACE", "lat": 49.4881377, "lon": 13.1130909, "city": null, "public_private": null }, "geometry": { "type": "Point", "coordinates": [ 13.113090900000032, 49.488137700000038 ] } },
{ "type": "Feature", "properties": { "OBJECTID": 309430, "Shape": null, "id": "CZ_600065685", "name": "ZÁKLADNÍ ŠKOLA POBĚŽOVICE, OKRES DOMAŽLICE", "lat": 49.5100226, "lon": 12.80548686, "city": null, "public_private": null }, "geometry": { "type": "Point", "coordinates": [ 12.80548686000003, 49.51002260000007 ] } },
{ "type": "Feature", "properties": { "OBJECTID": 309431, "Shape": null, "id": "CZ_600065715", "name": "ZÁKLADNÍ UMĚLECKÁ ŠKOLA KDYNĚ, OKRES DOMAŽLICE, PŘÍSPĚVKOVÁ ORGANIZACE", "lat": 49.3889732, "lon": 13.0428543, "city": null, "public_private": null }, "geometry": { "type": "Point", "coordinates": [ 13.042854300000045, 49.388973200000066 ] } },
{ "type": "Feature", "properties": { "OBJECTID": 309432, "Shape": null, "id": "CZ_600065723", "name": "ZÁKLADNÍ UMĚLECKÁ ŠKOLA HOLÝŠOV, PŘÍSPĚVKOVÁ ORGANIZACE", "lat": 49.5935467, "lon": 13.1010647, "city": null, "public_private": null }, "geometry": { "type": "Point", "coordinates": [ 13.101064700000052, 49.593546700000047 ] } },
{ "type": "Feature", "properties": { "OBJECTID": 309433, "Shape": null, "id": "CZ_600065740", "name": "ZÁKLADNÍ UMĚLECKÁ ŠKOLA STAŇKOV, PŘÍSPĚVKOVÁ ORGANIZACE", "lat": 49.5524681, "lon": 13.0743866, "city": null, "public_private": null }, "geometry": { "type": "Point", "coordinates": [ 13.074386600000025, 49.552468100000056 ] } },
{ "type": "Feature", "properties": { "OBJECTID": 309434, "Shape": null, "id": "CZ_600065413", "name": "ZÁKLADNÍ ŠKOLA HOLÝŠOV, PŘÍSPĚVKOVÁ ORGANIZACE", "lat": 49.592278, "lon": 13.1063315, "city": null, "public_private": null }, "geometry": { "type": "Point", "coordinates": [ 13.106331500000067, 49.592278 ] } },
{ "type": "Feature", "properties": { "OBJECTID": 309435, "Shape": null, "id": "CZ_600066070", "name": "MATEŘSKÁ ŠKOLA VELKÁ HLEĎSEBE, OKRES CHEB, PŘÍSPĚVKOVÁ ORGANIZACE", "lat": 49.9606009, "lon": 12.674353, "city": null, "public_private": null }, "geometry": { "type": "Point", "coordinates": [ 12.674353, 49.960600900000031 ] } },
{ "type": "Feature", "properties": { "OBJECTID": 309436, "Shape": null, "id": "CZ_600066134", "name": "MATEŘSKÁ ŠKOLA AŠ, MORAVSKÁ 10, OKRES CHEB", "lat": 50.2236184, "lon": 12.1886766, "city": null, "public_private": null }, "geometry": { "type": "Point", "coordinates": [ 12.188676600000065, 50.223618400000078 ] } },
{ "type": "Feature", "properties": { "OBJECTID": 309437, "Shape": null, "id": "CZ_600066169", "name": "MATEŘSKÁ ŠKOLA CHEB, DO ZÁTIŠÍ 3, PŘÍSPĚVKOVÁ ORGANIZACE", "lat": 50.0730947, "lon": 12.353845, "city": null, "public_private": null }, "geometry": { "type": "Point", "coordinates": [ 12.353845, 50.07309470000007 ] } },
{ "type": "Feature", "properties": { "OBJECTID": 309438, "Shape": null, "id": "CZ_600066177", "name": "MATEŘSKÁ ŠKOLA CHEB, OSVOBOZENÍ 67, PŘÍSPĚVKOVÁ ORGANIZACE", "lat": 50.0665384, "lon": 12.3718596, "city": null, "public_private": null }, "geometry": { "type": "Point", "coordinates": [ 12.37185960000005, 50.06653840000007 ] } },
{ "type": "Feature", "properties": { "OBJECTID": 309439, "Shape": null, "id": "CZ_600066193", "name": "MATEŘSKÁ ŠKOLA HRANICE, OKRES CHEB", "lat": 50.3069945, "lon": 12.1746647, "city": null, "public_private": null }, "geometry": { "type": "Point", "coordinates": [ 12.174664700000051, 50.30699450000003 ] } },
{ "type": "Feature", "properties": { "OBJECTID": 309440, "Shape": null, "id": "CZ_600066215", "name": "MATEŘSKÁ ŠKOLA ÚŠOVICE, MARIÁNSKÉ LÁZNĚ, SKALNÍKOVA 518, PŘÍSPĚVKOVÁ ORGANIZACE", "lat": 49.9498102, "lon": 12.7110805, "city": null, "public_private": null }, "geometry": { "type": "Point", "coordinates": [ 12.711080500000037, 49.949810200000059 ] } },
{ "type": "Feature", "properties": { "OBJECTID": 309441, "Shape": null, "id": "CZ_600066223", "name": "MATEŘSKÁ ŠKOLA FRANTIŠKOVY LÁZNĚ, ŠKOLNÍ 182", "lat": 50.1233672, "lon": 12.3500206, "city": null, "public_private": null }, "geometry": { "type": "Point", "coordinates": [ 12.35002060000005, 50.123367200000075 ] } },
{ "type": "Feature", "properties": { "OBJECTID": 309442, "Shape": null, "id": "CZ_600066274", "name": "2. ZÁKLADNÍ ŠKOLA CHEB, MÁJOVÁ 14, PŘÍSPĚVKOVÁ ORGANIZACE", "lat": 50.0751634, "lon": 12.3696954, "city": null, "public_private": null }, "geometry": { "type": "Point", "coordinates": [ 12.369695400000069, 50.075163400000065 ] } },
{ "type": "Feature", "properties": { "OBJECTID": 309443, "Shape": null, "id": "CZ_600066282", "name": "3. ZÁKLADNÍ ŠKOLA CHEB, MALÉ NÁMĚSTÍ 3, PŘÍSPĚVKOVÁ ORGANIZACE", "lat": 50.0871794, "lon": 12.3747837, "city": null, "public_private": null }, "geometry": { "type": "Point", "coordinates": [ 12.374783700000023, 50.087179400000082 ] } },
{ "type": "Feature", "properties": { "OBJECTID": 309444, "Shape": null, "id": "CZ_600066291", "name": "4. ZÁKLADNÍ ŠKOLA CHEB, HRADEBNÍ 14, PŘÍSPĚVKOVÁ ORGANIZACE", "lat": 50.0781331, "lon": 12.3659736, "city": null, "public_private": null }, "geometry": { "type": "Point", "coordinates": [ 12.365973600000075, 50.078133100000059 ] } },
{ "type": "Feature", "properties": { "OBJECTID": 309445, "Shape": null, "id": "CZ_600066312", "name": "6. ZÁKLADNÍ ŠKOLA CHEB, OBĚTÍ NACISMU 16, PŘÍSPĚVKOVÁ ORGANIZACE", "lat": 50.0725922, "lon": 12.3748299, "city": null, "public_private": null }, "geometry": { "type": "Point", "coordinates": [ 12.374829900000066, 50.072592200000031 ] } },
{ "type": "Feature", "properties": { "OBJECTID": 309446, "Shape": null, "id": "CZ_600066321", "name": "1. ZÁKLADNÍ ŠKOLA CHEB, AMERICKÁ 36, PŘÍSPĚVKOVÁ ORGANIZACE", "lat": 50.0752883, "lon": 12.3544316, "city": null, "public_private": null }, "geometry": { "type": "Point", "coordinates": [ 12.354431600000055, 50.075288300000068 ] } },
{ "type": "Feature", "properties": { "OBJECTID": 309447, "Shape": null, "id": "CZ_600066339", "name": "ZÁKLADNÍ ŠKOLA AŠ, KAMENNÁ 152, OKRES CHEB", "lat": 50.22209215, "lon": 12.19143049, "city": null, "public_private": null }, "geometry": { "type": "Point", "coordinates": [ 12.191430490000073, 50.222092150000037 ] } },
{ "type": "Feature", "properties": { "OBJECTID": 309448, "Shape": null, "id": "CZ_600065847", "name": "MATEŘSKÁ ŠKOLA CHEB, KOMENSKÉHO 27, PŘÍSPĚVKOVÁ ORGANIZACE", "lat": 50.0793031, "lon": 12.3727678, "city": null, "public_private": null }, "geometry": { "type": "Point", "coordinates": [ 12.372767800000076, 50.079303100000061 ] } },
{ "type": "Feature", "properties": { "OBJECTID": 309449, "Shape": null, "id": "CZ_600066410", "name": "ZÁKLADNÍ ŠKOLA LUBY, OKRES CHEB, PŘÍSPĚVKOVÁ ORGANIZACE", "lat": 50.2558635, "lon": 12.404324, "city": null, "public_private": null }, "geometry": { "type": "Point", "coordinates": [ 12.404324, 50.255863500000032 ] } },
{ "type": "Feature", "properties": { "OBJECTID": 309450, "Shape": null, "id": "CZ_600092062", "name": "MATEŘSKÁ ŠKOLA POD LIPOU, HOŘICE", "lat": 50.3680713, "lon": 15.6345613, "city": null, "public_private": null }, "geometry": { "type": "Point", "coordinates": [ 15.63456130000003, 50.368071300000054 ] } },
{ "type": "Feature", "properties": { "OBJECTID": 309451, "Shape": null, "id": "CZ_600066452", "name": "ZÁKLADNÍ ŠKOLA SKALNÁ, PŘÍSPĚVKOVÁ ORGANIZACE", "lat": 50.1729296, "lon": 12.3606881, "city": null, "public_private": null }, "geometry": { "type": "Point", "coordinates": [ 12.360688100000061, 50.172929600000032 ] } },
{ "type": "Feature", "properties": { "OBJECTID": 309452, "Shape": null, "id": "CZ_600066479", "name": "ZÁKLADNÍ ŠKOLA VELKÁ HLEĎSEBE, OKRES CHEB, PŘÍSPĚVKOVÁ ORGANIZACE", "lat": 49.96229065, "lon": 12.6658211, "city": null, "public_private": null }, "geometry": { "type": "Point", "coordinates": [ 12.665821100000073, 49.962290650000057 ] } },
{ "type": "Feature", "properties": { "OBJECTID": 309453, "Shape": null, "id": "CZ_600066525", "name": "ZÁKLADNÍ ŠKOLA A MATEŘSKÁ ŠKOLA PLESNÁ, PŘÍSPĚVKOVÁ ORGANIZACE", "lat": 50.2221557, "lon": 12.348268, "city": null, "public_private": null }, "geometry": { "type": "Point", "coordinates": [ 12.348268, 50.22215570000003 ] } },
{ "type": "Feature", "properties": { "OBJECTID": 309454, "Shape": null, "id": "CZ_600066533", "name": "ZÁKLADNÍ UMĚLECKÁ ŠKOLA JINDŘICHA JINDŘICHA CHEB, ŽIDOVSKÁ 8, PŘÍSPĚVKOVÁ ORGANIZACE", "lat": 50.0793655, "lon": 12.3685183, "city": null, "public_private": null }, "geometry": { "type": "Point", "coordinates": [ 12.368518300000062, 50.079365500000051 ] } },
{ "type": "Feature", "properties": { "OBJECTID": 309455, "Shape": null, "id": "CZ_600066568", "name": "ZÁKLADNÍ UMĚLECKÁ ŠKOLA LUBY, OKRES CHEB, PŘÍSPĚVKOVÁ ORGANIZACE", "lat": 50.2553308, "lon": 12.4041538, "city": null, "public_private": null }, "geometry": { "type": "Point", "coordinates": [ 12.404153800000074, 50.255330800000081 ] } },
{ "type": "Feature", "properties": { "OBJECTID": 309456, "Shape": null, "id": "CZ_600066576", "name": "ZÁKLADNÍ UMĚLECKÁ ŠKOLA JÁRY CIMRMANA FRANTIŠKOVY LÁZNĚ", "lat": 50.1243659, "lon": 12.3504904, "city": null, "public_private": null }, "geometry": { "type": "Point", "coordinates": [ 12.350490400000069, 50.124365900000043 ] } },