{
"type": "FeatureCollection",
"name": "EU_education13",
"crs": { "type": "name", "properties": { "name": "urn:ogc:def:crs:OGC:1.3:CRS84" } },
"features": [
{ "type": "Feature", "properties": { "OBJECTID": 148393, "Shape": null, "id": "IT_PSAA80304V", "name": "MERCATINO-MONTECERIGNONE CAP.GO", "lat": 43.84065, "lon": 12.4124, "city": "MONTE CERIGNONE", "public_private": "PUBLIC" }, "geometry": { "type": "Point", "coordinates": [ 12.4124, 43.84065 ] } },
{ "type": "Feature", "properties": { "OBJECTID": 148394, "Shape": null, "id": "IT_PGEE03600Q", "name": "D.D. 1 CIRC.GUBBIO \"MATTEOTTI\"", "lat": 43.34887, "lon": 12.5769, "city": "GUBBIO", "public_private": "PUBLIC" }, "geometry": { "type": "Point", "coordinates": [ 12.5769, 43.34887 ] } },
{ "type": "Feature", "properties": { "OBJECTID": 148395, "Shape": null, "id": "IT_FIMM825016", "name": "BOCCACCIO", "lat": 43.5451234, "lon": 11.0425759, "city": "CERTALDO", "public_private": "PUBLIC" }, "geometry": { "type": "Point", "coordinates": [ 11.042575900000031, 43.54512340000008 ] } },
{ "type": "Feature", "properties": { "OBJECTID": 148396, "Shape": null, "id": "IT_CAMM839021", "name": "V. ANGIUS (SERRENTI)", "lat": 39.49195, "lon": 8.97523, "city": "SERRENTI", "public_private": "PUBLIC" }, "geometry": { "type": "Point", "coordinates": [ 8.97523, 39.49195 ] } },
{ "type": "Feature", "properties": { "OBJECTID": 148397, "Shape": null, "id": "IT_VIMM85201R", "name": "SMS VALDASTICO", "lat": 45.88818, "lon": 11.35926, "city": "VALDASTICO", "public_private": "PUBLIC" }, "geometry": { "type": "Point", "coordinates": [ 11.35926, 45.88818 ] } },
{ "type": "Feature", "properties": { "OBJECTID": 148398, "Shape": null, "id": "IT_FGMM86501X", "name": "MOZZILLO IACCARINO", "lat": 41.63361, "lon": 15.92536, "city": "MANFREDONIA", "public_private": "PUBLIC" }, "geometry": { "type": "Point", "coordinates": [ 15.92536, 41.63361 ] } },
{ "type": "Feature", "properties": { "OBJECTID": 148399, "Shape": null, "id": "IT_SAAA10202V", "name": "CORSO ETTORE PADOVANO", "lat": 40.7413414, "lon": 14.6165215, "city": "PAGANI", "public_private": "PUBLIC" }, "geometry": { "type": "Point", "coordinates": [ 14.616521500000033, 40.741341400000067 ] } },
{ "type": "Feature", "properties": { "OBJECTID": 148400, "Shape": null, "id": "IT_NAEE8G604B", "name": "NA IC BARACCA - VITT. EMANUELE", "lat": 40.83899, "lon": 14.23873, "city": "NAPOLI", "public_private": "PUBLIC" }, "geometry": { "type": "Point", "coordinates": [ 14.23873, 40.83899 ] } },
{ "type": "Feature", "properties": { "OBJECTID": 148401, "Shape": null, "id": "IT_BAMM804014", "name": "SC.SECONDARIA I-I.C.\"N.RONCHI\"", "lat": 41.01212, "lon": 16.92703, "city": "CELLAMARE", "public_private": "PUBLIC" }, "geometry": { "type": "Point", "coordinates": [ 16.92703, 41.01212 ] } },
{ "type": "Feature", "properties": { "OBJECTID": 148402, "Shape": null, "id": "IT_FIEE86601D", "name": "VILLA SAN LORENZO", "lat": 43.8333953, "lon": 11.1918262, "city": "SESTO FIORENTINO", "public_private": "PUBLIC" }, "geometry": { "type": "Point", "coordinates": [ 11.191826200000037, 43.833395300000063 ] } },
{ "type": "Feature", "properties": { "OBJECTID": 148403, "Shape": null, "id": "IT_ATEE81510T", "name": "SCUOLA PRIMARIA DI BUBBIO", "lat": 44.66361, "lon": 8.29505, "city": "BUBBIO", "public_private": "PUBLIC" }, "geometry": { "type": "Point", "coordinates": [ 8.29505, 44.66361 ] } },
{ "type": "Feature", "properties": { "OBJECTID": 148404, "Shape": null, "id": "IT_PSEE80901X", "name": "SASSOCORVARO - CAP.GO", "lat": 43.7979399, "lon": 12.5697712, "city": "SASSOCORVARO AUDITORE", "public_private": "PUBLIC" }, "geometry": { "type": "Point", "coordinates": [ 12.569771200000048, 43.797939900000074 ] } },
{ "type": "Feature", "properties": { "OBJECTID": 148405, "Shape": null, "id": "IT_MIIC8EK004", "name": "I.C. KAROL WOJTYLA", "lat": 45.57567, "lon": 9.07285, "city": "GARBAGNATE MILANESE", "public_private": "PUBLIC" }, "geometry": { "type": "Point", "coordinates": [ 9.07285, 45.57567 ] } },
{ "type": "Feature", "properties": { "OBJECTID": 148406, "Shape": null, "id": "IT_ANAA82902P", "name": "ARCOBALENO", "lat": 43.51748, "lon": 13.23621, "city": "JESI", "public_private": "PUBLIC" }, "geometry": { "type": "Point", "coordinates": [ 13.23621, 43.51748 ] } },
{ "type": "Feature", "properties": { "OBJECTID": 148407, "Shape": null, "id": "IT_BSTD012012", "name": "MONTICHIARI (SEZ.ASS.I.S.\"DON MILANI\")", "lat": 45.4162091, "lon": 10.3862421, "city": "MONTICHIARI", "public_private": "PUBLIC" }, "geometry": { "type": "Point", "coordinates": [ 10.386242100000061, 45.41620910000006 ] } },
{ "type": "Feature", "properties": { "OBJECTID": 148408, "Shape": null, "id": "IT_PVEE82606L", "name": "CORANA", "lat": 45.06191, "lon": 8.96956, "city": "CORANA", "public_private": "PUBLIC" }, "geometry": { "type": "Point", "coordinates": [ 8.96956, 45.06191 ] } },
{ "type": "Feature", "properties": { "OBJECTID": 148409, "Shape": null, "id": "IT_TOAA885018", "name": "IC. MONCALIERI- SANTA M. RODARI", "lat": 44.99351, "lon": 7.66402, "city": "MONCALIERI", "public_private": "PUBLIC" }, "geometry": { "type": "Point", "coordinates": [ 7.66402, 44.99351 ] } },
{ "type": "Feature", "properties": { "OBJECTID": 148410, "Shape": null, "id": "IT_RMCT711007", "name": "C.T.P. 12 C/O I.C. VIA BARBARANELLI", "lat": 42.0945017, "lon": 11.8052014, "city": "CIVITAVECCHIA", "public_private": "PUBLIC" }, "geometry": { "type": "Point", "coordinates": [ 11.805201400000044, 42.09450170000008 ] } },
{ "type": "Feature", "properties": { "OBJECTID": 148411, "Shape": null, "id": "IT_GOEE806017", "name": "C. COLLODI", "lat": 45.86357, "lon": 13.48583, "city": "FOGLIANO REDIPUGLIA", "public_private": "PUBLIC" }, "geometry": { "type": "Point", "coordinates": [ 13.48583, 45.86357 ] } },
{ "type": "Feature", "properties": { "OBJECTID": 148412, "Shape": null, "id": "IT_MIEE8DZ02B", "name": "PRIMARIA TRE CASTELLI", "lat": 45.43909, "lon": 9.13753, "city": "MILANO", "public_private": "PUBLIC" }, "geometry": { "type": "Point", "coordinates": [ 9.13753, 45.43909 ] } },
{ "type": "Feature", "properties": { "OBJECTID": 148413, "Shape": null, "id": "IT_LUEE81804P", "name": "MARIO TOBINO", "lat": 43.86158, "lon": 10.25958, "city": "VIAREGGIO", "public_private": "PUBLIC" }, "geometry": { "type": "Point", "coordinates": [ 10.25958, 43.86158 ] } },
{ "type": "Feature", "properties": { "OBJECTID": 148414, "Shape": null, "id": "IT_RCRC026025", "name": "IPSCT SEZ. ASS. I.I.S. BOCCIONI/FERMI", "lat": 38.08963, "lon": 15.64207, "city": "REGGIO DI CALABRIA", "public_private": "PUBLIC" }, "geometry": { "type": "Point", "coordinates": [ 15.64207, 38.08963 ] } },
{ "type": "Feature", "properties": { "OBJECTID": 148415, "Shape": null, "id": "IT_LIAA82802G", "name": "\"G.RODARI\"", "lat": 42.93145, "lon": 10.51933, "city": "PIOMBINO", "public_private": "PUBLIC" }, "geometry": { "type": "Point", "coordinates": [ 10.51933, 42.93145 ] } },
{ "type": "Feature", "properties": { "OBJECTID": 148416, "Shape": null, "id": "IT_CZMM813037", "name": "SMS DECOLLATURA IC SERRASTRETTA", "lat": 39.04975, "lon": 16.35223, "city": "DECOLLATURA", "public_private": "PUBLIC" }, "geometry": { "type": "Point", "coordinates": [ 16.35223, 39.04975 ] } },
{ "type": "Feature", "properties": { "OBJECTID": 148417, "Shape": null, "id": "IT_VCIC81300L", "name": "I.C. PADRE BARANZANO SERRAVALLE", "lat": 45.68608, "lon": 8.31209, "city": "SERRAVALLE SESIA", "public_private": "PUBLIC" }, "geometry": { "type": "Point", "coordinates": [ 8.31209, 45.68608 ] } },
{ "type": "Feature", "properties": { "OBJECTID": 148418, "Shape": null, "id": "IT_TESL01201L", "name": "LICEO ARTISTICO MONTAUTI", "lat": 42.65732, "lon": 13.69349, "city": "TERAMO", "public_private": "PUBLIC" }, "geometry": { "type": "Point", "coordinates": [ 13.69349, 42.65732 ] } },
{ "type": "Feature", "properties": { "OBJECTID": 148419, "Shape": null, "id": "IT_TOEE80605L", "name": "I.C. VISTRORIO RUEGLIO", "lat": 45.46792, "lon": 7.75573, "city": "RUEGLIO", "public_private": "PUBLIC" }, "geometry": { "type": "Point", "coordinates": [ 7.75573, 45.46792 ] } },
{ "type": "Feature", "properties": { "OBJECTID": 148420, "Shape": null, "id": "IT_CREE825037", "name": "\"A. MORSENTI\" (CAPERGNANICA)", "lat": 45.33931, "lon": 9.64388, "city": "CAPERGNANICA", "public_private": "PUBLIC" }, "geometry": { "type": "Point", "coordinates": [ 9.64388, 45.33931 ] } },
{ "type": "Feature", "properties": { "OBJECTID": 148421, "Shape": null, "id": "IT_PDMM83001E", "name": "G. TARTINI XIII I.C.", "lat": 45.40934, "lon": 11.84015, "city": "PADOVA", "public_private": "PUBLIC" }, "geometry": { "type": "Point", "coordinates": [ 11.84015, 45.40934 ] } },
{ "type": "Feature", "properties": { "OBJECTID": 148422, "Shape": null, "id": "IT_CSEE829054", "name": "LAINO - PAPASIDERO CENTRO", "lat": 39.87248, "lon": 15.91078, "city": "PAPASIDERO", "public_private": "PUBLIC" }, "geometry": { "type": "Point", "coordinates": [ 15.91078, 39.87248 ] } },
{ "type": "Feature", "properties": { "OBJECTID": 148423, "Shape": null, "id": "IT_CEIC8AJ00D", "name": "I.C. PIEDIMONTE MAT 2 -CASTELLO", "lat": 41.3534429, "lon": 14.3720561, "city": "PIEDIMONTE MATESE", "public_private": "PUBLIC" }, "geometry": { "type": "Point", "coordinates": [ 14.372056100000066, 41.353442900000061 ] } },
{ "type": "Feature", "properties": { "OBJECTID": 148424, "Shape": null, "id": "IT_PACT703006", "name": "C.T. IGNAZIO FLORIO", "lat": 38.16192, "lon": 13.32907, "city": "PALERMO", "public_private": "PUBLIC" }, "geometry": { "type": "Point", "coordinates": [ 13.32907, 38.16192 ] } },
{ "type": "Feature", "properties": { "OBJECTID": 148425, "Shape": null, "id": "IT_VBRI003017", "name": "IPSIA \"GALLETTI\"", "lat": 46.12131, "lon": 8.28867, "city": "DOMODOSSOLA", "public_private": "PUBLIC" }, "geometry": { "type": "Point", "coordinates": [ 8.28867, 46.12131 ] } },
{ "type": "Feature", "properties": { "OBJECTID": 148426, "Shape": null, "id": "IT_POEE81401R", "name": "GANDHI", "lat": 43.88498, "lon": 11.05434, "city": "PRATO", "public_private": "PUBLIC" }, "geometry": { "type": "Point", "coordinates": [ 11.05434, 43.88498 ] } },
{ "type": "Feature", "properties": { "OBJECTID": 148427, "Shape": null, "id": "IT_CEAA88702L", "name": "SCUOLA MATERNASTATALE", "lat": 41.16598, "lon": 13.9477, "city": "FALCIANO DEL MASSICO", "public_private": "PUBLIC" }, "geometry": { "type": "Point", "coordinates": [ 13.9477, 41.16598 ] } },
{ "type": "Feature", "properties": { "OBJECTID": 148428, "Shape": null, "id": "IT_MIAA8AU019", "name": "INFANZIA RODARI", "lat": 45.5345372, "lon": 9.2865015, "city": "COLOGNO MONZESE", "public_private": "PUBLIC" }, "geometry": { "type": "Point", "coordinates": [ 9.286501500000043, 45.534537200000045 ] } },
{ "type": "Feature", "properties": { "OBJECTID": 148429, "Shape": null, "id": "IT_AVIC84600G", "name": "I.C. BENEDETTO CROCE", "lat": 40.87768, "lon": 14.63504, "city": "LAURO", "public_private": "PUBLIC" }, "geometry": { "type": "Point", "coordinates": [ 14.63504, 40.87768 ] } },
{ "type": "Feature", "properties": { "OBJECTID": 148430, "Shape": null, "id": "IT_NUMM860041", "name": "PERDASDEFOGU", "lat": 39.67825, "lon": 9.44273, "city": "PERDASDEFOGU", "public_private": "PUBLIC" }, "geometry": { "type": "Point", "coordinates": [ 9.44273, 39.67825 ] } },
{ "type": "Feature", "properties": { "OBJECTID": 148431, "Shape": null, "id": "IT_FGMM88101T", "name": "FILIPPO CELOZZI", "lat": 41.6929151, "lon": 15.2932513, "city": "TORREMAGGIORE", "public_private": "PUBLIC" }, "geometry": { "type": "Point", "coordinates": [ 15.293251300000065, 41.69291510000005 ] } },
{ "type": "Feature", "properties": { "OBJECTID": 148432, "Shape": null, "id": "IT_LTMM838018", "name": "A.VOLPI", "lat": 41.58769, "lon": 12.83174, "city": "CISTERNA DI LATINA", "public_private": "PUBLIC" }, "geometry": { "type": "Point", "coordinates": [ 12.83174, 41.58769 ] } },
{ "type": "Feature", "properties": { "OBJECTID": 148433, "Shape": null, "id": "IT_PVEE82103A", "name": "REDAVALLE R. PANIS", "lat": 45.0376152, "lon": 9.2041789, "city": "REDAVALLE", "public_private": "PUBLIC" }, "geometry": { "type": "Point", "coordinates": [ 9.204178900000045, 45.037615200000062 ] } },
{ "type": "Feature", "properties": { "OBJECTID": 148434, "Shape": null, "id": "IT_VRPM00801N", "name": "GUARINO VERONESE", "lat": 45.3963328, "lon": 11.2726299, "city": "SAN BONIFACIO", "public_private": "PUBLIC" }, "geometry": { "type": "Point", "coordinates": [ 11.272629900000027, 45.396332800000039 ] } },
{ "type": "Feature", "properties": { "OBJECTID": 148435, "Shape": null, "id": "IT_CLAA02401P", "name": "VIA R. LAMBRUSCHINI", "lat": 37.4921406, "lon": 13.9892474, "city": "SAN CATALDO", "public_private": "PUBLIC" }, "geometry": { "type": "Point", "coordinates": [ 13.989247400000068, 37.492140600000027 ] } },
{ "type": "Feature", "properties": { "OBJECTID": 148436, "Shape": null, "id": "IT_VVTF04000P", "name": "ITIS \"A.RUSSO\"", "lat": 38.55379, "lon": 15.93627, "city": "NICOTERA", "public_private": "PUBLIC" }, "geometry": { "type": "Point", "coordinates": [ 15.93627, 38.55379 ] } },
{ "type": "Feature", "properties": { "OBJECTID": 148437, "Shape": null, "id": "IT_CNEE85704X", "name": "CUNEO-FRAZ.S.ROCCO CASTAGNARETT", "lat": 44.36673, "lon": 7.52318, "city": "CUNEO", "public_private": "PUBLIC" }, "geometry": { "type": "Point", "coordinates": [ 7.52318, 44.36673 ] } },
{ "type": "Feature", "properties": { "OBJECTID": 148438, "Shape": null, "id": "IT_CZAA82902G", "name": "MAIDA - VENA - I.C.", "lat": 38.888759, "lon": 16.4071608, "city": "MAIDA", "public_private": "PUBLIC" }, "geometry": { "type": "Point", "coordinates": [ 16.407160800000042, 38.888759 ] } },
{ "type": "Feature", "properties": { "OBJECTID": 148439, "Shape": null, "id": "IT_BOMM840027", "name": "DON MILANI", "lat": 44.3067636, "lon": 11.1617642, "city": "GRIZZANA MORANDI", "public_private": "PUBLIC" }, "geometry": { "type": "Point", "coordinates": [ 11.16176420000005, 44.306763600000068 ] } },
{ "type": "Feature", "properties": { "OBJECTID": 148440, "Shape": null, "id": "IT_VEAA838013", "name": "LORIS MALAGUZZI", "lat": 45.51887, "lon": 12.10352, "city": "MARTELLAGO", "public_private": "PUBLIC" }, "geometry": { "type": "Point", "coordinates": [ 12.10352, 45.51887 ] } },
{ "type": "Feature", "properties": { "OBJECTID": 148441, "Shape": null, "id": "IT_VREE88902T", "name": "\"RUBELE B.\"", "lat": 45.44458, "lon": 11.00403, "city": "VERONA", "public_private": "PUBLIC" }, "geometry": { "type": "Point", "coordinates": [ 11.00403, 45.44458 ] } },
{ "type": "Feature", "properties": { "OBJECTID": 148442, "Shape": null, "id": "IT_FIAA870065", "name": "FOSSATO MARGHERITA HACK", "lat": 43.7815442, "lon": 11.4459302, "city": "PONTASSIEVE", "public_private": "PUBLIC" }, "geometry": { "type": "Point", "coordinates": [ 11.445930200000021, 43.781544200000042 ] } },
{ "type": "Feature", "properties": { "OBJECTID": 148443, "Shape": null, "id": "IT_PVIC81700E", "name": "IC MORTARA", "lat": 45.25291, "lon": 8.74316, "city": "MORTARA", "public_private": "PUBLIC" }, "geometry": { "type": "Point", "coordinates": [ 8.74316, 45.25291 ] } },
{ "type": "Feature", "properties": { "OBJECTID": 148444, "Shape": null, "id": "IT_TPEE83803X", "name": "SCUOLA PRIMARIA \"7 GIUGNO 81\"", "lat": 37.68052, "lon": 12.60281, "city": "MAZARA DEL VALLO", "public_private": "PUBLIC" }, "geometry": { "type": "Point", "coordinates": [ 12.60281, 37.68052 ] } },
{ "type": "Feature", "properties": { "OBJECTID": 148445, "Shape": null, "id": "IT_CAIC86200X", "name": "ISTITUTO COMPRENSIVO SU PLANU", "lat": 39.25245, "lon": 9.10698, "city": "SELARGIUS", "public_private": "PUBLIC" }, "geometry": { "type": "Point", "coordinates": [ 9.10698, 39.25245 ] } },
{ "type": "Feature", "properties": { "OBJECTID": 148446, "Shape": null, "id": "IT_CHAA812053", "name": "TREGLIO INFANZIA", "lat": 42.26577, "lon": 14.42363, "city": "TREGLIO", "public_private": "PUBLIC" }, "geometry": { "type": "Point", "coordinates": [ 14.42363, 42.26577 ] } },
{ "type": "Feature", "properties": { "OBJECTID": 148447, "Shape": null, "id": "IT_FOAA80801D", "name": "TERRA DEL SOLE GIANNI RODARI", "lat": 44.1779731, "lon": 11.949698, "city": "CASTROCARO TERME E TERRA DEL S", "public_private": "PUBLIC" }, "geometry": { "type": "Point", "coordinates": [ 11.949698, 44.177973100000031 ] } },
{ "type": "Feature", "properties": { "OBJECTID": 148448, "Shape": null, "id": "IT_CNEE85101T", "name": "SAVIGLIANO \"SANTORRE SANTAROSA\"", "lat": 44.64760295, "lon": 7.657490568, "city": "SAVIGLIANO", "public_private": "PUBLIC" }, "geometry": { "type": "Point", "coordinates": [ 7.657490568000071, 44.647602950000078 ] } },
{ "type": "Feature", "properties": { "OBJECTID": 148449, "Shape": null, "id": "IT_PSAA80301Q", "name": "MERCATINO CONCA", "lat": 43.86994, "lon": 12.49062, "city": "MERCATINO CONCA", "public_private": "PUBLIC" }, "geometry": { "type": "Point", "coordinates": [ 12.49062, 43.86994 ] } },
{ "type": "Feature", "properties": { "OBJECTID": 148450, "Shape": null, "id": "IT_RMAA87402B", "name": "VIA GIUSTINIANI18", "lat": 42.14886, "lon": 12.60039, "city": "FIANO ROMANO", "public_private": "PUBLIC" }, "geometry": { "type": "Point", "coordinates": [ 12.60039, 42.14886 ] } },
{ "type": "Feature", "properties": { "OBJECTID": 148451, "Shape": null, "id": "IT_RCAA812054", "name": "SCUOLA DELL'INFANZIAVIA MAZZINI", "lat": 38.00114, "lon": 15.69288, "city": "MOTTA SAN GIOVANNI", "public_private": "PUBLIC" }, "geometry": { "type": "Point", "coordinates": [ 15.69288, 38.00114 ] } },
{ "type": "Feature", "properties": { "OBJECTID": 148452, "Shape": null, "id": "IT_PDPS00302R", "name": "L.S. MATTEI (S.A. IS MONSELICE-CONSELVE)", "lat": 45.23664, "lon": 11.87392, "city": "CONSELVE", "public_private": "PUBLIC" }, "geometry": { "type": "Point", "coordinates": [ 11.87392, 45.23664 ] } },
{ "type": "Feature", "properties": { "OBJECTID": 148453, "Shape": null, "id": "IT_TOAA8AU05A", "name": "SERRA PAOLINA VED. MARONE", "lat": 44.98014, "lon": 7.87417, "city": "RIVA PRESSO CHIERI", "public_private": "PUBLIC" }, "geometry": { "type": "Point", "coordinates": [ 7.87417, 44.98014 ] } },
{ "type": "Feature", "properties": { "OBJECTID": 148454, "Shape": null, "id": "IT_TPEE83304T", "name": "2' PLESSO \"GIOVANNI XXIII\"", "lat": 37.982985, "lon": 12.5613318, "city": "PACECO", "public_private": "PUBLIC" }, "geometry": { "type": "Point", "coordinates": [ 12.561331800000062, 37.982985 ] } },
{ "type": "Feature", "properties": { "OBJECTID": 148455, "Shape": null, "id": "IT_SITF05000T", "name": "ISTITUTO DI ISTRUZIONE SUP. \"AVOGADRO\"", "lat": 42.8793, "lon": 11.67179, "city": "ABBADIA SAN SALVATORE", "public_private": "PUBLIC" }, "geometry": { "type": "Point", "coordinates": [ 11.67179, 42.8793 ] } },
{ "type": "Feature", "properties": { "OBJECTID": 148456, "Shape": null, "id": "IT_NAEE8F804C", "name": "NA IC AMMATURO - S. FRANCESCO", "lat": 40.87526, "lon": 14.27625, "city": "NAPOLI", "public_private": "PUBLIC" }, "geometry": { "type": "Point", "coordinates": [ 14.27625, 40.87526 ] } },
{ "type": "Feature", "properties": { "OBJECTID": 148457, "Shape": null, "id": "IT_CHIS019001", "name": "IIS \"DE TITTA - FERMI\" - LANCIANO", "lat": 42.22676, "lon": 14.38578, "city": "LANCIANO", "public_private": "PUBLIC" }, "geometry": { "type": "Point", "coordinates": [ 14.38578, 42.22676 ] } },
{ "type": "Feature", "properties": { "OBJECTID": 148458, "Shape": null, "id": "IT_PSEE831059", "name": "TERRE ROVERESCHE-S.GIORGIO-PIAG", "lat": 43.71722, "lon": 12.97655, "city": "TERRE ROVERESCHE", "public_private": "PUBLIC" }, "geometry": { "type": "Point", "coordinates": [ 12.97655, 43.71722 ] } },
{ "type": "Feature", "properties": { "OBJECTID": 148459, "Shape": null, "id": "IT_VAMM82501P", "name": "D. ZURETTI - MESENZANA -", "lat": 45.94776, "lon": 8.76648, "city": "MESENZANA", "public_private": "PUBLIC" }, "geometry": { "type": "Point", "coordinates": [ 8.76648, 45.94776 ] } },
{ "type": "Feature", "properties": { "OBJECTID": 148460, "Shape": null, "id": "IT_PSEE81702X", "name": "PS PIRANDELLO - G.RODARI", "lat": 43.8944545, "lon": 12.9027434, "city": "PESARO", "public_private": "PUBLIC" }, "geometry": { "type": "Point", "coordinates": [ 12.902743400000077, 43.894454500000052 ] } },
{ "type": "Feature", "properties": { "OBJECTID": 148461, "Shape": null, "id": "IT_VEAA85601L", "name": "VIA MENEGHETTI", "lat": 45.48882, "lon": 12.10376, "city": "MIRANO", "public_private": "PUBLIC" }, "geometry": { "type": "Point", "coordinates": [ 12.10376, 45.48882 ] } },
{ "type": "Feature", "properties": { "OBJECTID": 148462, "Shape": null, "id": "IT_AGAA83204B", "name": "VIA GENUARDI", "lat": 37.4096135, "lon": 13.6462343, "city": "COMITINI", "public_private": "PUBLIC" }, "geometry": { "type": "Point", "coordinates": [ 13.64623430000006, 37.409613500000034 ] } },
{ "type": "Feature", "properties": { "OBJECTID": 148463, "Shape": null, "id": "IT_BARI04201N", "name": "IPSIA \"A. BANTI\" - GIOVINAZZO", "lat": 41.18393, "lon": 16.66981, "city": "GIOVINAZZO", "public_private": "PUBLIC" }, "geometry": { "type": "Point", "coordinates": [ 16.66981, 41.18393 ] } },
{ "type": "Feature", "properties": { "OBJECTID": 148464, "Shape": null, "id": "IT_NAPC33000T", "name": "L.CL.-G.CARDUCCI-NOLA-", "lat": 40.92664, "lon": 14.53646, "city": "NOLA", "public_private": "PUBLIC" }, "geometry": { "type": "Point", "coordinates": [ 14.53646, 40.92664 ] } },
{ "type": "Feature", "properties": { "OBJECTID": 148465, "Shape": null, "id": "IT_RCMM855012", "name": "CAMINITI (VILLA SAN GIOVANNI)", "lat": 38.2194081, "lon": 15.6353476, "city": "VILLA SAN GIOVANNI", "public_private": "PUBLIC" }, "geometry": { "type": "Point", "coordinates": [ 15.635347600000046, 38.219408100000066 ] } },
{ "type": "Feature", "properties": { "OBJECTID": 148466, "Shape": null, "id": "IT_RMMM8F601G", "name": "TIVOLI \"EMILIO SEGRE'\"", "lat": 41.9544295, "lon": 12.7936795, "city": "TIVOLI", "public_private": "PUBLIC" }, "geometry": { "type": "Point", "coordinates": [ 12.793679500000053, 41.95442950000006 ] } },
{ "type": "Feature", "properties": { "OBJECTID": 148467, "Shape": null, "id": "IT_TOMM85401R", "name": "I.C. VEROLENGO - DON G. CASA", "lat": 43.9921269, "lon": 12.6178507, "city": "VEROLENGO", "public_private": "PUBLIC" }, "geometry": { "type": "Point", "coordinates": [ 12.617850700000076, 43.992126900000073 ] } },
{ "type": "Feature", "properties": { "OBJECTID": 148468, "Shape": null, "id": "IT_TPAA81806L", "name": "SCUOLA INFANZIA \"MONTESSORI\"", "lat": 37.5659272, "lon": 12.66208166, "city": "CAMPOBELLO DI MAZARA", "public_private": "PUBLIC" }, "geometry": { "type": "Point", "coordinates": [ 12.662081660000069, 37.565927200000033 ] } },
{ "type": "Feature", "properties": { "OBJECTID": 148469, "Shape": null, "id": "IT_VEAA825044", "name": "ALICE GUARDA IL MONDO", "lat": 45.7521065, "lon": 12.7098699, "city": "ANNONE VENETO", "public_private": "PUBLIC" }, "geometry": { "type": "Point", "coordinates": [ 12.709869900000058, 45.752106500000025 ] } },
{ "type": "Feature", "properties": { "OBJECTID": 148470, "Shape": null, "id": "IT_CTIC8AZ00A", "name": "II IST. COMPRENSIVO \"S.G.BOSCO\"", "lat": 37.72707, "lon": 15.19102, "city": "GIARRE", "public_private": "PUBLIC" }, "geometry": { "type": "Point", "coordinates": [ 15.19102, 37.72707 ] } },
{ "type": "Feature", "properties": { "OBJECTID": 148471, "Shape": null, "id": "IT_TVEE88001P", "name": "ALBINO LUCIANI - GORGO CAP.", "lat": 45.7698073, "lon": 12.56804822, "city": "GORGO AL MONTICANO", "public_private": "PUBLIC" }, "geometry": { "type": "Point", "coordinates": [ 12.568048220000037, 45.769807300000025 ] } },
{ "type": "Feature", "properties": { "OBJECTID": 148472, "Shape": null, "id": "IT_MISL020003", "name": "LICEO ARTISTICO - CARAVAGGIO", "lat": 45.499, "lon": 9.23307, "city": "MILANO", "public_private": "PUBLIC" }, "geometry": { "type": "Point", "coordinates": [ 9.23307, 45.499 ] } },
{ "type": "Feature", "properties": { "OBJECTID": 148473, "Shape": null, "id": "IT_ORAA81802Q", "name": "PAULILATINO", "lat": 40.05164, "lon": 8.63803, "city": "PAULILATINO", "public_private": "PUBLIC" }, "geometry": { "type": "Point", "coordinates": [ 8.63803, 40.05164 ] } },
{ "type": "Feature", "properties": { "OBJECTID": 148474, "Shape": null, "id": "IT_FOPS010028", "name": "L.SCIENTIFICO \"RIGHI\" BAGNO DI ROMAGNA", "lat": 43.83588, "lon": 11.96002, "city": "BAGNO DI ROMAGNA", "public_private": "PUBLIC" }, "geometry": { "type": "Point", "coordinates": [ 11.96002, 43.83588 ] } },
{ "type": "Feature", "properties": { "OBJECTID": 148475, "Shape": null, "id": "IT_TRRI006019", "name": "AMELIA", "lat": 42.55717, "lon": 12.4134, "city": "AMELIA", "public_private": "PUBLIC" }, "geometry": { "type": "Point", "coordinates": [ 12.4134, 42.55717 ] } },
{ "type": "Feature", "properties": { "OBJECTID": 148476, "Shape": null, "id": "IT_CEPM01801X", "name": "TADDEO DA SESSA", "lat": 41.22823, "lon": 13.92405, "city": "SESSA AURUNCA", "public_private": "PUBLIC" }, "geometry": { "type": "Point", "coordinates": [ 13.92405, 41.22823 ] } },
{ "type": "Feature", "properties": { "OBJECTID": 148477, "Shape": null, "id": "IT_TREE817034", "name": "ALLERONA SCALO (I.C. ALLERONA)", "lat": 42.7863287, "lon": 12.0425876, "city": "ALLERONA", "public_private": "PUBLIC" }, "geometry": { "type": "Point", "coordinates": [ 12.042587600000047, 42.78632870000007 ] } },
{ "type": "Feature", "properties": { "OBJECTID": 148478, "Shape": null, "id": "IT_CZMM873051", "name": "SMS MAGISANO -I.C. TAVERNA", "lat": 41.9846263, "lon": 12.4065017, "city": "MAGISANO", "public_private": "PUBLIC" }, "geometry": { "type": "Point", "coordinates": [ 12.406501700000035, 41.984626300000059 ] } },
{ "type": "Feature", "properties": { "OBJECTID": 148479, "Shape": null, "id": "IT_AGAA82802N", "name": "VIA EDISON", "lat": 37.2615218, "lon": 13.917627, "city": "CAMPOBELLO DI LICATA", "public_private": "PUBLIC" }, "geometry": { "type": "Point", "coordinates": [ 13.917627, 37.261521800000025 ] } },
{ "type": "Feature", "properties": { "OBJECTID": 148480, "Shape": null, "id": "IT_BSAA85502B", "name": "\"GIANBURRASCA\" MAGNO", "lat": 45.7025827, "lon": 10.1956597, "city": "GARDONE VAL TROMPIA", "public_private": "PUBLIC" }, "geometry": { "type": "Point", "coordinates": [ 10.195659700000022, 45.70258270000005 ] } },
{ "type": "Feature", "properties": { "OBJECTID": 148481, "Shape": null, "id": "IT_NUMM86001T", "name": "ULASSAI", "lat": 39.81127, "lon": 9.50004, "city": "ULASSAI", "public_private": "PUBLIC" }, "geometry": { "type": "Point", "coordinates": [ 9.50004, 39.81127 ] } },
{ "type": "Feature", "properties": { "OBJECTID": 148482, "Shape": null, "id": "IT_MECT70900B", "name": "CPIA MESSINA P.E. FONDACHELLI FANTINA", "lat": 37.9859989, "lon": 15.1724744, "city": "NOVARA DI SICILIA", "public_private": "PUBLIC" }, "geometry": { "type": "Point", "coordinates": [ 15.172474400000056, 37.985998900000027 ] } },
{ "type": "Feature", "properties": { "OBJECTID": 148483, "Shape": null, "id": "IT_LIIC82300E", "name": "BARTOLENA GIOVANNI", "lat": 43.52433, "lon": 10.32465, "city": "LIVORNO", "public_private": "PUBLIC" }, "geometry": { "type": "Point", "coordinates": [ 10.32465, 43.52433 ] } },
{ "type": "Feature", "properties": { "OBJECTID": 148484, "Shape": null, "id": "IT_MEAA83807N", "name": "RACCUIA", "lat": 38.05638, "lon": 14.91105, "city": "RACCUJA", "public_private": "PUBLIC" }, "geometry": { "type": "Point", "coordinates": [ 14.91105, 38.05638 ] } },
{ "type": "Feature", "properties": { "OBJECTID": 148485, "Shape": null, "id": "IT_MEMM819016", "name": "\"LEONARDO DA VINCI\" VILLAFRANCA", "lat": 38.2220681, "lon": 15.4536577, "city": "VILLAFRANCA TIRRENA", "public_private": "PUBLIC" }, "geometry": { "type": "Point", "coordinates": [ 15.453657700000065, 38.222068100000058 ] } },
{ "type": "Feature", "properties": { "OBJECTID": 148486, "Shape": null, "id": "IT_TOAA88201R", "name": "I.C. SIDOLI - \"FANCIULLI\"", "lat": 45.02268, "lon": 7.65365, "city": "TORINO", "public_private": "PUBLIC" }, "geometry": { "type": "Point", "coordinates": [ 7.65365, 45.02268 ] } },
{ "type": "Feature", "properties": { "OBJECTID": 148487, "Shape": null, "id": "IT_BAEE833048", "name": "PADIGLIONE C - C.D. TURI", "lat": 40.9218939, "lon": 17.0220521, "city": "TURI", "public_private": "PUBLIC" }, "geometry": { "type": "Point", "coordinates": [ 17.022052100000053, 40.921893900000043 ] } },
{ "type": "Feature", "properties": { "OBJECTID": 148488, "Shape": null, "id": "IT_MSIC80500A", "name": "I.C. \"BONOMI\" FOSDINOVO", "lat": 44.0604248, "lon": 10.0489497, "city": "FOSDINOVO", "public_private": "PUBLIC" }, "geometry": { "type": "Point", "coordinates": [ 10.048949700000037, 44.060424800000078 ] } },
{ "type": "Feature", "properties": { "OBJECTID": 148489, "Shape": null, "id": "IT_TSEE80903L", "name": "DUCA D'AOSTA", "lat": 45.64334, "lon": 13.7767, "city": "TRIESTE", "public_private": "PUBLIC" }, "geometry": { "type": "Point", "coordinates": [ 13.7767, 45.64334 ] } },
{ "type": "Feature", "properties": { "OBJECTID": 148490, "Shape": null, "id": "IT_FGEE84101C", "name": "VIA PAPA GIOVANNI XXIII", "lat": 41.88956, "lon": 15.96274, "city": "VICO DEL GARGANO", "public_private": "PUBLIC" }, "geometry": { "type": "Point", "coordinates": [ 15.96274, 41.88956 ] } },
{ "type": "Feature", "properties": { "OBJECTID": 148491, "Shape": null, "id": "IT_ANMM82001B", "name": "ANCONA \"MARCONI\"", "lat": 43.59712, "lon": 13.51649, "city": "ANCONA", "public_private": "PUBLIC" }, "geometry": { "type": "Point", "coordinates": [ 13.51649, 43.59712 ] } },
{ "type": "Feature", "properties": { "OBJECTID": 148492, "Shape": null, "id": "IT_CZAA82904N", "name": "S.PIETRO A MAIDA GIARDINI ICMAI", "lat": 38.84502, "lon": 16.33971, "city": "SAN PIETRO A MAIDA", "public_private": "PUBLIC" }, "geometry": { "type": "Point", "coordinates": [ 16.33971, 38.84502 ] } },
{ "type": "Feature", "properties": { "OBJECTID": 148493, "Shape": null, "id": "IT_VVEE83505T", "name": "CAPOLUOGO (SIMBARIO)", "lat": 38.61238, "lon": 16.33478, "city": "SIMBARIO", "public_private": "PUBLIC" }, "geometry": { "type": "Point", "coordinates": [ 16.33478, 38.61238 ] } },
{ "type": "Feature", "properties": { "OBJECTID": 148494, "Shape": null, "id": "IT_PSEE803044", "name": "MERCATINO CONCA-MONTECERIGNONE", "lat": 43.84065, "lon": 12.4124, "city": "MONTE CERIGNONE", "public_private": "PUBLIC" }, "geometry": { "type": "Point", "coordinates": [ 12.4124, 43.84065 ] } },
{ "type": "Feature", "properties": { "OBJECTID": 148495, "Shape": null, "id": "IT_SVCT70000G", "name": "CTP FINALE LIGURE", "lat": 44.1689049, "lon": 8.3436524, "city": "FINALE LIGURE", "public_private": "PUBLIC" }, "geometry": { "type": "Point", "coordinates": [ 8.343652400000053, 44.16890490000003 ] } },
{ "type": "Feature", "properties": { "OBJECTID": 148496, "Shape": null, "id": "IT_SREE80501P", "name": "I.C. \"N. MARTOGLIO\" SIRACUSA", "lat": 37.0960377, "lon": 15.2785383, "city": "SIRACUSA", "public_private": "PUBLIC" }, "geometry": { "type": "Point", "coordinates": [ 15.278538300000037, 37.096037700000068 ] } },
{ "type": "Feature", "properties": { "OBJECTID": 148497, "Shape": null, "id": "IT_CZAA85808T", "name": "A .GIGLIO IC MATERDOMINI", "lat": 38.9144, "lon": 16.57112, "city": "CATANZARO", "public_private": "PUBLIC" }, "geometry": { "type": "Point", "coordinates": [ 16.57112, 38.9144 ] } },
{ "type": "Feature", "properties": { "OBJECTID": 148498, "Shape": null, "id": "IT_LIAA818021", "name": "GIAMBURRASCA", "lat": 43.3901832, "lon": 10.4394491, "city": "ROSIGNANO MARITTIMO", "public_private": "PUBLIC" }, "geometry": { "type": "Point", "coordinates": [ 10.439449100000047, 43.390183200000081 ] } },
{ "type": "Feature", "properties": { "OBJECTID": 148499, "Shape": null, "id": "IT_PGRI02901A", "name": "ASSISI", "lat": 43.0769308, "lon": 12.5970423, "city": "ASSISI", "public_private": "PUBLIC" }, "geometry": { "type": "Point", "coordinates": [ 12.597042300000055, 43.076930800000071 ] } },
{ "type": "Feature", "properties": { "OBJECTID": 148500, "Shape": null, "id": "IT_TPAA821017", "name": "INFANZIA \"FRANCESCO STRUPPA\"", "lat": 37.8164948, "lon": 12.4651802, "city": "MARSALA", "public_private": "PUBLIC" }, "geometry": { "type": "Point", "coordinates": [ 12.465180200000077, 37.816494800000044 ] } },
{ "type": "Feature", "properties": { "OBJECTID": 148501, "Shape": null, "id": "IT_VCMM81302P", "name": "VALDUGGIA", "lat": 45.7292921, "lon": 8.329498, "city": "VALDUGGIA", "public_private": "PUBLIC" }, "geometry": { "type": "Point", "coordinates": [ 8.329498, 45.729292100000066 ] } },
{ "type": "Feature", "properties": { "OBJECTID": 148502, "Shape": null, "id": "IT_VIEE885037", "name": "A. FOGAZZARO", "lat": 45.52065, "lon": 11.33546, "city": "ARZIGNANO", "public_private": "PUBLIC" }, "geometry": { "type": "Point", "coordinates": [ 11.33546, 45.52065 ] } },
{ "type": "Feature", "properties": { "OBJECTID": 148503, "Shape": null, "id": "IT_ATEE81508P", "name": "SCUOLA PRIM DI MONASTERO B.", "lat": 44.64938, "lon": 8.32662, "city": "MONASTERO BORMIDA", "public_private": "PUBLIC" }, "geometry": { "type": "Point", "coordinates": [ 8.32662, 44.64938 ] } },
{ "type": "Feature", "properties": { "OBJECTID": 148504, "Shape": null, "id": "IT_RNAA80101E", "name": "AQUILONE (IC S.GIOVANNI IN M.)", "lat": 43.92864, "lon": 12.69114, "city": "SAN GIOVANNI IN MARIGNANO", "public_private": "PUBLIC" }, "geometry": { "type": "Point", "coordinates": [ 12.69114, 43.92864 ] } },
{ "type": "Feature", "properties": { "OBJECTID": 148505, "Shape": null, "id": "IT_TEMM81602E", "name": "SC.M. CASTILENTI", "lat": 42.55227, "lon": 13.9444, "city": "CASTILENTI", "public_private": "PUBLIC" }, "geometry": { "type": "Point", "coordinates": [ 13.9444, 42.55227 ] } },
{ "type": "Feature", "properties": { "OBJECTID": 148506, "Shape": null, "id": "IT_RMIC8BJ00G", "name": "IST. COMPRENSIVO F. DE SANCTIS", "lat": 41.7042, "lon": 12.69257, "city": "GENZANO DI ROMA", "public_private": "PUBLIC" }, "geometry": { "type": "Point", "coordinates": [ 12.69257, 41.7042 ] } },
{ "type": "Feature", "properties": { "OBJECTID": 148507, "Shape": null, "id": "IT_VAMM852013", "name": "\"MANZONI\" - UBOLDO -", "lat": 45.6172423, "lon": 9.0134651, "city": "UBOLDO", "public_private": "PUBLIC" }, "geometry": { "type": "Point", "coordinates": [ 9.013465100000076, 45.617242300000044 ] } },
{ "type": "Feature", "properties": { "OBJECTID": 148508, "Shape": null, "id": "IT_NAEE177012", "name": "S.GIUSEPPE VES. 1 - CAPOLUOGO", "lat": 40.83649, "lon": 14.50363, "city": "SAN GIUSEPPE VESUVIANO", "public_private": "PUBLIC" }, "geometry": { "type": "Point", "coordinates": [ 14.50363, 40.83649 ] } },
{ "type": "Feature", "properties": { "OBJECTID": 148509, "Shape": null, "id": "IT_PTEE80601G", "name": "\"GIANO GIANI\"- MASSA CAPOLUOGO", "lat": 43.9083, "lon": 10.74611, "city": "MASSA E COZZILE", "public_private": "PUBLIC" }, "geometry": { "type": "Point", "coordinates": [ 10.74611, 43.9083 ] } },
{ "type": "Feature", "properties": { "OBJECTID": 148510, "Shape": null, "id": "IT_NAAA8D8031", "name": "MASSALUBRENSE IC - CAPOLUOGO", "lat": 40.60888, "lon": 14.34041, "city": "MASSA LUBRENSE", "public_private": "PUBLIC" }, "geometry": { "type": "Point", "coordinates": [ 14.34041, 40.60888 ] } },
{ "type": "Feature", "properties": { "OBJECTID": 148511, "Shape": null, "id": "IT_UDEE85202X", "name": "\"G. FONTANINI\" - VILLANOVA", "lat": 46.13084, "lon": 12.96937, "city": "SAN DANIELE DEL FRIULI", "public_private": "PUBLIC" }, "geometry": { "type": "Point", "coordinates": [ 12.96937, 46.13084 ] } },
{ "type": "Feature", "properties": { "OBJECTID": 148512, "Shape": null, "id": "IT_MBEE84601Q", "name": "ANTONIO STOPPANI - SEREGNO", "lat": 45.65686005, "lon": 9.202813889, "city": "SEREGNO", "public_private": "PUBLIC" }, "geometry": { "type": "Point", "coordinates": [ 9.202813889000026, 45.656860050000034 ] } },
{ "type": "Feature", "properties": { "OBJECTID": 148513, "Shape": null, "id": "IT_TAAA04003V", "name": "CORSO UMBERTO", "lat": 40.6024295, "lon": 17.2278534, "city": "CRISPIANO", "public_private": "PUBLIC" }, "geometry": { "type": "Point", "coordinates": [ 17.227853400000072, 40.602429500000028 ] } },
{ "type": "Feature", "properties": { "OBJECTID": 148514, "Shape": null, "id": "IT_SSAA81103A", "name": "NOSTRA SIG.RA DI TERGU", "lat": 40.86137, "lon": 8.71086, "city": "TERGU", "public_private": "PUBLIC" }, "geometry": { "type": "Point", "coordinates": [ 8.71086, 40.86137 ] } },
{ "type": "Feature", "properties": { "OBJECTID": 148515, "Shape": null, "id": "IT_VVIC829008", "name": "ISTITUTO COMPRENSIVO FILADELFIA", "lat": 41.7316573, "lon": 12.6590984, "city": "FILADELFIA", "public_private": "PUBLIC" }, "geometry": { "type": "Point", "coordinates": [ 12.659098400000062, 41.731657300000052 ] } },
{ "type": "Feature", "properties": { "OBJECTID": 148516, "Shape": null, "id": "IT_NAEE8GB011", "name": "NA IC 13 IGNAZIO DI LOYOLA", "lat": 40.86355, "lon": 14.217, "city": "NAPOLI", "public_private": "PUBLIC" }, "geometry": { "type": "Point", "coordinates": [ 14.217, 40.86355 ] } },
{ "type": "Feature", "properties": { "OBJECTID": 148517, "Shape": null, "id": "IT_FIMM834011", "name": "RODARI", "lat": 43.75336, "lon": 11.18021, "city": "SCANDICCI", "public_private": "PUBLIC" }, "geometry": { "type": "Point", "coordinates": [ 11.18021, 43.75336 ] } },
{ "type": "Feature", "properties": { "OBJECTID": 148518, "Shape": null, "id": "IT_PZMM82106E", "name": "I GRADO CAMPOMAGGIORE", "lat": 40.69709, "lon": 16.0171, "city": "CAMPOMAGGIORE", "public_private": "PUBLIC" }, "geometry": { "type": "Point", "coordinates": [ 16.0171, 40.69709 ] } },
{ "type": "Feature", "properties": { "OBJECTID": 148519, "Shape": null, "id": "IT_RIPC009017", "name": "LICEO CLASSICO MARCO TERENZIO VARRONE", "lat": 42.4046164, "lon": 12.862464, "city": "RIETI", "public_private": "PUBLIC" }, "geometry": { "type": "Point", "coordinates": [ 12.862464, 42.404616400000066 ] } },
{ "type": "Feature", "properties": { "OBJECTID": 148520, "Shape": null, "id": "IT_CREE80801B", "name": "\"E. DE AMICIS\" (PIZZIGHETTONE)", "lat": 45.18634, "lon": 9.78751, "city": "PIZZIGHETTONE", "public_private": "PUBLIC" }, "geometry": { "type": "Point", "coordinates": [ 9.78751, 45.18634 ] } },
{ "type": "Feature", "properties": { "OBJECTID": 148521, "Shape": null, "id": "IT_CSAA8AN02T", "name": "SCUOLA DELL'INFANZIA MATASSA", "lat": 39.58918, "lon": 16.63904, "city": "CORIGLIANO-ROSSANO", "public_private": "PUBLIC" }, "geometry": { "type": "Point", "coordinates": [ 16.63904, 39.58918 ] } },
{ "type": "Feature", "properties": { "OBJECTID": 148522, "Shape": null, "id": "IT_PZAA871038", "name": "AVIGLIANO-POSSIDENTE", "lat": 40.9457073, "lon": 15.6725167, "city": "AVIGLIANO", "public_private": "PUBLIC" }, "geometry": { "type": "Point", "coordinates": [ 15.672516700000074, 40.945707300000038 ] } },
{ "type": "Feature", "properties": { "OBJECTID": 148523, "Shape": null, "id": "IT_LUAA83302D", "name": "BORGO SECONDO", "lat": 43.8713194, "lon": 10.2507329, "city": "VIAREGGIO", "public_private": "PUBLIC" }, "geometry": { "type": "Point", "coordinates": [ 10.25073290000006, 43.871319400000061 ] } },
{ "type": "Feature", "properties": { "OBJECTID": 148524, "Shape": null, "id": "IT_ROEE81403L", "name": "LEONARDO DA VINCI-ADRIA", "lat": 45.04907, "lon": 12.03414, "city": "ADRIA", "public_private": "PUBLIC" }, "geometry": { "type": "Point", "coordinates": [ 12.03414, 45.04907 ] } },
{ "type": "Feature", "properties": { "OBJECTID": 148525, "Shape": null, "id": "IT_CSMM87901X", "name": "SM RENDE QUATTROMIGLIA", "lat": 39.34699, "lon": 16.23984, "city": "RENDE", "public_private": "PUBLIC" }, "geometry": { "type": "Point", "coordinates": [ 16.23984, 39.34699 ] } },
{ "type": "Feature", "properties": { "OBJECTID": 148526, "Shape": null, "id": "IT_MBMM8EX012", "name": "CALVINO-DON SALTINI VIMERCATE", "lat": 45.36094, "lon": 9.05219, "city": "VIMERCATE", "public_private": "PUBLIC" }, "geometry": { "type": "Point", "coordinates": [ 9.05219, 45.36094 ] } },
{ "type": "Feature", "properties": { "OBJECTID": 148527, "Shape": null, "id": "IT_TRMM02200C", "name": "AMELIA \"A.VERA\"", "lat": 42.5528689, "lon": 12.4170983, "city": "AMELIA", "public_private": "PUBLIC" }, "geometry": { "type": "Point", "coordinates": [ 12.417098300000077, 42.552868900000078 ] } },
{ "type": "Feature", "properties": { "OBJECTID": 148528, "Shape": null, "id": "IT_CEAA83701E", "name": "SANTA MARIA C V CASE POPOLARI", "lat": 41.07999, "lon": 14.25663, "city": "SANTA MARIA CAPUA VETERE", "public_private": "PUBLIC" }, "geometry": { "type": "Point", "coordinates": [ 14.25663, 41.07999 ] } },
{ "type": "Feature", "properties": { "OBJECTID": 148529, "Shape": null, "id": "IT_ENAA825041", "name": "TRINITA'", "lat": 37.384, "lon": 14.36354, "city": "PIAZZA ARMERINA", "public_private": "PUBLIC" }, "geometry": { "type": "Point", "coordinates": [ 14.36354, 37.384 ] } },
{ "type": "Feature", "properties": { "OBJECTID": 148530, "Shape": null, "id": "IT_MIPM03000T", "name": "LICEO - G. AGNESI", "lat": 45.44778, "lon": 9.18244, "city": "MILANO", "public_private": "PUBLIC" }, "geometry": { "type": "Point", "coordinates": [ 9.18244, 45.44778 ] } },
{ "type": "Feature", "properties": { "OBJECTID": 148531, "Shape": null, "id": "IT_RMEE856023", "name": "PLACIDO MARTINI", "lat": 41.86034, "lon": 12.41933, "city": "ROMA", "public_private": "PUBLIC" }, "geometry": { "type": "Point", "coordinates": [ 12.41933, 41.86034 ] } },
{ "type": "Feature", "properties": { "OBJECTID": 148532, "Shape": null, "id": "IT_VREE85205A", "name": "DON D. MERCANTE", "lat": 45.48594, "lon": 11.17768, "city": "ILLASI", "public_private": "PUBLIC" }, "geometry": { "type": "Point", "coordinates": [ 11.17768, 45.48594 ] } },
{ "type": "Feature", "properties": { "OBJECTID": 148533, "Shape": null, "id": "IT_ANMM83901C", "name": "JESI \"PAOLO BORSELLINO\"", "lat": 43.5205796, "lon": 13.2402395, "city": "JESI", "public_private": "PUBLIC" }, "geometry": { "type": "Point", "coordinates": [ 13.24023950000003, 43.520579600000076 ] } },
{ "type": "Feature", "properties": { "OBJECTID": 148534, "Shape": null, "id": "IT_GOIC813008", "name": "ISTITUTO COMPRENSIVO GORIZIA 1", "lat": 45.937174, "lon": 13.6198742, "city": "GORIZIA", "public_private": "PUBLIC" }, "geometry": { "type": "Point", "coordinates": [ 13.619874200000027, 45.937174 ] } },
{ "type": "Feature", "properties": { "OBJECTID": 148535, "Shape": null, "id": "IT_AGTF02601R", "name": "ITI \"ARCHIMEDE\"", "lat": 37.2524287, "lon": 13.91702408, "city": "CAMMARATA", "public_private": "PUBLIC" }, "geometry": { "type": "Point", "coordinates": [ 13.917024080000033, 37.252428700000053 ] } },
{ "type": "Feature", "properties": { "OBJECTID": 148536, "Shape": null, "id": "IT_CSTD046012", "name": "ITC ROSSANO \"ALFREDO GRADILONE\"", "lat": 39.5974853, "lon": 16.6428089, "city": "CORIGLIANO-ROSSANO", "public_private": "PUBLIC" }, "geometry": { "type": "Point", "coordinates": [ 16.642808900000034, 39.597485300000073 ] } },
{ "type": "Feature", "properties": { "OBJECTID": 148537, "Shape": null, "id": "IT_PGEE021002", "name": "D.D. \"F. RASETTI\" - C. LAGO", "lat": 43.12771, "lon": 12.04526, "city": "CASTIGLIONE DEL LAGO", "public_private": "PUBLIC" }, "geometry": { "type": "Point", "coordinates": [ 12.04526, 43.12771 ] } },
{ "type": "Feature", "properties": { "OBJECTID": 148538, "Shape": null, "id": "IT_PDIS017007", "name": "IIS L.B.ALBERTI-ABANO T.", "lat": 45.35853, "lon": 11.77179, "city": "ABANO TERME", "public_private": "PUBLIC" }, "geometry": { "type": "Point", "coordinates": [ 11.77179, 45.35853 ] } },
{ "type": "Feature", "properties": { "OBJECTID": 148539, "Shape": null, "id": "IT_CEAA898012", "name": "PLESSO BRODOLINI CAVOUR PARETE", "lat": 40.95535, "lon": 14.17015, "city": "PARETE", "public_private": "PUBLIC" }, "geometry": { "type": "Point", "coordinates": [ 14.17015, 40.95535 ] } },
{ "type": "Feature", "properties": { "OBJECTID": 148540, "Shape": null, "id": "IT_AVAA84606N", "name": "MARZANO DI NOLA", "lat": 40.90143, "lon": 14.58435, "city": "MARZANO DI NOLA", "public_private": "PUBLIC" }, "geometry": { "type": "Point", "coordinates": [ 14.58435, 40.90143 ] } },
{ "type": "Feature", "properties": { "OBJECTID": 148541, "Shape": null, "id": "IT_LIAA82601V", "name": "\"M.D'AZEGLIO\"", "lat": 43.54833, "lon": 10.30561, "city": "LIVORNO", "public_private": "PUBLIC" }, "geometry": { "type": "Point", "coordinates": [ 10.30561, 43.54833 ] } },
{ "type": "Feature", "properties": { "OBJECTID": 148542, "Shape": null, "id": "IT_ALTL00601A", "name": "\"PIER LUIGI NERVI\"", "lat": 44.91427, "lon": 8.60684, "city": "ALESSANDRIA", "public_private": "PUBLIC" }, "geometry": { "type": "Point", "coordinates": [ 8.60684, 44.91427 ] } },
{ "type": "Feature", "properties": { "OBJECTID": 148543, "Shape": null, "id": "IT_VTIC81600G", "name": "IST.COMPR. XXV APRILE", "lat": 42.28921, "lon": 12.41506, "city": "CIVITA CASTELLANA", "public_private": "PUBLIC" }, "geometry": { "type": "Point", "coordinates": [ 12.41506, 42.28921 ] } },
{ "type": "Feature", "properties": { "OBJECTID": 148544, "Shape": null, "id": "IT_TOTD067018", "name": "I.T.S.S.E. \"C.LEVI\"", "lat": 45.07745, "lon": 7.61701, "city": "TORINO", "public_private": "PUBLIC" }, "geometry": { "type": "Point", "coordinates": [ 7.61701, 45.07745 ] } },
{ "type": "Feature", "properties": { "OBJECTID": 148545, "Shape": null, "id": "IT_CBMM80903R", "name": "BONEFRO \"JOVINE\"", "lat": 41.70379, "lon": 14.93211, "city": "BONEFRO", "public_private": "PUBLIC" }, "geometry": { "type": "Point", "coordinates": [ 14.93211, 41.70379 ] } },
{ "type": "Feature", "properties": { "OBJECTID": 148546, "Shape": null, "id": "IT_FGEE857034", "name": "SAN LORENZO", "lat": 41.4411836, "lon": 15.5680226, "city": "FOGGIA", "public_private": "PUBLIC" }, "geometry": { "type": "Point", "coordinates": [ 15.568022600000063, 41.441183600000045 ] } },
{ "type": "Feature", "properties": { "OBJECTID": 148547, "Shape": null, "id": "IT_BACT703004", "name": "ANDRIA - I.C. \"IMBRIANI - SALVEMINI\"", "lat": 41.22317, "lon": 16.28006, "city": "ANDRIA", "public_private": "PUBLIC" }, "geometry": { "type": "Point", "coordinates": [ 16.28006, 41.22317 ] } },
{ "type": "Feature", "properties": { "OBJECTID": 148548, "Shape": null, "id": "IT_CSAA872044", "name": "CETRARO - SAN PIETRO ALTO", "lat": 39.54551, "lon": 15.97318, "city": "CETRARO", "public_private": "PUBLIC" }, "geometry": { "type": "Point", "coordinates": [ 15.97318, 39.54551 ] } },
{ "type": "Feature", "properties": { "OBJECTID": 148549, "Shape": null, "id": "IT_BSEE828017", "name": "\"CADUTI DEI LAGER\"", "lat": 45.59935, "lon": 10.22508, "city": "CONCESIO", "public_private": "PUBLIC" }, "geometry": { "type": "Point", "coordinates": [ 10.22508, 45.59935 ] } },
{ "type": "Feature", "properties": { "OBJECTID": 148550, "Shape": null, "id": "IT_VAAA86101N", "name": "SCUOLA MATERNA STATALE", "lat": 45.60284, "lon": 8.7997, "city": "SAMARATE", "public_private": "PUBLIC" }, "geometry": { "type": "Point", "coordinates": [ 8.7997, 45.60284 ] } },
{ "type": "Feature", "properties": { "OBJECTID": 148551, "Shape": null, "id": "IT_RMIC8DC00T", "name": "IC S. D'ACQUISTO CERVETERI", "lat": 41.988423, "lon": 12.1078634, "city": "CERVETERI", "public_private": "PUBLIC" }, "geometry": { "type": "Point", "coordinates": [ 12.107863400000042, 41.988423 ] } },
{ "type": "Feature", "properties": { "OBJECTID": 148552, "Shape": null, "id": "IT_ORMM812065", "name": "NURACHI", "lat": 39.97878, "lon": 8.53732, "city": "NURACHI", "public_private": "PUBLIC" }, "geometry": { "type": "Point", "coordinates": [ 8.53732, 39.97878 ] } },
{ "type": "Feature", "properties": { "OBJECTID": 148553, "Shape": null, "id": "IT_MIEE84201G", "name": "PRIMARIA G. LEOPARDI", "lat": 45.57727, "lon": 8.81855, "city": "MAGNAGO", "public_private": "PUBLIC" }, "geometry": { "type": "Point", "coordinates": [ 8.81855, 45.57727 ] } },
{ "type": "Feature", "properties": { "OBJECTID": 148554, "Shape": null, "id": "IT_CNEE807061", "name": "\"A.VACCHETTA\" LEQUIO TANARO", "lat": 44.55929, "lon": 7.8831, "city": "LEQUIO TANARO", "public_private": "PUBLIC" }, "geometry": { "type": "Point", "coordinates": [ 7.8831, 44.55929 ] } },
{ "type": "Feature", "properties": { "OBJECTID": 148555, "Shape": null, "id": "IT_GEAA831016", "name": "S.MAT. - PAPA GIOVANNI XXIII -", "lat": 44.417, "lon": 8.95734, "city": "GENOVA", "public_private": "PUBLIC" }, "geometry": { "type": "Point", "coordinates": [ 8.95734, 44.417 ] } },
{ "type": "Feature", "properties": { "OBJECTID": 148556, "Shape": null, "id": "IT_AVPS018012", "name": "LICEO SCIENTIFICO - SEDE LAURO", "lat": 40.9245484, "lon": 14.5830094, "city": "LAURO", "public_private": "PUBLIC" }, "geometry": { "type": "Point", "coordinates": [ 14.583009400000037, 40.924548400000049 ] } },
{ "type": "Feature", "properties": { "OBJECTID": 148557, "Shape": null, "id": "IT_MOMM845017", "name": "P.PAOLI", "lat": 44.6472396, "lon": 10.9343048, "city": "MODENA", "public_private": "PUBLIC" }, "geometry": { "type": "Point", "coordinates": [ 10.934304800000064, 44.647239600000034 ] } },
{ "type": "Feature", "properties": { "OBJECTID": 148558, "Shape": null, "id": "IT_TEAA81603B", "name": "INFANZIA CASTILENTI", "lat": 42.55227, "lon": 13.9444, "city": "CASTILENTI", "public_private": "PUBLIC" }, "geometry": { "type": "Point", "coordinates": [ 13.9444, 42.55227 ] } },
{ "type": "Feature", "properties": { "OBJECTID": 148559, "Shape": null, "id": "IT_CSEE851048", "name": "FIGLINE VEGLIATURO CENTRO", "lat": 39.2238501, "lon": 16.3313362, "city": "FIGLINE VEGLIATURO", "public_private": "PUBLIC" }, "geometry": { "type": "Point", "coordinates": [ 16.331336200000067, 39.22385010000005 ] } },
{ "type": "Feature", "properties": { "OBJECTID": 148560, "Shape": null, "id": "IT_RGAA810014", "name": "TORRE MATERNA", "lat": 36.8945, "lon": 14.85994, "city": "MODICA", "public_private": "PUBLIC" }, "geometry": { "type": "Point", "coordinates": [ 14.85994, 36.8945 ] } },
{ "type": "Feature", "properties": { "OBJECTID": 148561, "Shape": null, "id": "IT_SAIC8BT004", "name": "2' I.C. NOCERA INFERIORE", "lat": 40.74193, "lon": 14.63744, "city": "NOCERA INFERIORE", "public_private": "PUBLIC" }, "geometry": { "type": "Point", "coordinates": [ 14.63744, 40.74193 ] } },
{ "type": "Feature", "properties": { "OBJECTID": 148562, "Shape": null, "id": "IT_TOEE8AS03T", "name": "I.C. ANDEZENO - MARENTINO", "lat": 45.05799, "lon": 7.87364, "city": "MARENTINO", "public_private": "PUBLIC" }, "geometry": { "type": "Point", "coordinates": [ 7.87364, 45.05799 ] } },
{ "type": "Feature", "properties": { "OBJECTID": 148563, "Shape": null, "id": "IT_RCIS00700Q", "name": "IS F.SCO LA CAVA", "lat": 38.13431, "lon": 16.16119, "city": "BOVALINO", "public_private": "PUBLIC" }, "geometry": { "type": "Point", "coordinates": [ 16.16119, 38.13431 ] } },
{ "type": "Feature", "properties": { "OBJECTID": 148564, "Shape": null, "id": "IT_GOAA80304N", "name": "VIA CELLOTTINI", "lat": 45.801778, "lon": 13.527213, "city": "MONFALCONE", "public_private": "PUBLIC" }, "geometry": { "type": "Point", "coordinates": [ 13.527213, 45.801778 ] } },
{ "type": "Feature", "properties": { "OBJECTID": 148565, "Shape": null, "id": "IT_PVEE81302A", "name": "MAGHERNO", "lat": 45.22299, "lon": 9.32797, "city": "MAGHERNO", "public_private": "PUBLIC" }, "geometry": { "type": "Point", "coordinates": [ 9.32797, 45.22299 ] } },
{ "type": "Feature", "properties": { "OBJECTID": 148566, "Shape": null, "id": "IT_RMRH05901Q", "name": "I.P.S.S.A.R. VIA FEDERICI - LADISPOLI", "lat": 41.959668, "lon": 12.096267, "city": "LADISPOLI", "public_private": "PUBLIC" }, "geometry": { "type": "Point", "coordinates": [ 12.096267, 41.959668 ] } },
{ "type": "Feature", "properties": { "OBJECTID": 148567, "Shape": null, "id": "IT_CTAA8AZ06C", "name": "JEAN PIAGET", "lat": 37.71269, "lon": 15.19148, "city": "GIARRE", "public_private": "PUBLIC" }, "geometry": { "type": "Point", "coordinates": [ 15.19148, 37.71269 ] } },
{ "type": "Feature", "properties": { "OBJECTID": 148568, "Shape": null, "id": "IT_UDAA85402A", "name": "TOLMEZZO/V.DE MARCHI", "lat": 46.40341, "lon": 13.01747, "city": "TOLMEZZO", "public_private": "PUBLIC" }, "geometry": { "type": "Point", "coordinates": [ 13.01747, 46.40341 ] } },
{ "type": "Feature", "properties": { "OBJECTID": 148569, "Shape": null, "id": "IT_BGIC8AE00E", "name": "TREVIGLIO \"DE AMICIS\"", "lat": 45.52384, "lon": 9.59134, "city": "TREVIGLIO", "public_private": "PUBLIC" }, "geometry": { "type": "Point", "coordinates": [ 9.59134, 45.52384 ] } },
{ "type": "Feature", "properties": { "OBJECTID": 148570, "Shape": null, "id": "IT_ENEE825046", "name": "PLESSO CANALI", "lat": 37.38103615, "lon": 14.36537418, "city": "PIAZZA ARMERINA", "public_private": "PUBLIC" }, "geometry": { "type": "Point", "coordinates": [ 14.36537418000006, 37.381036150000057 ] } },
{ "type": "Feature", "properties": { "OBJECTID": 148571, "Shape": null, "id": "IT_AGEE83204L", "name": "CIRANNI", "lat": 37.40639, "lon": 13.64077, "city": "COMITINI", "public_private": "PUBLIC" }, "geometry": { "type": "Point", "coordinates": [ 13.64077, 37.40639 ] } },
{ "type": "Feature", "properties": { "OBJECTID": 148572, "Shape": null, "id": "IT_APEE818035", "name": "CAPOLUOGO", "lat": 42.9887806, "lon": 13.8711739, "city": "GROTTAMMARE", "public_private": "PUBLIC" }, "geometry": { "type": "Point", "coordinates": [ 13.871173900000031, 42.988780600000041 ] } },
{ "type": "Feature", "properties": { "OBJECTID": 148573, "Shape": null, "id": "IT_BOAA87202E", "name": "IL FLAUTO MAGICO", "lat": 44.51584, "lon": 11.35201, "city": "BOLOGNA", "public_private": "PUBLIC" }, "geometry": { "type": "Point", "coordinates": [ 11.35201, 44.51584 ] } },
{ "type": "Feature", "properties": { "OBJECTID": 148574, "Shape": null, "id": "IT_CEEE82502E", "name": "J. J. SCIALDONE", "lat": 41.161, "lon": 14.21617, "city": "VITULAZIO", "public_private": "PUBLIC" }, "geometry": { "type": "Point", "coordinates": [ 14.21617, 41.161 ] } },
{ "type": "Feature", "properties": { "OBJECTID": 148575, "Shape": null, "id": "IT_BGIC84800T", "name": "GAZZANIGA", "lat": 45.7965041, "lon": 9.829720428, "city": "GAZZANIGA", "public_private": "PUBLIC" }, "geometry": { "type": "Point", "coordinates": [ 9.82972042800003, 45.79650410000005 ] } },
{ "type": "Feature", "properties": { "OBJECTID": 148576, "Shape": null, "id": "IT_TAPM020008", "name": "LICEO SCIENZE UMANE \"VITTORINO DA FELTRE", "lat": 40.4667129, "lon": 17.2844008, "city": "TARANTO", "public_private": "PUBLIC" }, "geometry": { "type": "Point", "coordinates": [ 17.284400800000071, 40.466712900000061 ] } },
{ "type": "Feature", "properties": { "OBJECTID": 148577, "Shape": null, "id": "IT_MIEE8BC027", "name": "PRIMARIA VIA LITTA", "lat": 45.5722, "lon": 9.0312, "city": "LAINATE", "public_private": "PUBLIC" }, "geometry": { "type": "Point", "coordinates": [ 9.0312, 45.5722 ] } },
{ "type": "Feature", "properties": { "OBJECTID": 148578, "Shape": null, "id": "IT_MEAA878052", "name": "MONTALBANO ELICONA", "lat": 38.02518, "lon": 15.01744, "city": "MONTALBANO ELICONA", "public_private": "PUBLIC" }, "geometry": { "type": "Point", "coordinates": [ 15.01744, 38.02518 ] } },
{ "type": "Feature", "properties": { "OBJECTID": 148579, "Shape": null, "id": "IT_SAMM8AE016", "name": "BATTIPAGLIA \"FIORENTINO\"", "lat": 40.6127231, "lon": 14.9886421, "city": "BATTIPAGLIA", "public_private": "PUBLIC" }, "geometry": { "type": "Point", "coordinates": [ 14.98864210000005, 40.612723100000039 ] } },
{ "type": "Feature", "properties": { "OBJECTID": 148580, "Shape": null, "id": "IT_BGAA85102G", "name": "GANDELLINO CAP.", "lat": 45.99159, "lon": 9.94666, "city": "GANDELLINO", "public_private": "PUBLIC" }, "geometry": { "type": "Point", "coordinates": [ 9.94666, 45.99159 ] } },
{ "type": "Feature", "properties": { "OBJECTID": 148581, "Shape": null, "id": "IT_BAAA895017", "name": "\"NICOLA CAPOZZO\"", "lat": 40.84962, "lon": 16.85081, "city": "ACQUAVIVA DELLE FONTI", "public_private": "PUBLIC" }, "geometry": { "type": "Point", "coordinates": [ 16.85081, 40.84962 ] } },
{ "type": "Feature", "properties": { "OBJECTID": 148582, "Shape": null, "id": "IT_MIIS00100B", "name": "G. CASIRAGHI", "lat": 45.53787, "lon": 9.21687, "city": "CINISELLO BALSAMO", "public_private": "PUBLIC" }, "geometry": { "type": "Point", "coordinates": [ 9.21687, 45.53787 ] } },
{ "type": "Feature", "properties": { "OBJECTID": 148583, "Shape": null, "id": "IT_CSAA88301B", "name": "ACRI - CENTRO-VIA CAPPUCCINI", "lat": 39.48854, "lon": 16.3859, "city": "ACRI", "public_private": "PUBLIC" }, "geometry": { "type": "Point", "coordinates": [ 16.3859, 39.48854 ] } },
{ "type": "Feature", "properties": { "OBJECTID": 148584, "Shape": null, "id": "IT_BGEE891027", "name": "GANDOSSO", "lat": 45.66175, "lon": 9.88982, "city": "GANDOSSO", "public_private": "PUBLIC" }, "geometry": { "type": "Point", "coordinates": [ 9.88982, 45.66175 ] } },
{ "type": "Feature", "properties": { "OBJECTID": 148585, "Shape": null, "id": "IT_BRAA83205A", "name": "ISTITUTO S. ORSOLA", "lat": 40.5353293, "lon": 17.5761528, "city": "FRANCAVILLA FONTANA", "public_private": "PUBLIC" }, "geometry": { "type": "Point", "coordinates": [ 17.576152800000045, 40.535329300000058 ] } },
{ "type": "Feature", "properties": { "OBJECTID": 148586, "Shape": null, "id": "IT_PACT72300B", "name": "C.T. TERMINI IMERESE \"TISIA D'IMERA\"", "lat": 37.98555, "lon": 13.69038, "city": "TERMINI IMERESE", "public_private": "PUBLIC" }, "geometry": { "type": "Point", "coordinates": [ 13.69038, 37.98555 ] } },
{ "type": "Feature", "properties": { "OBJECTID": 148587, "Shape": null, "id": "IT_LEEE8AP067", "name": "E. DE AMICIS", "lat": 40.01845, "lon": 18.3627, "city": "SPONGANO", "public_private": "PUBLIC" }, "geometry": { "type": "Point", "coordinates": [ 18.3627, 40.01845 ] } },
{ "type": "Feature", "properties": { "OBJECTID": 148588, "Shape": null, "id": "IT_CZEE82905X", "name": "S.PIETRO A MAIDA C.C. ICMAIDA", "lat": 38.8468043, "lon": 16.3434539, "city": "SAN PIETRO A MAIDA", "public_private": "PUBLIC" }, "geometry": { "type": "Point", "coordinates": [ 16.343453900000043, 38.846804300000031 ] } },
{ "type": "Feature", "properties": { "OBJECTID": 148589, "Shape": null, "id": "IT_BGEE839059", "name": "GAVERINA CAP.", "lat": 45.758, "lon": 9.88581, "city": "GAVERINA TERME", "public_private": "PUBLIC" }, "geometry": { "type": "Point", "coordinates": [ 9.88581, 45.758 ] } },
{ "type": "Feature", "properties": { "OBJECTID": 148590, "Shape": null, "id": "IT_PZTD00101D", "name": "I.T. \"V. D'ALESSANDRO\" LAGONEGRO", "lat": 40.1240269, "lon": 15.7676636, "city": "LAGONEGRO", "public_private": "PUBLIC" }, "geometry": { "type": "Point", "coordinates": [ 15.767663600000049, 40.124026900000047 ] } },
{ "type": "Feature", "properties": { "OBJECTID": 148591, "Shape": null, "id": "IT_MIAA8C701V", "name": "INFANZIA VIA AIRAGHI", "lat": 45.47572, "lon": 9.08574, "city": "MILANO", "public_private": "PUBLIC" }, "geometry": { "type": "Point", "coordinates": [ 9.08574, 45.47572 ] } },
{ "type": "Feature", "properties": { "OBJECTID": 148592, "Shape": null, "id": "IT_TAEE08300V", "name": "C.D. \"MARIA PIA\"", "lat": 40.45543, "lon": 17.38289, "city": "SAN GIORGIO IONICO", "public_private": "PUBLIC" }, "geometry": { "type": "Point", "coordinates": [ 17.38289, 40.45543 ] } },
{ "type": "Feature", "properties": { "OBJECTID": 148593, "Shape": null, "id": "IT_LEIC882003", "name": "I.C. \"P. STOMEO- G. ZIMBALO\"", "lat": 40.3753077, "lon": 18.145639, "city": "LECCE", "public_private": "PUBLIC" }, "geometry": { "type": "Point", "coordinates": [ 18.145639, 40.375307700000064 ] } },
{ "type": "Feature", "properties": { "OBJECTID": 148594, "Shape": null, "id": "IT_PDMM83602E", "name": "FONTANIVA SEZ. DI CARMIGNANO", "lat": 45.63613, "lon": 11.75372, "city": "FONTANIVA", "public_private": "PUBLIC" }, "geometry": { "type": "Point", "coordinates": [ 11.75372, 45.63613 ] } },
{ "type": "Feature", "properties": { "OBJECTID": 148595, "Shape": null, "id": "IT_RCAA812032", "name": "MONTEBELLO IONICO MASELLA", "lat": 37.9421381, "lon": 15.713117, "city": "MONTEBELLO JONICO", "public_private": "PUBLIC" }, "geometry": { "type": "Point", "coordinates": [ 15.713117, 37.942138100000079 ] } },
{ "type": "Feature", "properties": { "OBJECTID": 148596, "Shape": null, "id": "IT_SACT70200X", "name": "C.T.P. MERCATO S.S. \"SOMMA\"", "lat": 40.78574, "lon": 14.76006, "city": "MERCATO SAN SEVERINO", "public_private": "PUBLIC" }, "geometry": { "type": "Point", "coordinates": [ 14.76006, 40.78574 ] } },
{ "type": "Feature", "properties": { "OBJECTID": 148597, "Shape": null, "id": "IT_SAMM830018", "name": "CASTEL S.LORENZO", "lat": 40.41882, "lon": 15.22598, "city": "CASTEL SAN LORENZO", "public_private": "PUBLIC" }, "geometry": { "type": "Point", "coordinates": [ 15.22598, 40.41882 ] } },
{ "type": "Feature", "properties": { "OBJECTID": 148598, "Shape": null, "id": "IT_PGAA042031", "name": "INFANZIA SCHIAVO", "lat": 42.92845, "lon": 12.35531, "city": "MARSCIANO", "public_private": "PUBLIC" }, "geometry": { "type": "Point", "coordinates": [ 12.35531, 42.92845 ] } },
{ "type": "Feature", "properties": { "OBJECTID": 148599, "Shape": null, "id": "IT_CBMM83202R", "name": "SEPINO \"TIBERIO\"", "lat": 41.40957, "lon": 14.62004, "city": "SEPINO", "public_private": "PUBLIC" }, "geometry": { "type": "Point", "coordinates": [ 14.62004, 41.40957 ] } },
{ "type": "Feature", "properties": { "OBJECTID": 148600, "Shape": null, "id": "IT_PVMM813029", "name": "E. FERMI - MAGHERNO", "lat": 45.22299, "lon": 9.32797, "city": "MAGHERNO", "public_private": "PUBLIC" }, "geometry": { "type": "Point", "coordinates": [ 9.32797, 45.22299 ] } },
{ "type": "Feature", "properties": { "OBJECTID": 148601, "Shape": null, "id": "IT_TPEE81203Q", "name": "PLESSO \"LOMBARDO RADICE\"", "lat": 37.9750425, "lon": 12.9693363, "city": "ALCAMO", "public_private": "PUBLIC" }, "geometry": { "type": "Point", "coordinates": [ 12.969336300000066, 37.975042500000029 ] } },
{ "type": "Feature", "properties": { "OBJECTID": 148602, "Shape": null, "id": "IT_AVAA863027", "name": "-", "lat": 41.15254, "lon": 15.08763, "city": "ARIANO IRPINO", "public_private": "PUBLIC" }, "geometry": { "type": "Point", "coordinates": [ 15.08763, 41.15254 ] } },
{ "type": "Feature", "properties": { "OBJECTID": 148603, "Shape": null, "id": "IT_PRRI00101G", "name": "PROFESSIONALE BEDONIA", "lat": 44.50453, "lon": 9.63107, "city": "BEDONIA", "public_private": "PUBLIC" }, "geometry": { "type": "Point", "coordinates": [ 9.63107, 44.50453 ] } },
{ "type": "Feature", "properties": { "OBJECTID": 148604, "Shape": null, "id": "IT_NAMM8FR014", "name": "I.C. MARINO NAPOLI", "lat": 40.8483295, "lon": 14.3426697, "city": "NAPOLI", "public_private": "PUBLIC" }, "geometry": { "type": "Point", "coordinates": [ 14.342669700000044, 40.848329500000034 ] } },
{ "type": "Feature", "properties": { "OBJECTID": 148605, "Shape": null, "id": "IT_FIAA86002A", "name": "VAMBA", "lat": 43.79561, "lon": 11.22016, "city": "FIRENZE", "public_private": "PUBLIC" }, "geometry": { "type": "Point", "coordinates": [ 11.22016, 43.79561 ] } },
{ "type": "Feature", "properties": { "OBJECTID": 148606, "Shape": null, "id": "IT_MBEE8BS03C", "name": "SCUOLA ELEMENTARE \"A.MANZONI\"", "lat": 45.64653, "lon": 9.30201, "city": "LESMO", "public_private": "PUBLIC" }, "geometry": { "type": "Point", "coordinates": [ 9.30201, 45.64653 ] } },
{ "type": "Feature", "properties": { "OBJECTID": 148607, "Shape": null, "id": "IT_ALEE83504P", "name": "\"D.CARBONE\" - CARBONARA S.", "lat": 44.8481085, "lon": 8.8611039, "city": "CARBONARA SCRIVIA", "public_private": "PUBLIC" }, "geometry": { "type": "Point", "coordinates": [ 8.861103900000046, 44.84810850000008 ] } },
{ "type": "Feature", "properties": { "OBJECTID": 148608, "Shape": null, "id": "IT_UDEE81702L", "name": "MORUZZO", "lat": 46.12103, "lon": 13.13929, "city": "MORUZZO", "public_private": "PUBLIC" }, "geometry": { "type": "Point", "coordinates": [ 13.13929, 46.12103 ] } },
{ "type": "Feature", "properties": { "OBJECTID": 148609, "Shape": null, "id": "IT_CEAA8BE08G", "name": "ROCCAMONFINA-V.QUIRINI -D.D.-", "lat": 41.2876015, "lon": 13.9800355, "city": "ROCCAMONFINA", "public_private": "PUBLIC" }, "geometry": { "type": "Point", "coordinates": [ 13.980035500000042, 41.287601500000051 ] } },
{ "type": "Feature", "properties": { "OBJECTID": 148610, "Shape": null, "id": "IT_FRAA80303G", "name": "ESPERIA MONTICELLI", "lat": 41.40896, "lon": 13.65319, "city": "ESPERIA", "public_private": "PUBLIC" }, "geometry": { "type": "Point", "coordinates": [ 13.65319, 41.40896 ] } },
{ "type": "Feature", "properties": { "OBJECTID": 148611, "Shape": null, "id": "IT_RMIC841006", "name": "I.C.GIOVANNI PAOLO II", "lat": 41.7902533, "lon": 12.3476306, "city": "ROMA", "public_private": "PUBLIC" }, "geometry": { "type": "Point", "coordinates": [ 12.347630600000059, 41.790253300000074 ] } },
{ "type": "Feature", "properties": { "OBJECTID": 148612, "Shape": null, "id": "IT_TAAA849027", "name": "CAPPUCCETTO ROSSO", "lat": 40.58823, "lon": 17.11181, "city": "MASSAFRA", "public_private": "PUBLIC" }, "geometry": { "type": "Point", "coordinates": [ 17.11181, 40.58823 ] } },
{ "type": "Feature", "properties": { "OBJECTID": 148613, "Shape": null, "id": "IT_CATL031015", "name": "I.T.G. \"BACAREDDA\"", "lat": 39.22898, "lon": 9.12743, "city": "CAGLIARI", "public_private": "PUBLIC" }, "geometry": { "type": "Point", "coordinates": [ 9.12743, 39.22898 ] } },
{ "type": "Feature", "properties": { "OBJECTID": 148614, "Shape": null, "id": "IT_TOPS034015", "name": "I.I.S CURIE-VITTORINI", "lat": 45.06403, "lon": 7.59394, "city": "GRUGLIASCO", "public_private": "PUBLIC" }, "geometry": { "type": "Point", "coordinates": [ 7.59394, 45.06403 ] } },
{ "type": "Feature", "properties": { "OBJECTID": 148615, "Shape": null, "id": "IT_MIMM851019", "name": "SEC. I GRADO OTTOLINI", "lat": 45.61915, "lon": 8.94672, "city": "RESCALDINA", "public_private": "PUBLIC" }, "geometry": { "type": "Point", "coordinates": [ 8.94672, 45.61915 ] } },
{ "type": "Feature", "properties": { "OBJECTID": 148616, "Shape": null, "id": "IT_BLEE82201A", "name": "PUOS D'ALPAGO", "lat": 46.1385537, "lon": 12.3573079, "city": "ALPAGO", "public_private": "PUBLIC" }, "geometry": { "type": "Point", "coordinates": [ 12.357307900000023, 46.138553700000045 ] } },
{ "type": "Feature", "properties": { "OBJECTID": 148617, "Shape": null, "id": "IT_TPRC022019", "name": "IST. PROFESSIONALE \"SCIASCIA E BUFALINO\"", "lat": 38.02200445, "lon": 12.52574167, "city": "TRAPANI", "public_private": "PUBLIC" }, "geometry": { "type": "Point", "coordinates": [ 12.525741670000059, 38.022004450000054 ] } },
{ "type": "Feature", "properties": { "OBJECTID": 148618, "Shape": null, "id": "IT_MTTD06000B", "name": "I.T.COMM.GEOM.\"LOPERFIDO - OLIVETTI\"-MT", "lat": 40.66642, "lon": 16.60052, "city": "MATERA", "public_private": "PUBLIC" }, "geometry": { "type": "Point", "coordinates": [ 16.60052, 40.66642 ] } },
{ "type": "Feature", "properties": { "OBJECTID": 148619, "Shape": null, "id": "IT_PATL033012", "name": "FILIPPO - PARLATORE", "lat": 38.1154139, "lon": 13.3586832, "city": "PALERMO", "public_private": "PUBLIC" }, "geometry": { "type": "Point", "coordinates": [ 13.35868320000003, 38.115413900000078 ] } },
{ "type": "Feature", "properties": { "OBJECTID": 148620, "Shape": null, "id": "IT_AQCT70400E", "name": "CENTRO TERRITORIALE N. 3 SULMONA", "lat": 42.0523123, "lon": 13.9291879, "city": "SULMONA", "public_private": "PUBLIC" }, "geometry": { "type": "Point", "coordinates": [ 13.929187900000045, 42.05231230000004 ] } },
{ "type": "Feature", "properties": { "OBJECTID": 148621, "Shape": null, "id": "IT_MIPM070008", "name": "LICEO - ERASMO DA ROTTERDAM", "lat": 45.53485, "lon": 9.24313, "city": "SESTO SAN GIOVANNI", "public_private": "PUBLIC" }, "geometry": { "type": "Point", "coordinates": [ 9.24313, 45.53485 ] } },
{ "type": "Feature", "properties": { "OBJECTID": 148622, "Shape": null, "id": "IT_ATEE81201X", "name": "CALOSSO CAP.", "lat": 44.7376578, "lon": 8.2291812, "city": "CALOSSO", "public_private": "PUBLIC" }, "geometry": { "type": "Point", "coordinates": [ 8.229181200000028, 44.737657800000079 ] } },
{ "type": "Feature", "properties": { "OBJECTID": 148623, "Shape": null, "id": "IT_LUAA83902C", "name": "DARSENA", "lat": 43.86937, "lon": 10.24193, "city": "VIAREGGIO", "public_private": "PUBLIC" }, "geometry": { "type": "Point", "coordinates": [ 10.24193, 43.86937 ] } },
{ "type": "Feature", "properties": { "OBJECTID": 148624, "Shape": null, "id": "IT_RMMM87302Q", "name": "CANALE MONTERANO", "lat": 42.1391882, "lon": 12.1051563, "city": "CANALE MONTERANO", "public_private": "PUBLIC" }, "geometry": { "type": "Point", "coordinates": [ 12.105156300000033, 42.139188200000035 ] } },
{ "type": "Feature", "properties": { "OBJECTID": 148625, "Shape": null, "id": "IT_VEEE84005C", "name": "BERNARDINO ZENDRINI", "lat": 45.4461208, "lon": 12.3188554, "city": "VENEZIA", "public_private": "PUBLIC" }, "geometry": { "type": "Point", "coordinates": [ 12.318855400000075, 45.446120800000074 ] } },
{ "type": "Feature", "properties": { "OBJECTID": 148626, "Shape": null, "id": "IT_PDIC88600D", "name": "IX IC DI PADOVA \"CURBASTRO\"", "lat": 45.3984819, "lon": 11.88089264, "city": "PADOVA", "public_private": "PUBLIC" }, "geometry": { "type": "Point", "coordinates": [ 11.88089264000007, 45.398481900000036 ] } },
{ "type": "Feature", "properties": { "OBJECTID": 148627, "Shape": null, "id": "IT_PZMM87102B", "name": "I GRADO FILIANO", "lat": 40.81171, "lon": 15.70539, "city": "FILIANO", "public_private": "PUBLIC" }, "geometry": { "type": "Point", "coordinates": [ 15.70539, 40.81171 ] } },
{ "type": "Feature", "properties": { "OBJECTID": 148628, "Shape": null, "id": "IT_PDTD01701D", "name": "ITCG (S.A.IIS ALBERTI-ABANO)", "lat": 45.35853, "lon": 11.77179, "city": "ABANO TERME", "public_private": "PUBLIC" }, "geometry": { "type": "Point", "coordinates": [ 11.77179, 45.35853 ] } },
{ "type": "Feature", "properties": { "OBJECTID": 148629, "Shape": null, "id": "IT_NARI097024", "name": "IPIA \"E.FERRARI\" SEDE COORD. GRAGNANO", "lat": 40.69387, "lon": 14.5121, "city": "GRAGNANO", "public_private": "PUBLIC" }, "geometry": { "type": "Point", "coordinates": [ 14.5121, 40.69387 ] } },
{ "type": "Feature", "properties": { "OBJECTID": 148630, "Shape": null, "id": "IT_MCAA81004D", "name": "VIA GENTILI", "lat": 43.2316685, "lon": 13.1762822, "city": "SAN SEVERINO MARCHE", "public_private": "PUBLIC" }, "geometry": { "type": "Point", "coordinates": [ 13.17628220000006, 43.231668500000069 ] } },
{ "type": "Feature", "properties": { "OBJECTID": 148631, "Shape": null, "id": "IT_PAEE869012", "name": "I.C. FALCONE/F.RAFFO -T. PESCIA", "lat": 38.17792, "lon": 13.31897, "city": "PALERMO", "public_private": "PUBLIC" }, "geometry": { "type": "Point", "coordinates": [ 13.31897, 38.17792 ] } },
{ "type": "Feature", "properties": { "OBJECTID": 148632, "Shape": null, "id": "IT_BOAA82701G", "name": "RITA CALDARONE - MINERBIO", "lat": 44.6196, "lon": 11.48951, "city": "MINERBIO", "public_private": "PUBLIC" }, "geometry": { "type": "Point", "coordinates": [ 11.48951, 44.6196 ] } },
{ "type": "Feature", "properties": { "OBJECTID": 148633, "Shape": null, "id": "IT_TPAA83702T", "name": "ASILO PRIMAVERA", "lat": 38.04235, "lon": 12.62749, "city": "VALDERICE", "public_private": "PUBLIC" }, "geometry": { "type": "Point", "coordinates": [ 12.62749, 38.04235 ] } },
{ "type": "Feature", "properties": { "OBJECTID": 148634, "Shape": null, "id": "IT_BIEE81401D", "name": "BIELLA-CHIAVAZZA \"XXV APRILE\"", "lat": 45.57345, "lon": 8.06494, "city": "BIELLA", "public_private": "PUBLIC" }, "geometry": { "type": "Point", "coordinates": [ 8.06494, 45.57345 ] } },
{ "type": "Feature", "properties": { "OBJECTID": 148635, "Shape": null, "id": "IT_FGEE842018", "name": "CAPPUCCINI", "lat": 41.5123371, "lon": 15.3389521, "city": "LUCERA", "public_private": "PUBLIC" }, "geometry": { "type": "Point", "coordinates": [ 15.338952100000029, 41.512337100000025 ] } },
{ "type": "Feature", "properties": { "OBJECTID": 148636, "Shape": null, "id": "IT_VRAA851015", "name": "APORTI FERRANTE", "lat": 45.47283055, "lon": 10.92790556, "city": "VERONA", "public_private": "PUBLIC" }, "geometry": { "type": "Point", "coordinates": [ 10.927905560000056, 45.472830550000026 ] } },
{ "type": "Feature", "properties": { "OBJECTID": 148637, "Shape": null, "id": "IT_GEIC858009", "name": "I.C. AVEGNO-CAMOGLI-RECCO-USCIO", "lat": 44.36407, "lon": 9.14381, "city": "RECCO", "public_private": "PUBLIC" }, "geometry": { "type": "Point", "coordinates": [ 9.14381, 44.36407 ] } },
{ "type": "Feature", "properties": { "OBJECTID": 148638, "Shape": null, "id": "IT_BSEE81801L", "name": "PRIMARIA DI CAPO DI PONTE", "lat": 46.0294206, "lon": 10.3409332, "city": "CAPO DI PONTE", "public_private": "PUBLIC" }, "geometry": { "type": "Point", "coordinates": [ 10.340933200000052, 46.029420600000037 ] } },
{ "type": "Feature", "properties": { "OBJECTID": 148639, "Shape": null, "id": "IT_SRAA80501D", "name": "I.C. \"N. MARTOGLIO\" SIRACUSA", "lat": 37.0960377, "lon": 15.2785383, "city": "SIRACUSA", "public_private": "PUBLIC" }, "geometry": { "type": "Point", "coordinates": [ 15.278538300000037, 37.096037700000068 ] } },
{ "type": "Feature", "properties": { "OBJECTID": 148640, "Shape": null, "id": "IT_FRAA86005T", "name": "FROSINONE S.MAGNO", "lat": 41.63177, "lon": 13.36604, "city": "FROSINONE", "public_private": "PUBLIC" }, "geometry": { "type": "Point", "coordinates": [ 13.36604, 41.63177 ] } },
{ "type": "Feature", "properties": { "OBJECTID": 148641, "Shape": null, "id": "IT_CNIC82800P", "name": "DRONERO \"GIOVANNI GIOLITTI\"", "lat": 44.46875, "lon": 7.35568, "city": "DRONERO", "public_private": "PUBLIC" }, "geometry": { "type": "Point", "coordinates": [ 7.35568, 44.46875 ] } },
{ "type": "Feature", "properties": { "OBJECTID": 148642, "Shape": null, "id": "IT_AQAA83901D", "name": "\"ALDO MORO\" CIVITELLA ROVETO", "lat": 41.91457, "lon": 13.42524, "city": "CIVITELLA ROVETO", "public_private": "PUBLIC" }, "geometry": { "type": "Point", "coordinates": [ 13.42524, 41.91457 ] } },
{ "type": "Feature", "properties": { "OBJECTID": 148643, "Shape": null, "id": "IT_VAIC86800G", "name": "IC GAVIRATE CARDUCCI", "lat": 45.84505, "lon": 8.70924, "city": "GAVIRATE", "public_private": "PUBLIC" }, "geometry": { "type": "Point", "coordinates": [ 8.70924, 45.84505 ] } },
{ "type": "Feature", "properties": { "OBJECTID": 148644, "Shape": null, "id": "IT_PZEE84202C", "name": "FOGGIANO - IC \"FER.MAR.\" MELFI", "lat": 40.95807, "lon": 15.57395, "city": "MELFI", "public_private": "PUBLIC" }, "geometry": { "type": "Point", "coordinates": [ 15.57395, 40.95807 ] } },
{ "type": "Feature", "properties": { "OBJECTID": 148645, "Shape": null, "id": "IT_SAEE8AG031", "name": "PETINA CAP - \"G.PASCOLI\"", "lat": 40.53272, "lon": 15.37221, "city": "PETINA", "public_private": "PUBLIC" }, "geometry": { "type": "Point", "coordinates": [ 15.37221, 40.53272 ] } },
{ "type": "Feature", "properties": { "OBJECTID": 148646, "Shape": null, "id": "IT_MSEE81305G", "name": "\"GIOVANNI SFORZA\" LOC. PIAZZA", "lat": 44.0136985, "lon": 10.1744473, "city": "MONTIGNOSO", "public_private": "PUBLIC" }, "geometry": { "type": "Point", "coordinates": [ 10.174447300000054, 44.013698500000032 ] } },
{ "type": "Feature", "properties": { "OBJECTID": 148647, "Shape": null, "id": "IT_VRPS020006", "name": "LICEO \"GALILEO GALILEI\"", "lat": 45.40975, "lon": 10.98946, "city": "VERONA", "public_private": "PUBLIC" }, "geometry": { "type": "Point", "coordinates": [ 10.98946, 45.40975 ] } },
{ "type": "Feature", "properties": { "OBJECTID": 148648, "Shape": null, "id": "IT_BAAA81201V", "name": "\"VITO DE FANO\" - 25 C.D.", "lat": 41.12935, "lon": 16.78582, "city": "BARI", "public_private": "PUBLIC" }, "geometry": { "type": "Point", "coordinates": [ 16.78582, 41.12935 ] } },
{ "type": "Feature", "properties": { "OBJECTID": 148649, "Shape": null, "id": "IT_TOEE87801A", "name": "I.C. UMBERTO SABA - GALIMBERTI", "lat": 45.1022174, "lon": 7.6774834, "city": "TORINO", "public_private": "PUBLIC" }, "geometry": { "type": "Point", "coordinates": [ 7.677483400000028, 45.102217400000029 ] } },
{ "type": "Feature", "properties": { "OBJECTID": 148650, "Shape": null, "id": "IT_CSAA855028", "name": "SPEZZANO SILA - CAMIGLIATELLO", "lat": 39.34294, "lon": 16.45611, "city": "SPEZZANO DELLA SILA", "public_private": "PUBLIC" }, "geometry": { "type": "Point", "coordinates": [ 16.45611, 39.34294 ] } },
{ "type": "Feature", "properties": { "OBJECTID": 148651, "Shape": null, "id": "IT_CSMM8A001T", "name": "SM TREBISACCE", "lat": 39.87143, "lon": 16.53479, "city": "TREBISACCE", "public_private": "PUBLIC" }, "geometry": { "type": "Point", "coordinates": [ 16.53479, 39.87143 ] } },
{ "type": "Feature", "properties": { "OBJECTID": 148652, "Shape": null, "id": "IT_NOIC80700P", "name": "P. FORNARA - CARPIGNANO SESIA", "lat": 45.53489, "lon": 8.42209, "city": "CARPIGNANO SESIA", "public_private": "PUBLIC" }, "geometry": { "type": "Point", "coordinates": [ 8.42209, 45.53489 ] } },
{ "type": "Feature", "properties": { "OBJECTID": 148653, "Shape": null, "id": "IT_MEEE89805C", "name": "PORTOSALVO", "lat": 38.14448, "lon": 15.18895, "city": "BARCELLONA POZZO DI GOTTO", "public_private": "PUBLIC" }, "geometry": { "type": "Point", "coordinates": [ 15.18895, 38.14448 ] } },
{ "type": "Feature", "properties": { "OBJECTID": 148654, "Shape": null, "id": "IT_CBEE85403Q", "name": "SCUOLA ELEMEN. \"PANTANO BASSO\"", "lat": 41.9646824, "lon": 15.0167535, "city": "TERMOLI", "public_private": "PUBLIC" }, "geometry": { "type": "Point", "coordinates": [ 15.01675350000005, 41.964682400000072 ] } },
{ "type": "Feature", "properties": { "OBJECTID": 148655, "Shape": null, "id": "IT_CHIC825004", "name": "I.C. PALENA-TORRIC. PELIGNA", "lat": 41.98542, "lon": 14.13534, "city": "PALENA", "public_private": "PUBLIC" }, "geometry": { "type": "Point", "coordinates": [ 14.13534, 41.98542 ] } },
{ "type": "Feature", "properties": { "OBJECTID": 148656, "Shape": null, "id": "IT_UDAA80903D", "name": "DOTT. LUIGI COVASSI", "lat": 43.7766204, "lon": 11.06422591, "city": "OVARO", "public_private": "PUBLIC" }, "geometry": { "type": "Point", "coordinates": [ 11.064225910000062, 43.77662040000007 ] } },
{ "type": "Feature", "properties": { "OBJECTID": 148657, "Shape": null, "id": "IT_ALIC82200B", "name": "\"DON MILANI\" - TICINETO", "lat": 45.09711, "lon": 8.54897, "city": "TICINETO", "public_private": "PUBLIC" }, "geometry": { "type": "Point", "coordinates": [ 8.54897, 45.09711 ] } },
{ "type": "Feature", "properties": { "OBJECTID": 148658, "Shape": null, "id": "IT_SAIC89800D", "name": "IST.COMPR. SIANO", "lat": 40.8014922, "lon": 14.6966934, "city": "SIANO", "public_private": "PUBLIC" }, "geometry": { "type": "Point", "coordinates": [ 14.696693400000072, 40.801492200000041 ] } },
{ "type": "Feature", "properties": { "OBJECTID": 148659, "Shape": null, "id": "IT_REEE85301L", "name": "S.FRANCESCO D'ASSISI", "lat": 44.7774949, "lon": 10.7777859, "city": "CORREGGIO", "public_private": "PUBLIC" }, "geometry": { "type": "Point", "coordinates": [ 10.777785900000026, 44.777494900000079 ] } },
{ "type": "Feature", "properties": { "OBJECTID": 148660, "Shape": null, "id": "IT_CEEE8AZ07C", "name": "SESSA AURUNCA-PIEDIMONTE-D.D.2-", "lat": 41.18932, "lon": 13.90042, "city": "SESSA AURUNCA", "public_private": "PUBLIC" }, "geometry": { "type": "Point", "coordinates": [ 13.90042, 41.18932 ] } },
{ "type": "Feature", "properties": { "OBJECTID": 148661, "Shape": null, "id": "IT_MIPS03000R", "name": "L. SCIENTIFICO - L. DA VINCI", "lat": 45.4630959, "lon": 9.202246273, "city": "MILANO", "public_private": "PUBLIC" }, "geometry": { "type": "Point", "coordinates": [ 9.202246273000071, 45.463095900000042 ] } },
{ "type": "Feature", "properties": { "OBJECTID": 148662, "Shape": null, "id": "IT_TVEE841036", "name": "O.DE GASPARI FALZE' DI P.", "lat": 45.86001, "lon": 12.1732, "city": "SERNAGLIA DELLA BATTAGLIA", "public_private": "PUBLIC" }, "geometry": { "type": "Point", "coordinates": [ 12.1732, 45.86001 ] } },
{ "type": "Feature", "properties": { "OBJECTID": 148663, "Shape": null, "id": "IT_NUTD01901L", "name": "ITCG \"S. SATTA\" MACOMER", "lat": 40.26556, "lon": 8.77357, "city": "MACOMER", "public_private": "PUBLIC" }, "geometry": { "type": "Point", "coordinates": [ 8.77357, 40.26556 ] } },
{ "type": "Feature", "properties": { "OBJECTID": 148664, "Shape": null, "id": "IT_SAAA857014", "name": "VASSI S.LORENZO", "lat": 40.72246, "lon": 14.94753, "city": "GIFFONI VALLE PIANA", "public_private": "PUBLIC" }, "geometry": { "type": "Point", "coordinates": [ 14.94753, 40.72246 ] } },
{ "type": "Feature", "properties": { "OBJECTID": 148665, "Shape": null, "id": "IT_VEAA81802V", "name": "CARLO COLLODI", "lat": 45.7561044, "lon": 12.8449558, "city": "CONCORDIA SAGITTARIA", "public_private": "PUBLIC" }, "geometry": { "type": "Point", "coordinates": [ 12.844955800000037, 45.756104400000027 ] } },
{ "type": "Feature", "properties": { "OBJECTID": 148666, "Shape": null, "id": "IT_AGAA847089", "name": "DE AMICIS", "lat": 37.1963, "lon": 13.76254, "city": "PALMA DI MONTECHIARO", "public_private": "PUBLIC" }, "geometry": { "type": "Point", "coordinates": [ 13.76254, 37.1963 ] } },
{ "type": "Feature", "properties": { "OBJECTID": 148667, "Shape": null, "id": "IT_AQEE824055", "name": "CAPPELLE", "lat": 42.06718, "lon": 13.37998, "city": "SCURCOLA MARSICANA", "public_private": "PUBLIC" }, "geometry": { "type": "Point", "coordinates": [ 13.37998, 42.06718 ] } },
{ "type": "Feature", "properties": { "OBJECTID": 148668, "Shape": null, "id": "IT_LEIC836009", "name": "I.C. MINERVINO", "lat": 40.0887, "lon": 18.42277, "city": "MINERVINO DI LECCE", "public_private": "PUBLIC" }, "geometry": { "type": "Point", "coordinates": [ 18.42277, 40.0887 ] } },
{ "type": "Feature", "properties": { "OBJECTID": 148669, "Shape": null, "id": "IT_NAAA8DL04V", "name": "POZZUOLI I.C. 2 DIAZ M. SERAO", "lat": 40.864163, "lon": 14.0794772, "city": "POZZUOLI", "public_private": "PUBLIC" }, "geometry": { "type": "Point", "coordinates": [ 14.079477200000042, 40.864163 ] } },
{ "type": "Feature", "properties": { "OBJECTID": 148670, "Shape": null, "id": "IT_CEMM8BE04G", "name": "TORA E PICCILLI SS. MARZANO A.", "lat": 41.33711, "lon": 14.02015, "city": "TORA E PICCILLI", "public_private": "PUBLIC" }, "geometry": { "type": "Point", "coordinates": [ 14.02015, 41.33711 ] } },
{ "type": "Feature", "properties": { "OBJECTID": 148671, "Shape": null, "id": "IT_CEEE87403R", "name": "S.MARCELLINO-S.CROCE -D.D.-", "lat": 40.9958643, "lon": 14.1677827, "city": "SAN MARCELLINO", "public_private": "PUBLIC" }, "geometry": { "type": "Point", "coordinates": [ 14.167782700000032, 40.995864300000051 ] } },
{ "type": "Feature", "properties": { "OBJECTID": 148672, "Shape": null, "id": "IT_CZAA869044", "name": "SATRIANO -LAGANOSA-IC SOVERATO", "lat": 38.67744, "lon": 16.54551, "city": "SATRIANO", "public_private": "PUBLIC" }, "geometry": { "type": "Point", "coordinates": [ 16.54551, 38.67744 ] } },
{ "type": "Feature", "properties": { "OBJECTID": 148673, "Shape": null, "id": "IT_RAIC81200T", "name": "I.C. CORSO MATTEOTTI ALFONSINE", "lat": 44.5073363, "lon": 12.0361284, "city": "ALFONSINE", "public_private": "PUBLIC" }, "geometry": { "type": "Point", "coordinates": [ 12.036128400000052, 44.507336300000077 ] } },
{ "type": "Feature", "properties": { "OBJECTID": 148674, "Shape": null, "id": "IT_LEAA8AP03V", "name": "CASTIGLIONE -VIA DELEDDA", "lat": 40.0111492, "lon": 18.1504664, "city": "ANDRANO", "public_private": "PUBLIC" }, "geometry": { "type": "Point", "coordinates": [ 18.150466400000028, 40.011149200000034 ] } },
{ "type": "Feature", "properties": { "OBJECTID": 148675, "Shape": null, "id": "IT_BOEE84401E", "name": "PAPA GIOVANNI PAOLO II-CASTE G.", "lat": 44.4333, "lon": 11.68004, "city": "CASTEL GUELFO DI BOLOGNA", "public_private": "PUBLIC" }, "geometry": { "type": "Point", "coordinates": [ 11.68004, 44.4333 ] } },
{ "type": "Feature", "properties": { "OBJECTID": 148676, "Shape": null, "id": "IT_RGPS006016", "name": "LICEO \"G. LA PIRA\"", "lat": 36.7337983, "lon": 14.8328781, "city": "POZZALLO", "public_private": "PUBLIC" }, "geometry": { "type": "Point", "coordinates": [ 14.832878100000073, 36.733798300000046 ] } },
{ "type": "Feature", "properties": { "OBJECTID": 148677, "Shape": null, "id": "IT_NAEE8D2026", "name": "BOSCOREALE IC 1 CANGEMI SALOME'", "lat": 40.7776041, "lon": 14.4749061, "city": "BOSCOREALE", "public_private": "PUBLIC" }, "geometry": { "type": "Point", "coordinates": [ 14.474906100000055, 40.777604100000076 ] } },
{ "type": "Feature", "properties": { "OBJECTID": 148678, "Shape": null, "id": "IT_BGAA81401G", "name": "SCUOLA DELL'INFANZIA ARCOBALENO", "lat": 45.69832, "lon": 9.68049, "city": "BERGAMO", "public_private": "PUBLIC" }, "geometry": { "type": "Point", "coordinates": [ 9.68049, 45.69832 ] } },
{ "type": "Feature", "properties": { "OBJECTID": 148679, "Shape": null, "id": "IT_RNAA018044", "name": "SANT'AGATA DI CANONICA(CD 2 S.A", "lat": 44.04098, "lon": 12.41407, "city": "SANTARCANGELO DI ROMAGNA", "public_private": "PUBLIC" }, "geometry": { "type": "Point", "coordinates": [ 12.41407, 44.04098 ] } },
{ "type": "Feature", "properties": { "OBJECTID": 148680, "Shape": null, "id": "IT_KRMM81701B", "name": "S.M.PALLAGORIO", "lat": 39.3075, "lon": 16.90996, "city": "PALLAGORIO", "public_private": "PUBLIC" }, "geometry": { "type": "Point", "coordinates": [ 16.90996, 39.3075 ] } },
{ "type": "Feature", "properties": { "OBJECTID": 148681, "Shape": null, "id": "IT_SIEE81304C", "name": "ANGELI DI S.GIULIANO DI PUGLIA", "lat": 42.87586, "lon": 11.8754, "city": "SAN CASCIANO DEI BAGNI", "public_private": "PUBLIC" }, "geometry": { "type": "Point", "coordinates": [ 11.8754, 42.87586 ] } },
{ "type": "Feature", "properties": { "OBJECTID": 148682, "Shape": null, "id": "IT_CAMM84201Q", "name": "A.GRAMSCI (DECIMOPUTZU)", "lat": 39.33386, "lon": 8.91213, "city": "DECIMOPUTZU", "public_private": "PUBLIC" }, "geometry": { "type": "Point", "coordinates": [ 8.91213, 39.33386 ] } },
{ "type": "Feature", "properties": { "OBJECTID": 148683, "Shape": null, "id": "IT_BLEE810058", "name": "FRAZ. REANE", "lat": 46.56173, "lon": 12.41923, "city": "AURONZO DI CADORE", "public_private": "PUBLIC" }, "geometry": { "type": "Point", "coordinates": [ 12.41923, 46.56173 ] } },
{ "type": "Feature", "properties": { "OBJECTID": 148684, "Shape": null, "id": "IT_SSAA800052", "name": "MARTIS SCUOLA MATERNA STATALE", "lat": 40.77825, "lon": 8.808, "city": "MARTIS", "public_private": "PUBLIC" }, "geometry": { "type": "Point", "coordinates": [ 8.808, 40.77825 ] } },
{ "type": "Feature", "properties": { "OBJECTID": 148685, "Shape": null, "id": "IT_VBEE00302G", "name": "SCUOLA ELEMENTARE DI TRONTANO", "lat": 46.12282, "lon": 8.3337, "city": "TRONTANO", "public_private": "PUBLIC" }, "geometry": { "type": "Point", "coordinates": [ 8.3337, 46.12282 ] } },
{ "type": "Feature", "properties": { "OBJECTID": 148686, "Shape": null, "id": "IT_VETF04000T", "name": "CARLO ZUCCANTE", "lat": 45.49527185, "lon": 12.25795641, "city": "VENEZIA", "public_private": "PUBLIC" }, "geometry": { "type": "Point", "coordinates": [ 12.257956410000077, 45.495271850000051 ] } },
{ "type": "Feature", "properties": { "OBJECTID": 148687, "Shape": null, "id": "IT_BSEE854083", "name": "ALPINI BRESCIANI", "lat": 45.81076, "lon": 10.31778, "city": "COLLIO", "public_private": "PUBLIC" }, "geometry": { "type": "Point", "coordinates": [ 10.31778, 45.81076 ] } },
{ "type": "Feature", "properties": { "OBJECTID": 148688, "Shape": null, "id": "IT_BOEE876012", "name": "GUIDI - I.C. N. 17 BOLOGNA", "lat": 44.50044, "lon": 11.33099, "city": "BOLOGNA", "public_private": "PUBLIC" }, "geometry": { "type": "Point", "coordinates": [ 11.33099, 44.50044 ] } },
{ "type": "Feature", "properties": { "OBJECTID": 148689, "Shape": null, "id": "IT_GEAA858027", "name": "S. INFANZIA S. ROCCO DI RECCO", "lat": 44.37683, "lon": 9.15345, "city": "RECCO", "public_private": "PUBLIC" }, "geometry": { "type": "Point", "coordinates": [ 9.15345, 44.37683 ] } },
{ "type": "Feature", "properties": { "OBJECTID": 148690, "Shape": null, "id": "IT_COCT70400Q", "name": "C.T.P. \"REZIA\"", "lat": 46.02153, "lon": 9.24028, "city": "MENAGGIO", "public_private": "PUBLIC" }, "geometry": { "type": "Point", "coordinates": [ 9.24028, 46.02153 ] } },
{ "type": "Feature", "properties": { "OBJECTID": 148691, "Shape": null, "id": "IT_FIEE833016", "name": "\"SANDRO PERTINI\" S. GIUSTO", "lat": 43.7582034, "lon": 11.1972229, "city": "SCANDICCI", "public_private": "PUBLIC" }, "geometry": { "type": "Point", "coordinates": [ 11.197222900000043, 43.75820340000007 ] } },
{ "type": "Feature", "properties": { "OBJECTID": 148692, "Shape": null, "id": "IT_PSAA015057", "name": "FANO S.LAZZARO - METAURILIA", "lat": 43.783221, "lon": 13.1172089, "city": "FANO", "public_private": "PUBLIC" }, "geometry": { "type": "Point", "coordinates": [ 13.117208900000037, 43.783221 ] } },
{ "type": "Feature", "properties": { "OBJECTID": 148693, "Shape": null, "id": "IT_LUAA82501D", "name": "CASTIGLIONE", "lat": 44.1820226, "lon": 10.5064167, "city": "CASTIGLIONE DI GARFAGNANA", "public_private": "PUBLIC" }, "geometry": { "type": "Point", "coordinates": [ 10.506416700000045, 44.182022600000039 ] } },
{ "type": "Feature", "properties": { "OBJECTID": 148694, "Shape": null, "id": "IT_VETN01601N", "name": "FRANCESCO ALGAROTTI", "lat": 45.4421676, "lon": 12.3234807, "city": "VENEZIA", "public_private": "PUBLIC" }, "geometry": { "type": "Point", "coordinates": [ 12.323480700000061, 45.442167600000062 ] } },
{ "type": "Feature", "properties": { "OBJECTID": 148695, "Shape": null, "id": "IT_RCAA812065", "name": "MOTTA SAN GIOVANNI C.DA OLIVETO", "lat": 37.9782097, "lon": 15.6632604, "city": "MOTTA SAN GIOVANNI", "public_private": "PUBLIC" }, "geometry": { "type": "Point", "coordinates": [ 15.66326040000007, 37.978209700000036 ] } },
{ "type": "Feature", "properties": { "OBJECTID": 148696, "Shape": null, "id": "IT_NAAA03802A", "name": "NA 38 - ANIELLO FALCONE", "lat": 40.84382, "lon": 14.23056, "city": "NAPOLI", "public_private": "PUBLIC" }, "geometry": { "type": "Point", "coordinates": [ 14.23056, 40.84382 ] } },
{ "type": "Feature", "properties": { "OBJECTID": 148697, "Shape": null, "id": "IT_VRAA84002Q", "name": "S.MARTINO B.A. - \"S. ANTONIO\"", "lat": 45.42751, "lon": 11.08224, "city": "SAN MARTINO BUON ALBERGO", "public_private": "PUBLIC" }, "geometry": { "type": "Point", "coordinates": [ 11.08224, 45.42751 ] } },
{ "type": "Feature", "properties": { "OBJECTID": 148698, "Shape": null, "id": "IT_VRMM85502N", "name": "SAN PIETRO DI MORUBIO", "lat": 45.2429863, "lon": 11.2281869, "city": "SAN PIETRO DI MORUBIO", "public_private": "PUBLIC" }, "geometry": { "type": "Point", "coordinates": [ 11.228186900000026, 45.242986300000041 ] } },
{ "type": "Feature", "properties": { "OBJECTID": 148699, "Shape": null, "id": "IT_ANEE80501A", "name": "BELVEDERE OSTRENSE \"E. MEDI\"", "lat": 43.5852521, "lon": 13.1939149, "city": "BELVEDERE OSTRENSE", "public_private": "PUBLIC" }, "geometry": { "type": "Point", "coordinates": [ 13.193914900000038, 43.585252100000048 ] } },
{ "type": "Feature", "properties": { "OBJECTID": 148700, "Shape": null, "id": "IT_FRAA85905N", "name": "FROSINONE GIANNI RODARI", "lat": 41.6351, "lon": 13.33747, "city": "FROSINONE", "public_private": "PUBLIC" }, "geometry": { "type": "Point", "coordinates": [ 13.33747, 41.6351 ] } },
{ "type": "Feature", "properties": { "OBJECTID": 148701, "Shape": null, "id": "IT_SAEE830019", "name": "CASTEL S. LORENZO CAP.P.P.", "lat": 40.41882, "lon": 15.22598, "city": "CASTEL SAN LORENZO", "public_private": "PUBLIC" }, "geometry": { "type": "Point", "coordinates": [ 15.22598, 40.41882 ] } },
{ "type": "Feature", "properties": { "OBJECTID": 148702, "Shape": null, "id": "IT_SAAA8AX01N", "name": "VIA COLOMBO", "lat": 40.61992, "lon": 14.9438, "city": "BELLIZZI", "public_private": "PUBLIC" }, "geometry": { "type": "Point", "coordinates": [ 14.9438, 40.61992 ] } },
{ "type": "Feature", "properties": { "OBJECTID": 148703, "Shape": null, "id": "IT_CNAA82403A", "name": "S.STEFANO BELBO", "lat": 44.7074313, "lon": 8.2296004, "city": "SANTO STEFANO BELBO", "public_private": "PUBLIC" }, "geometry": { "type": "Point", "coordinates": [ 8.229600400000038, 44.707431300000053 ] } },
{ "type": "Feature", "properties": { "OBJECTID": 148704, "Shape": null, "id": "IT_SRAA85901T", "name": "IV I.C. NOTO \"ANTONINO FOCA'\"", "lat": 36.89049, "lon": 15.06757, "city": "NOTO", "public_private": "PUBLIC" }, "geometry": { "type": "Point", "coordinates": [ 15.06757, 36.89049 ] } },
{ "type": "Feature", "properties": { "OBJECTID": 148705, "Shape": null, "id": "IT_REEE844041", "name": "PUIANELLO \"L.TEMPESTA\"", "lat": 44.6308014, "lon": 10.5665557, "city": "QUATTRO CASTELLA", "public_private": "PUBLIC" }, "geometry": { "type": "Point", "coordinates": [ 10.566555700000038, 44.630801400000053 ] } },
{ "type": "Feature", "properties": { "OBJECTID": 148706, "Shape": null, "id": "IT_RMEE8F001N", "name": "LOLA DI STEFANO", "lat": 41.86813, "lon": 12.44513, "city": "ROMA", "public_private": "PUBLIC" }, "geometry": { "type": "Point", "coordinates": [ 12.44513, 41.86813 ] } },
{ "type": "Feature", "properties": { "OBJECTID": 148707, "Shape": null, "id": "IT_TRMM816015", "name": "MONTECASTRILLI \"TEN.F.PETRUCCI\"", "lat": 42.6531775, "lon": 12.4883046, "city": "MONTECASTRILLI", "public_private": "PUBLIC" }, "geometry": { "type": "Point", "coordinates": [ 12.488304600000049, 42.653177500000027 ] } },
{ "type": "Feature", "properties": { "OBJECTID": 148708, "Shape": null, "id": "IT_RNAA018011", "name": "BIANCANEVE (CD 2 S.ARCANGELO)", "lat": 44.03328, "lon": 12.48569, "city": "SANTARCANGELO DI ROMAGNA", "public_private": "PUBLIC" }, "geometry": { "type": "Point", "coordinates": [ 12.48569, 44.03328 ] } },
{ "type": "Feature", "properties": { "OBJECTID": 148709, "Shape": null, "id": "IT_VEIS026004", "name": "BENEDETTI-TOMMASEO", "lat": 45.4383, "lon": 12.34595, "city": "VENEZIA", "public_private": "PUBLIC" }, "geometry": { "type": "Point", "coordinates": [ 12.34595, 45.4383 ] } },
{ "type": "Feature", "properties": { "OBJECTID": 148710, "Shape": null, "id": "IT_KRMM804019", "name": "SCUOLA MEDIA STAT.ROCCA DI NETO", "lat": 39.18385, "lon": 17.00752, "city": "ROCCA DI NETO", "public_private": "PUBLIC" }, "geometry": { "type": "Point", "coordinates": [ 17.00752, 39.18385 ] } },
{ "type": "Feature", "properties": { "OBJECTID": 148711, "Shape": null, "id": "IT_APEE825027", "name": "PRIMARIA PIANE DI FALERONE", "lat": 37.0933715, "lon": 15.2084602, "city": "FALERONE", "public_private": "PUBLIC" }, "geometry": { "type": "Point", "coordinates": [ 15.208460200000047, 37.093371500000046 ] } },
{ "type": "Feature", "properties": { "OBJECTID": 148712, "Shape": null, "id": "IT_NAEE8CL01A", "name": "T. GRECO IC 1 - G. MAZZA", "lat": 40.79063, "lon": 14.36868, "city": "TORRE DEL GRECO", "public_private": "PUBLIC" }, "geometry": { "type": "Point", "coordinates": [ 14.36868, 40.79063 ] } },
{ "type": "Feature", "properties": { "OBJECTID": 148713, "Shape": null, "id": "IT_PZAA885025", "name": "INFANZIA \"BELVEDERE\" - SENISE", "lat": 43.2119723, "lon": 11.7326646, "city": "SENISE", "public_private": "PUBLIC" }, "geometry": { "type": "Point", "coordinates": [ 11.732664600000021, 43.21197230000007 ] } },
{ "type": "Feature", "properties": { "OBJECTID": 148714, "Shape": null, "id": "IT_AVMM84306A", "name": "P.ZZA B. AMATUCCI SAN POTITO U.", "lat": 40.92828, "lon": 14.87297, "city": "SAN POTITO ULTRA", "public_private": "PUBLIC" }, "geometry": { "type": "Point", "coordinates": [ 14.87297, 40.92828 ] } },
{ "type": "Feature", "properties": { "OBJECTID": 148715, "Shape": null, "id": "IT_TAAA849016", "name": "PINOCCHIO", "lat": 40.59765, "lon": 17.11825, "city": "MASSAFRA", "public_private": "PUBLIC" }, "geometry": { "type": "Point", "coordinates": [ 17.11825, 40.59765 ] } },
{ "type": "Feature", "properties": { "OBJECTID": 148716, "Shape": null, "id": "IT_MIIC8A5005", "name": "IC MARTIRI DELLA LIBERTA", "lat": 45.52914, "lon": 9.23168, "city": "SESTO SAN GIOVANNI", "public_private": "PUBLIC" }, "geometry": { "type": "Point", "coordinates": [ 9.23168, 45.52914 ] } },
{ "type": "Feature", "properties": { "OBJECTID": 148717, "Shape": null, "id": "IT_COIC80700A", "name": "I.C. OLGIATE COMASCO", "lat": 45.7853471, "lon": 8.9691252, "city": "OLGIATE COMASCO", "public_private": "PUBLIC" }, "geometry": { "type": "Point", "coordinates": [ 8.969125200000065, 45.785347100000081 ] } },
{ "type": "Feature", "properties": { "OBJECTID": 148718, "Shape": null, "id": "IT_POAA82101P", "name": "VIA FERRUCCI", "lat": 43.8966999, "lon": 11.1009141, "city": "PRATO", "public_private": "PUBLIC" }, "geometry": { "type": "Point", "coordinates": [ 11.100914100000068, 43.896699900000044 ] } },
{ "type": "Feature", "properties": { "OBJECTID": 148719, "Shape": null, "id": "IT_VTAA81901X", "name": "SCUOLA INFANZIA BOLSENA", "lat": 42.640719, "lon": 11.9919083, "city": "BOLSENA", "public_private": "PUBLIC" }, "geometry": { "type": "Point", "coordinates": [ 11.991908300000034, 42.640719 ] } },
{ "type": "Feature", "properties": { "OBJECTID": 148720, "Shape": null, "id": "IT_CTEE8AK02P", "name": "CARRABBA", "lat": 37.74971, "lon": 15.19465, "city": "MASCALI", "public_private": "PUBLIC" }, "geometry": { "type": "Point", "coordinates": [ 15.19465, 37.74971 ] } },
{ "type": "Feature", "properties": { "OBJECTID": 148721, "Shape": null, "id": "IT_NAIC8FN00Q", "name": "PROCIDA CAPRARO", "lat": 40.14369, "lon": 15.35892, "city": "PROCIDA", "public_private": "PUBLIC" }, "geometry": { "type": "Point", "coordinates": [ 15.35892, 40.14369 ] } },
{ "type": "Feature", "properties": { "OBJECTID": 148722, "Shape": null, "id": "IT_SSMM81101C", "name": "CASTELSARDO -ELEONORA D'ARBOREA", "lat": 40.91394, "lon": 8.71345, "city": "CASTELSARDO", "public_private": "PUBLIC" }, "geometry": { "type": "Point", "coordinates": [ 8.71345, 40.91394 ] } },
{ "type": "Feature", "properties": { "OBJECTID": 148723, "Shape": null, "id": "IT_PRIC84000A", "name": "I. C. FIDENZA", "lat": 44.86395745, "lon": 10.06057464, "city": "FIDENZA", "public_private": "PUBLIC" }, "geometry": { "type": "Point", "coordinates": [ 10.060574640000027, 44.863957450000044 ] } },
{ "type": "Feature", "properties": { "OBJECTID": 148724, "Shape": null, "id": "IT_CNIC82200Q", "name": "CANALE", "lat": 44.7953631, "lon": 7.9942688, "city": "CANALE", "public_private": "PUBLIC" }, "geometry": { "type": "Point", "coordinates": [ 7.994268800000043, 44.795363100000031 ] } },
{ "type": "Feature", "properties": { "OBJECTID": 148725, "Shape": null, "id": "IT_RAAA81201P", "name": "\"IL BRUCO\"", "lat": 44.50389, "lon": 12.04071, "city": "ALFONSINE", "public_private": "PUBLIC" }, "geometry": { "type": "Point", "coordinates": [ 12.04071, 44.50389 ] } },
{ "type": "Feature", "properties": { "OBJECTID": 148726, "Shape": null, "id": "IT_MEMM813017", "name": "\"SANZO\" CAPIZZI", "lat": 37.8519, "lon": 14.48096, "city": "CAPIZZI", "public_private": "PUBLIC" }, "geometry": { "type": "Point", "coordinates": [ 14.48096, 37.8519 ] } },
{ "type": "Feature", "properties": { "OBJECTID": 148727, "Shape": null, "id": "IT_POAA80704G", "name": "CANTAGALLO-FRAZ. CARMIGNANELLO", "lat": 43.98634, "lon": 11.13045, "city": "CANTAGALLO", "public_private": "PUBLIC" }, "geometry": { "type": "Point", "coordinates": [ 11.13045, 43.98634 ] } },
{ "type": "Feature", "properties": { "OBJECTID": 148728, "Shape": null, "id": "IT_FOIC806001", "name": "IC BAGNO DI ROMAGNA", "lat": 43.8370391, "lon": 11.9615519, "city": "BAGNO DI ROMAGNA", "public_private": "PUBLIC" }, "geometry": { "type": "Point", "coordinates": [ 11.961551900000075, 43.837039100000027 ] } },