{
"type": "FeatureCollection",
"name": "EU_education11",
"crs": { "type": "name", "properties": { "name": "urn:ogc:def:crs:OGC:1.3:CRS84" } },
"features": [
{ "type": "Feature", "properties": { "OBJECTID": 123661, "Shape": null, "id": "IT_PGEE01707N", "name": "XXV APRILE - BASTIA UMBRA", "lat": 43.06976, "lon": 12.53729, "city": "BASTIA UMBRA", "public_private": "PUBLIC" }, "geometry": { "type": "Point", "coordinates": [ 12.53729, 43.06976 ] } },
{ "type": "Feature", "properties": { "OBJECTID": 123662, "Shape": null, "id": "IT_TPAA81601Q", "name": "SCUOLA INFANZIAS.PADRE PERRIERE", "lat": 37.74663, "lon": 12.51576, "city": "MARSALA", "public_private": "PUBLIC" }, "geometry": { "type": "Point", "coordinates": [ 12.51576, 37.74663 ] } },
{ "type": "Feature", "properties": { "OBJECTID": 123663, "Shape": null, "id": "IT_ARAA81001C", "name": "\"LO SCOIATTOLO\"", "lat": 43.3859906, "lon": 11.7396827, "city": "CIVITELLA IN VAL DI CHIANA", "public_private": "PUBLIC" }, "geometry": { "type": "Point", "coordinates": [ 11.73968270000006, 43.385990600000071 ] } },
{ "type": "Feature", "properties": { "OBJECTID": 123664, "Shape": null, "id": "IT_BAPS04001R", "name": "E. FERMI-MINERVINO SEZ. ASS. L.S. CANOSA", "lat": 41.08049, "lon": 16.07812, "city": "MINERVINO MURGE", "public_private": "PUBLIC" }, "geometry": { "type": "Point", "coordinates": [ 16.07812, 41.08049 ] } },
{ "type": "Feature", "properties": { "OBJECTID": 123665, "Shape": null, "id": "IT_TPMM836015", "name": "SCUOLA MEDIA \"G.G.C. MONTALTO\"", "lat": 38.02139, "lon": 12.52465, "city": "TRAPANI", "public_private": "PUBLIC" }, "geometry": { "type": "Point", "coordinates": [ 12.52465, 38.02139 ] } },
{ "type": "Feature", "properties": { "OBJECTID": 123666, "Shape": null, "id": "IT_LUIS00400Q", "name": "GARFAGNANA", "lat": 44.1161194, "lon": 10.4006303, "city": "CASTELNUOVO DI GARFAGNANA", "public_private": "PUBLIC" }, "geometry": { "type": "Point", "coordinates": [ 10.400630300000046, 44.116119400000059 ] } },
{ "type": "Feature", "properties": { "OBJECTID": 123667, "Shape": null, "id": "IT_APTE016017", "name": "ISTITUTO TECNICO TECNOLOGICO", "lat": 42.95409, "lon": 13.88412, "city": "SAN BENEDETTO DEL TRONTO", "public_private": "PUBLIC" }, "geometry": { "type": "Point", "coordinates": [ 13.88412, 42.95409 ] } },
{ "type": "Feature", "properties": { "OBJECTID": 123668, "Shape": null, "id": "IT_AGAA820034", "name": "GIARDINA GALLOTTI C/O S. ELEM.", "lat": 37.3135818, "lon": 13.5720454, "city": "AGRIGENTO", "public_private": "PUBLIC" }, "geometry": { "type": "Point", "coordinates": [ 13.572045400000036, 37.313581800000065 ] } },
{ "type": "Feature", "properties": { "OBJECTID": 123669, "Shape": null, "id": "IT_RMPS05101B", "name": "IIS \"BRASCHI - QUARENGHI\"", "lat": 41.92546, "lon": 13.08884, "city": "SUBIACO", "public_private": "PUBLIC" }, "geometry": { "type": "Point", "coordinates": [ 13.08884, 41.92546 ] } },
{ "type": "Feature", "properties": { "OBJECTID": 123670, "Shape": null, "id": "IT_PDIS003009", "name": "\"CATTANEO-MATTEI\"", "lat": 45.21585, "lon": 11.78432, "city": "MONSELICE", "public_private": "PUBLIC" }, "geometry": { "type": "Point", "coordinates": [ 11.78432, 45.21585 ] } },
{ "type": "Feature", "properties": { "OBJECTID": 123671, "Shape": null, "id": "IT_TVIS02400C", "name": "I.S. \"EINAUDI - SCARPA\"", "lat": 45.76898, "lon": 12.04886, "city": "MONTEBELLUNA", "public_private": "PUBLIC" }, "geometry": { "type": "Point", "coordinates": [ 12.04886, 45.76898 ] } },
{ "type": "Feature", "properties": { "OBJECTID": 123672, "Shape": null, "id": "IT_TOMM88901Q", "name": "IC MONCAL.B.S.PIETRO-PIRANDELLO", "lat": 45.01199, "lon": 7.66323, "city": "MONCALIERI", "public_private": "PUBLIC" }, "geometry": { "type": "Point", "coordinates": [ 7.66323, 45.01199 ] } },
{ "type": "Feature", "properties": { "OBJECTID": 123673, "Shape": null, "id": "IT_TPAA83802N", "name": "SC. DELL'INFANZIA \"7 GIUGNO 81\"", "lat": 37.68052, "lon": 12.60281, "city": "MAZARA DEL VALLO", "public_private": "PUBLIC" }, "geometry": { "type": "Point", "coordinates": [ 12.60281, 37.68052 ] } },
{ "type": "Feature", "properties": { "OBJECTID": 123674, "Shape": null, "id": "IT_PGRI011015", "name": "ISTITUTO ISTR. SUP. \"CIUFFELLI-EINAUDI\"", "lat": 42.78045, "lon": 12.40967, "city": "TODI", "public_private": "PUBLIC" }, "geometry": { "type": "Point", "coordinates": [ 12.40967, 42.78045 ] } },
{ "type": "Feature", "properties": { "OBJECTID": 123675, "Shape": null, "id": "IT_ROAA81101T", "name": "INFANZIA VILLAMARZANA", "lat": 45.08367, "lon": 11.61047, "city": "VILLAMARZANA", "public_private": "PUBLIC" }, "geometry": { "type": "Point", "coordinates": [ 11.61047, 45.08367 ] } },
{ "type": "Feature", "properties": { "OBJECTID": 123676, "Shape": null, "id": "IT_BAEE832019", "name": "S.G.BOSCO - C.D. SANNICANDRO", "lat": 41.00171, "lon": 16.79502, "city": "SANNICANDRO DI BARI", "public_private": "PUBLIC" }, "geometry": { "type": "Point", "coordinates": [ 16.79502, 41.00171 ] } },
{ "type": "Feature", "properties": { "OBJECTID": 123677, "Shape": null, "id": "IT_VBAA809028", "name": "SCUOLA MATERNA \"IL GIROTONDO\"", "lat": 45.9271636, "lon": 8.4308302, "city": "GRAVELLONA TOCE", "public_private": "PUBLIC" }, "geometry": { "type": "Point", "coordinates": [ 8.430830200000059, 45.927163600000029 ] } },
{ "type": "Feature", "properties": { "OBJECTID": 123678, "Shape": null, "id": "IT_RMIC8EY00G", "name": "VIA LUCA GHINI", "lat": 41.878263, "lon": 12.5801828, "city": "ROMA", "public_private": "PUBLIC" }, "geometry": { "type": "Point", "coordinates": [ 12.580182800000046, 41.878263 ] } },
{ "type": "Feature", "properties": { "OBJECTID": 123679, "Shape": null, "id": "IT_FIIC855001", "name": "BOTTICELLI", "lat": 43.7613832, "lon": 11.3009805, "city": "FIRENZE", "public_private": "PUBLIC" }, "geometry": { "type": "Point", "coordinates": [ 11.300980500000037, 43.761383200000068 ] } },
{ "type": "Feature", "properties": { "OBJECTID": 123680, "Shape": null, "id": "IT_LEAA88801V", "name": "GALATINA -VIA ARNO", "lat": 40.1660788, "lon": 18.1606649, "city": "GALATINA", "public_private": "PUBLIC" }, "geometry": { "type": "Point", "coordinates": [ 18.160664900000029, 40.166078800000037 ] } },
{ "type": "Feature", "properties": { "OBJECTID": 123681, "Shape": null, "id": "IT_UDIC82800X", "name": "BUJA", "lat": 46.2050737, "lon": 13.1286406, "city": "BUJA", "public_private": "PUBLIC" }, "geometry": { "type": "Point", "coordinates": [ 13.12864060000004, 46.205073700000071 ] } },
{ "type": "Feature", "properties": { "OBJECTID": 123682, "Shape": null, "id": "IT_MNSL010001", "name": "LICEO ARTISTICO \"G. ROMANO\" MANTOVA", "lat": 45.15317085, "lon": 10.79703762, "city": "MANTOVA", "public_private": "PUBLIC" }, "geometry": { "type": "Point", "coordinates": [ 10.797037620000026, 45.153170850000038 ] } },
{ "type": "Feature", "properties": { "OBJECTID": 123683, "Shape": null, "id": "IT_MEAA83706R", "name": "ITALA MARINA", "lat": 38.0368392, "lon": 15.4520183, "city": "ITALA", "public_private": "PUBLIC" }, "geometry": { "type": "Point", "coordinates": [ 15.452018300000077, 38.036839200000031 ] } },
{ "type": "Feature", "properties": { "OBJECTID": 123684, "Shape": null, "id": "IT_SAAA880026", "name": "VIA CANTINA", "lat": 40.0722059, "lon": 15.6314398, "city": "SAPRI", "public_private": "PUBLIC" }, "geometry": { "type": "Point", "coordinates": [ 15.631439800000066, 40.072205900000029 ] } },
{ "type": "Feature", "properties": { "OBJECTID": 123685, "Shape": null, "id": "IT_NUEE865056", "name": "MEANA SARDO", "lat": 39.9449754, "lon": 9.0719796, "city": "MEANA SARDO", "public_private": "PUBLIC" }, "geometry": { "type": "Point", "coordinates": [ 9.071979600000077, 39.944975400000033 ] } },
{ "type": "Feature", "properties": { "OBJECTID": 123686, "Shape": null, "id": "IT_SAAA8AQ10X", "name": "ORRIA PIANO VETRALE", "lat": 40.3031353, "lon": 15.2002832, "city": "ORRIA", "public_private": "PUBLIC" }, "geometry": { "type": "Point", "coordinates": [ 15.200283200000058, 40.303135300000065 ] } },
{ "type": "Feature", "properties": { "OBJECTID": 123687, "Shape": null, "id": "IT_BIEE80102C", "name": "SCUOLA PRIMARIA DI CERRIONE V.", "lat": 45.4876562, "lon": 8.0825844, "city": "CERRIONE", "public_private": "PUBLIC" }, "geometry": { "type": "Point", "coordinates": [ 8.08258440000003, 45.48765620000006 ] } },
{ "type": "Feature", "properties": { "OBJECTID": 123688, "Shape": null, "id": "IT_PIEE82804L", "name": "TERRICCIOLA", "lat": 43.5336256, "lon": 10.6632448, "city": "TERRICCIOLA", "public_private": "PUBLIC" }, "geometry": { "type": "Point", "coordinates": [ 10.663244800000029, 43.53362560000005 ] } },
{ "type": "Feature", "properties": { "OBJECTID": 123689, "Shape": null, "id": "IT_RCAA846024", "name": "CINQUEFRONDI VIA BRUNO BUOZZI", "lat": 38.41849, "lon": 16.093, "city": "CINQUEFRONDI", "public_private": "PUBLIC" }, "geometry": { "type": "Point", "coordinates": [ 16.093, 38.41849 ] } },
{ "type": "Feature", "properties": { "OBJECTID": 123690, "Shape": null, "id": "IT_SOEE80404V", "name": "PONTE IN VALTELLINA - CAPOLUOGO", "lat": 46.17733635, "lon": 9.984150045, "city": "PONTE IN VALTELLINA", "public_private": "PUBLIC" }, "geometry": { "type": "Point", "coordinates": [ 9.984150045000035, 46.177336350000076 ] } },
{ "type": "Feature", "properties": { "OBJECTID": 123691, "Shape": null, "id": "IT_NAEE8DL022", "name": "POZZUOLI I.C. 2 DIAZ E. MORANTE", "lat": 40.8679797, "lon": 14.0889885, "city": "POZZUOLI", "public_private": "PUBLIC" }, "geometry": { "type": "Point", "coordinates": [ 14.088988500000028, 40.867979700000035 ] } },
{ "type": "Feature", "properties": { "OBJECTID": 123692, "Shape": null, "id": "IT_CEEE893025", "name": "ENRICO CARUSO", "lat": 41.0836472, "lon": 14.3061927, "city": "CASAGIOVE", "public_private": "PUBLIC" }, "geometry": { "type": "Point", "coordinates": [ 14.306192700000054, 41.08364720000003 ] } },
{ "type": "Feature", "properties": { "OBJECTID": 123693, "Shape": null, "id": "IT_ROAA81103X", "name": "\"SR. G. VECCHIATO\"-FRATTA POL.", "lat": 45.0271, "lon": 11.64569, "city": "FRATTA POLESINE", "public_private": "PUBLIC" }, "geometry": { "type": "Point", "coordinates": [ 11.64569, 45.0271 ] } },
{ "type": "Feature", "properties": { "OBJECTID": 123694, "Shape": null, "id": "IT_PREE81501Q", "name": "PRIMARIA BAZZANO", "lat": 44.58346, "lon": 10.31672, "city": "NEVIANO DEGLI ARDUINI", "public_private": "PUBLIC" }, "geometry": { "type": "Point", "coordinates": [ 10.31672, 44.58346 ] } },
{ "type": "Feature", "properties": { "OBJECTID": 123695, "Shape": null, "id": "IT_TPPM03101L", "name": "R.SALVO SCIENZE UMANE L.E.S. LINGUISTICO", "lat": 38.0168364, "lon": 12.5282541, "city": "TRAPANI", "public_private": "PUBLIC" }, "geometry": { "type": "Point", "coordinates": [ 12.528254100000026, 38.016836400000045 ] } },
{ "type": "Feature", "properties": { "OBJECTID": 123696, "Shape": null, "id": "IT_LTMM84801V", "name": "LEONARDO DA VINCI", "lat": 41.4508476, "lon": 12.8949747, "city": "LATINA", "public_private": "PUBLIC" }, "geometry": { "type": "Point", "coordinates": [ 12.894974700000034, 41.450847600000031 ] } },
{ "type": "Feature", "properties": { "OBJECTID": 123697, "Shape": null, "id": "IT_VEEE821042", "name": "G. PASCOLI", "lat": 45.5211766, "lon": 12.0175621, "city": "SANTA MARIA DI SALA", "public_private": "PUBLIC" }, "geometry": { "type": "Point", "coordinates": [ 12.017562100000077, 45.521176600000047 ] } },
{ "type": "Feature", "properties": { "OBJECTID": 123698, "Shape": null, "id": "IT_GEEE80601P", "name": "S.EL. - A.R.SCARSELLA -", "lat": 44.33582, "lon": 9.20833, "city": "SANTA MARGHERITA LIGURE", "public_private": "PUBLIC" }, "geometry": { "type": "Point", "coordinates": [ 9.20833, 44.33582 ] } },
{ "type": "Feature", "properties": { "OBJECTID": 123699, "Shape": null, "id": "IT_TVMM841013", "name": "SMS NIEVO SERNAGLIA D.B.(IC)", "lat": 45.8716692, "lon": 12.1327136, "city": "SERNAGLIA DELLA BATTAGLIA", "public_private": "PUBLIC" }, "geometry": { "type": "Point", "coordinates": [ 12.132713600000045, 45.871669200000042 ] } },
{ "type": "Feature", "properties": { "OBJECTID": 123700, "Shape": null, "id": "IT_TVEE83703E", "name": "DON MARCO DAL MOLIN-SS.ANGELI", "lat": 45.8325698, "lon": 12.1401969, "city": "GIAVERA DEL MONTELLO", "public_private": "PUBLIC" }, "geometry": { "type": "Point", "coordinates": [ 12.140196900000035, 45.832569800000044 ] } },
{ "type": "Feature", "properties": { "OBJECTID": 123701, "Shape": null, "id": "IT_SAEE07510A", "name": "SAN VINCENZO PRIMARIA", "lat": 40.78049, "lon": 14.74429, "city": "MERCATO SAN SEVERINO", "public_private": "PUBLIC" }, "geometry": { "type": "Point", "coordinates": [ 14.74429, 40.78049 ] } },
{ "type": "Feature", "properties": { "OBJECTID": 123702, "Shape": null, "id": "IT_SPAA81002R", "name": "ARCOLA - PONTE", "lat": 44.116179, "lon": 9.908144782000001, "city": "ARCOLA", "public_private": "PUBLIC" }, "geometry": { "type": "Point", "coordinates": [ 9.908144782000022, 44.116179 ] } },
{ "type": "Feature", "properties": { "OBJECTID": 123703, "Shape": null, "id": "IT_TAAA87204A", "name": "ACANFORA", "lat": 40.5763047, "lon": 17.2113334, "city": "TARANTO", "public_private": "PUBLIC" }, "geometry": { "type": "Point", "coordinates": [ 17.211333400000058, 40.576304700000037 ] } },
{ "type": "Feature", "properties": { "OBJECTID": 123704, "Shape": null, "id": "IT_BNPM02000T", "name": "LICEO STATALE \"G. GUACCI\" BENEVENTO", "lat": 41.1297446, "lon": 14.7897676, "city": "BENEVENTO", "public_private": "PUBLIC" }, "geometry": { "type": "Point", "coordinates": [ 14.789767600000062, 41.129744600000038 ] } },
{ "type": "Feature", "properties": { "OBJECTID": 123705, "Shape": null, "id": "IT_TOEE8BH019", "name": "I.C. VOLPIANO-GHIROTTI", "lat": 45.2047531, "lon": 7.7756324, "city": "VOLPIANO", "public_private": "PUBLIC" }, "geometry": { "type": "Point", "coordinates": [ 7.775632400000063, 45.204753100000062 ] } },
{ "type": "Feature", "properties": { "OBJECTID": 123706, "Shape": null, "id": "IT_BAEE87902G", "name": "V.LE E.FIERAMOSCA - 3 CD CORATO", "lat": 41.15561, "lon": 16.40725, "city": "CORATO", "public_private": "PUBLIC" }, "geometry": { "type": "Point", "coordinates": [ 16.40725, 41.15561 ] } },
{ "type": "Feature", "properties": { "OBJECTID": 123707, "Shape": null, "id": "IT_BGEE8AA02A", "name": "URGNANO \"BASELLA\"", "lat": 45.6184239, "lon": 9.7292196, "city": "URGNANO", "public_private": "PUBLIC" }, "geometry": { "type": "Point", "coordinates": [ 9.729219600000022, 45.618423900000039 ] } },
{ "type": "Feature", "properties": { "OBJECTID": 123708, "Shape": null, "id": "IT_NAAA17803P", "name": "SAN GIUSEPPE II - RIONE NAPPI", "lat": 40.8181396, "lon": 14.5098894, "city": "SAN GIUSEPPE VESUVIANO", "public_private": "PUBLIC" }, "geometry": { "type": "Point", "coordinates": [ 14.509889400000077, 40.818139600000052 ] } },
{ "type": "Feature", "properties": { "OBJECTID": 123709, "Shape": null, "id": "IT_SAEE8BE063", "name": "BUCCINO CAPOLUOGO (PRIMARIA)", "lat": 44.5616932, "lon": 11.2649647, "city": "BUCCINO", "public_private": "PUBLIC" }, "geometry": { "type": "Point", "coordinates": [ 11.264964700000064, 44.561693200000036 ] } },
{ "type": "Feature", "properties": { "OBJECTID": 123710, "Shape": null, "id": "EL_259", "name": "2Ο ΤΕΕ ΑΓΡΙΝΙΟΥ", "lat": 38.625451, "lon": 21.413462, "city": null, "public_private": null }, "geometry": { "type": "Point", "coordinates": [ 21.413462, 38.625451 ] } },
{ "type": "Feature", "properties": { "OBJECTID": 123711, "Shape": null, "id": "IT_RNMM01900X", "name": "S.M.S. \"TERESA FRANCHINI\"", "lat": 44.0665299, "lon": 12.4570316, "city": "SANTARCANGELO DI ROMAGNA", "public_private": "PUBLIC" }, "geometry": { "type": "Point", "coordinates": [ 12.45703160000005, 44.066529900000035 ] } },
{ "type": "Feature", "properties": { "OBJECTID": 123712, "Shape": null, "id": "IT_BAIC86400P", "name": "I.C. \"IANNUZZI-MONS. DI DONNA\"", "lat": 41.2172924, "lon": 16.2882006, "city": "ANDRIA", "public_private": "PUBLIC" }, "geometry": { "type": "Point", "coordinates": [ 16.288200600000039, 41.217292400000076 ] } },
{ "type": "Feature", "properties": { "OBJECTID": 123713, "Shape": null, "id": "IT_CTEE81903E", "name": "M.ALOSI - PIANO API", "lat": 37.6375459, "lon": 15.1618457, "city": "ACIREALE", "public_private": "PUBLIC" }, "geometry": { "type": "Point", "coordinates": [ 15.161845700000072, 37.637545900000077 ] } },
{ "type": "Feature", "properties": { "OBJECTID": 123714, "Shape": null, "id": "IT_NA1E243001", "name": null, "lat": 40.91564, "lon": 14.30156, "city": "AFRAGOLA", "public_private": "PRIVATE" }, "geometry": { "type": "Point", "coordinates": [ 14.30156, 40.91564 ] } },
{ "type": "Feature", "properties": { "OBJECTID": 123715, "Shape": null, "id": "IT_TPEE00400P", "name": "CIRC. \"G.MARCONI\" TRAPANI", "lat": 38.0121281, "lon": 12.5609296, "city": "TRAPANI", "public_private": "PUBLIC" }, "geometry": { "type": "Point", "coordinates": [ 12.560929600000065, 38.012128100000041 ] } },
{ "type": "Feature", "properties": { "OBJECTID": 123716, "Shape": null, "id": "IT_LC1E010008", "name": null, "lat": 45.70246195, "lon": 9.41339419, "city": "MERATE", "public_private": "PRIVATE" }, "geometry": { "type": "Point", "coordinates": [ 9.413394190000076, 45.702461950000043 ] } },
{ "type": "Feature", "properties": { "OBJECTID": 123717, "Shape": null, "id": "IT_MI1A161006", "name": null, "lat": 45.5185, "lon": 9.13269, "city": "MILANO", "public_private": "PRIVATE" }, "geometry": { "type": "Point", "coordinates": [ 9.13269, 45.5185 ] } },
{ "type": "Feature", "properties": { "OBJECTID": 123718, "Shape": null, "id": "IT_RM1E17600A", "name": null, "lat": 41.91323, "lon": 12.39466, "city": "ROMA", "public_private": "PRIVATE" }, "geometry": { "type": "Point", "coordinates": [ 12.39466, 41.91323 ] } },
{ "type": "Feature", "properties": { "OBJECTID": 123719, "Shape": null, "id": "IT_CS1A159001", "name": null, "lat": 39.382306, "lon": 16.2275289, "city": "MONTALTO UFFUGO", "public_private": "PRIVATE" }, "geometry": { "type": "Point", "coordinates": [ 16.227528900000038, 39.382306 ] } },
{ "type": "Feature", "properties": { "OBJECTID": 123720, "Shape": null, "id": "IT_PD1A047009", "name": null, "lat": 45.5357071, "lon": 11.9413473, "city": "BORGORICCO", "public_private": "PRIVATE" }, "geometry": { "type": "Point", "coordinates": [ 11.941347300000075, 45.535707100000081 ] } },
{ "type": "Feature", "properties": { "OBJECTID": 123721, "Shape": null, "id": "IT_NA1E09700G", "name": null, "lat": 40.90147, "lon": 14.14906, "city": "MARANO DI NAPOLI", "public_private": "PRIVATE" }, "geometry": { "type": "Point", "coordinates": [ 14.14906, 40.90147 ] } },
{ "type": "Feature", "properties": { "OBJECTID": 123722, "Shape": null, "id": "IT_PREE834015", "name": "\" DON MILANI \"", "lat": 44.7869395, "lon": 10.3399672, "city": "PARMA", "public_private": "PUBLIC" }, "geometry": { "type": "Point", "coordinates": [ 10.339967200000046, 44.786939500000074 ] } },
{ "type": "Feature", "properties": { "OBJECTID": 123723, "Shape": null, "id": "IT_LE1A05300D", "name": null, "lat": 39.9818524, "lon": 18.0890449, "city": "TAVIANO", "public_private": "PRIVATE" }, "geometry": { "type": "Point", "coordinates": [ 18.089044900000033, 39.981852400000037 ] } },
{ "type": "Feature", "properties": { "OBJECTID": 123724, "Shape": null, "id": "IT_BOAA874015", "name": "DON LORENZO MILANI", "lat": 44.4722296, "lon": 11.2744835, "city": "CASALECCHIO DI RENO", "public_private": "PUBLIC" }, "geometry": { "type": "Point", "coordinates": [ 11.274483500000031, 44.472229600000048 ] } },
{ "type": "Feature", "properties": { "OBJECTID": 123725, "Shape": null, "id": "IT_TOIC8B600G", "name": "I.C. FOSCOLO - TO", "lat": 45.0519167, "lon": 7.6584688, "city": "TORINO", "public_private": "PUBLIC" }, "geometry": { "type": "Point", "coordinates": [ 7.658468800000037, 45.051916700000049 ] } },
{ "type": "Feature", "properties": { "OBJECTID": 123726, "Shape": null, "id": "IT_BSEE80602B", "name": "BAGOLINO FRAZ.PONTE CAFFARO", "lat": 45.8211222, "lon": 10.5283261, "city": "BAGOLINO", "public_private": "PUBLIC" }, "geometry": { "type": "Point", "coordinates": [ 10.528326100000072, 45.821122200000048 ] } },
{ "type": "Feature", "properties": { "OBJECTID": 123727, "Shape": null, "id": "IT_RG1A005006", "name": null, "lat": 36.83386, "lon": 14.76511, "city": "MODICA", "public_private": "PRIVATE" }, "geometry": { "type": "Point", "coordinates": [ 14.76511, 36.83386 ] } },
{ "type": "Feature", "properties": { "OBJECTID": 123728, "Shape": null, "id": "IT_BOEE84305V", "name": "PRIMARIA QUINTO CASADIO", "lat": 44.4589383, "lon": 11.7977552, "city": "IMOLA", "public_private": "PUBLIC" }, "geometry": { "type": "Point", "coordinates": [ 11.79775520000004, 44.458938300000057 ] } },
{ "type": "Feature", "properties": { "OBJECTID": 123729, "Shape": null, "id": "IT_NA1E065004", "name": null, "lat": 40.85061, "lon": 14.24208, "city": "NAPOLI", "public_private": "PRIVATE" }, "geometry": { "type": "Point", "coordinates": [ 14.24208, 40.85061 ] } },
{ "type": "Feature", "properties": { "OBJECTID": 123730, "Shape": null, "id": "IT_AV1A038003", "name": null, "lat": 40.86759, "lon": 14.87702, "city": "SANTA LUCIA DI SERINO", "public_private": "PRIVATE" }, "geometry": { "type": "Point", "coordinates": [ 14.87702, 40.86759 ] } },
{ "type": "Feature", "properties": { "OBJECTID": 123731, "Shape": null, "id": "IT_CS1A12600N", "name": null, "lat": 39.56975, "lon": 16.36239, "city": "SAN DEMETRIO CORONE", "public_private": "PRIVATE" }, "geometry": { "type": "Point", "coordinates": [ 16.36239, 39.56975 ] } },
{ "type": "Feature", "properties": { "OBJECTID": 123732, "Shape": null, "id": "IT_RMAA8DT02Q", "name": "LA BOTTE - VIA COLLE MITRIANO", "lat": 41.9885742, "lon": 12.7720949, "city": "GUIDONIA MONTECELIO", "public_private": "PUBLIC" }, "geometry": { "type": "Point", "coordinates": [ 12.77209490000007, 41.988574200000073 ] } },
{ "type": "Feature", "properties": { "OBJECTID": 123733, "Shape": null, "id": "IT_PV1A03000B", "name": null, "lat": 45.15783, "lon": 9.39541, "city": "SANTA CRISTINA E BISSONE", "public_private": "PRIVATE" }, "geometry": { "type": "Point", "coordinates": [ 9.39541, 45.15783 ] } },
{ "type": "Feature", "properties": { "OBJECTID": 123734, "Shape": null, "id": "IT_LT1A036002", "name": null, "lat": 41.2529423, "lon": 13.7168063, "city": "MINTURNO", "public_private": "PRIVATE" }, "geometry": { "type": "Point", "coordinates": [ 13.71680630000003, 41.252942300000029 ] } },
{ "type": "Feature", "properties": { "OBJECTID": 123735, "Shape": null, "id": "IT_NA1A645006", "name": null, "lat": 40.83612, "lon": 14.23411, "city": "NAPOLI", "public_private": "PRIVATE" }, "geometry": { "type": "Point", "coordinates": [ 14.23411, 40.83612 ] } },
{ "type": "Feature", "properties": { "OBJECTID": 123736, "Shape": null, "id": "IT_NA1A9Q500E", "name": null, "lat": 40.9350484, "lon": 14.0486179, "city": "GIUGLIANO IN CAMPANIA", "public_private": "PRIVATE" }, "geometry": { "type": "Point", "coordinates": [ 14.048617900000067, 40.935048400000028 ] } },
{ "type": "Feature", "properties": { "OBJECTID": 123737, "Shape": null, "id": "IT_GEPS70500C", "name": null, "lat": 44.3828579, "lon": 9.0300557, "city": "GENOVA", "public_private": "PRIVATE" }, "geometry": { "type": "Point", "coordinates": [ 9.030055700000048, 44.382857900000033 ] } },
{ "type": "Feature", "properties": { "OBJECTID": 123738, "Shape": null, "id": "IT_NA1E10800R", "name": null, "lat": 40.95621, "lon": 14.30371, "city": "CAIVANO", "public_private": "PRIVATE" }, "geometry": { "type": "Point", "coordinates": [ 14.30371, 40.95621 ] } },
{ "type": "Feature", "properties": { "OBJECTID": 123739, "Shape": null, "id": "IT_NA1A30700R", "name": null, "lat": 40.90826, "lon": 14.18053, "city": "CALVIZZANO", "public_private": "PRIVATE" }, "geometry": { "type": "Point", "coordinates": [ 14.18053, 40.90826 ] } },
{ "type": "Feature", "properties": { "OBJECTID": 123740, "Shape": null, "id": "IT_TAIC84200E", "name": "I.C. \"E. DE AMICIS\"", "lat": 40.5325675, "lon": 17.4382236, "city": "GROTTAGLIE", "public_private": "PUBLIC" }, "geometry": { "type": "Point", "coordinates": [ 17.438223600000072, 40.532567500000027 ] } },
{ "type": "Feature", "properties": { "OBJECTID": 123741, "Shape": null, "id": "IT_VEEE83203B", "name": "ARISTIDE GABELLI", "lat": 45.6392572, "lon": 13.0546709, "city": "SAN MICHELE AL TAGLIAMENTO", "public_private": "PUBLIC" }, "geometry": { "type": "Point", "coordinates": [ 13.054670900000076, 45.639257200000031 ] } },
{ "type": "Feature", "properties": { "OBJECTID": 123742, "Shape": null, "id": "IT_SA1A18500P", "name": null, "lat": 40.75017, "lon": 14.52111, "city": "SCAFATI", "public_private": "PRIVATE" }, "geometry": { "type": "Point", "coordinates": [ 14.52111, 40.75017 ] } },
{ "type": "Feature", "properties": { "OBJECTID": 123743, "Shape": null, "id": "IT_RE1A037003", "name": null, "lat": 44.70448, "lon": 10.44577, "city": "MONTECCHIO EMILIA", "public_private": "PRIVATE" }, "geometry": { "type": "Point", "coordinates": [ 10.44577, 44.70448 ] } },
{ "type": "Feature", "properties": { "OBJECTID": 123744, "Shape": null, "id": "IT_CHEE811029", "name": "SAMBUC. LARGO WOJTYLA-IC S.G.T.", "lat": 42.424676, "lon": 14.1890818, "city": "SAN GIOVANNI TEATINO", "public_private": "PUBLIC" }, "geometry": { "type": "Point", "coordinates": [ 14.189081800000054, 42.424676 ] } },
{ "type": "Feature", "properties": { "OBJECTID": 123745, "Shape": null, "id": "IT_CHTD021017", "name": "IST. TECNICO ECONOMICO E TECNOLOGICO", "lat": 42.1882285, "lon": 14.212398, "city": "GUARDIAGRELE", "public_private": "PUBLIC" }, "geometry": { "type": "Point", "coordinates": [ 14.212398, 42.188228500000037 ] } },
{ "type": "Feature", "properties": { "OBJECTID": 123746, "Shape": null, "id": "IT_LCCT701002", "name": "CENTRO ISTRUZIONE FORMAZIONE ETA ADULTA", "lat": 45.6935743, "lon": 9.3901582, "city": "CERNUSCO LOMBARDONE", "public_private": "PUBLIC" }, "geometry": { "type": "Point", "coordinates": [ 9.39015820000003, 45.69357430000008 ] } },
{ "type": "Feature", "properties": { "OBJECTID": 123747, "Shape": null, "id": "IT_RMAA88501R", "name": "ARCOBALENO", "lat": 42.0767503, "lon": 12.3931312, "city": "FORMELLO", "public_private": "PUBLIC" }, "geometry": { "type": "Point", "coordinates": [ 12.393131200000028, 42.076750300000072 ] } },
{ "type": "Feature", "properties": { "OBJECTID": 123748, "Shape": null, "id": "IT_PSMM82701C", "name": "PESARO \"GIANFRANCO GAUDIANO\"", "lat": 43.9090201, "lon": 12.9096363, "city": "PESARO", "public_private": "PUBLIC" }, "geometry": { "type": "Point", "coordinates": [ 12.909636300000045, 43.909020100000077 ] } },
{ "type": "Feature", "properties": { "OBJECTID": 123749, "Shape": null, "id": "IT_MI1A365007", "name": null, "lat": 45.5672528, "lon": 8.8621642, "city": "DAIRAGO", "public_private": "PRIVATE" }, "geometry": { "type": "Point", "coordinates": [ 8.862164200000052, 45.567252800000063 ] } },
{ "type": "Feature", "properties": { "OBJECTID": 123750, "Shape": null, "id": "IT_SAIC86300E", "name": "IC \"TRIFONE\" MONTECORVINO R.", "lat": 40.6949649, "lon": 14.9816792, "city": "MONTECORVINO ROVELLA", "public_private": "PUBLIC" }, "geometry": { "type": "Point", "coordinates": [ 14.981679200000031, 40.694964900000059 ] } },
{ "type": "Feature", "properties": { "OBJECTID": 123751, "Shape": null, "id": "IT_VVEE83101A", "name": "AFFACCIO-BUCCARELLI", "lat": 38.6824251, "lon": 15.9179599, "city": "VIBO VALENTIA", "public_private": "PUBLIC" }, "geometry": { "type": "Point", "coordinates": [ 15.917959900000028, 38.682425100000046 ] } },
{ "type": "Feature", "properties": { "OBJECTID": 123752, "Shape": null, "id": "IT_CNAA84502A", "name": "INFANZIA FALICETTO", "lat": 44.5978175, "lon": 7.517935, "city": "VERZUOLO", "public_private": "PUBLIC" }, "geometry": { "type": "Point", "coordinates": [ 7.517935, 44.597817500000076 ] } },
{ "type": "Feature", "properties": { "OBJECTID": 123753, "Shape": null, "id": "IT_PZMM87602E", "name": "I GRADO EPISCOPIA", "lat": 40.0743932, "lon": 16.0985677, "city": "EPISCOPIA", "public_private": "PUBLIC" }, "geometry": { "type": "Point", "coordinates": [ 16.098567700000046, 40.074393200000031 ] } },
{ "type": "Feature", "properties": { "OBJECTID": 123754, "Shape": null, "id": "IT_CTEE8A5037", "name": "SCUOLA PRIMARIA PIAZZA DANTE", "lat": 37.3269553, "lon": 14.74765639, "city": "PALAGONIA", "public_private": "PUBLIC" }, "geometry": { "type": "Point", "coordinates": [ 14.747656390000031, 37.326955300000066 ] } },
{ "type": "Feature", "properties": { "OBJECTID": 123755, "Shape": null, "id": "IT_RMPMFO500A", "name": null, "lat": 41.45764, "lon": 12.66414, "city": "NETTUNO", "public_private": "PRIVATE" }, "geometry": { "type": "Point", "coordinates": [ 12.66414, 41.45764 ] } },
{ "type": "Feature", "properties": { "OBJECTID": 123756, "Shape": null, "id": "IT_VRPQ02500E", "name": null, "lat": 45.42972, "lon": 10.97805, "city": "VERONA", "public_private": "PRIVATE" }, "geometry": { "type": "Point", "coordinates": [ 10.97805, 45.42972 ] } },
{ "type": "Feature", "properties": { "OBJECTID": 123757, "Shape": null, "id": "IT_RC1A022026", "name": null, "lat": 38.100193, "lon": 15.6449145, "city": "REGGIO DI CALABRIA", "public_private": "PRIVATE" }, "geometry": { "type": "Point", "coordinates": [ 15.644914500000027, 38.100193 ] } },
{ "type": "Feature", "properties": { "OBJECTID": 123758, "Shape": null, "id": "IT_SAEE873017", "name": "POSITANO CAP. P.P.", "lat": 40.6298434, "lon": 14.4843273, "city": "POSITANO", "public_private": "PUBLIC" }, "geometry": { "type": "Point", "coordinates": [ 14.484327300000075, 40.629843400000027 ] } },
{ "type": "Feature", "properties": { "OBJECTID": 123759, "Shape": null, "id": "IT_MIMM8CH01V", "name": "SECONDARIA I GR. L. PAVONI", "lat": 45.5065933, "lon": 8.8157066, "city": "MILANO", "public_private": "PUBLIC" }, "geometry": { "type": "Point", "coordinates": [ 8.815706600000055, 45.506593300000077 ] } },
{ "type": "Feature", "properties": { "OBJECTID": 123760, "Shape": null, "id": "IT_MCAA832028", "name": "VIA ALDO MORO", "lat": 43.3986526, "lon": 13.5589233, "city": "RECANATI", "public_private": "PUBLIC" }, "geometry": { "type": "Point", "coordinates": [ 13.55892330000006, 43.398652600000048 ] } },
{ "type": "Feature", "properties": { "OBJECTID": 123761, "Shape": null, "id": "IT_NA1A32900N", "name": null, "lat": 40.93697, "lon": 14.26044, "city": "GRUMO NEVANO", "public_private": "PRIVATE" }, "geometry": { "type": "Point", "coordinates": [ 14.26044, 40.93697 ] } },
{ "type": "Feature", "properties": { "OBJECTID": 123762, "Shape": null, "id": "IT_LTMM817017", "name": "\"AMANTE\"", "lat": 41.3587672, "lon": 13.4313095, "city": "FONDI", "public_private": "PUBLIC" }, "geometry": { "type": "Point", "coordinates": [ 13.431309500000054, 41.358767200000045 ] } },
{ "type": "Feature", "properties": { "OBJECTID": 123763, "Shape": null, "id": "IT_PD1A24500B", "name": null, "lat": 45.54345, "lon": 11.7802, "city": "PIAZZOLA SUL BRENTA", "public_private": "PRIVATE" }, "geometry": { "type": "Point", "coordinates": [ 11.7802, 45.54345 ] } },
{ "type": "Feature", "properties": { "OBJECTID": 123764, "Shape": null, "id": "IT_BRPC006018", "name": "SEZ.CLASSICA DELL'IST.SUP.DI CEGLIE M.", "lat": 40.6392796, "lon": 17.5129725, "city": "CEGLIE MESSAPICA", "public_private": "PUBLIC" }, "geometry": { "type": "Point", "coordinates": [ 17.512972500000046, 40.639279600000066 ] } },
{ "type": "Feature", "properties": { "OBJECTID": 123765, "Shape": null, "id": "IT_CB1A009004", "name": null, "lat": 41.71135, "lon": 14.98642, "city": "SANTA CROCE DI MAGLIANO", "public_private": "PRIVATE" }, "geometry": { "type": "Point", "coordinates": [ 14.98642, 41.71135 ] } },
{ "type": "Feature", "properties": { "OBJECTID": 123766, "Shape": null, "id": "IT_MB1A505006", "name": null, "lat": 45.6428, "lon": 9.19788, "city": "SEREGNO", "public_private": "PRIVATE" }, "geometry": { "type": "Point", "coordinates": [ 9.19788, 45.6428 ] } },
{ "type": "Feature", "properties": { "OBJECTID": 123767, "Shape": null, "id": "IT_VA1M4Z500Q", "name": null, "lat": 45.61099, "lon": 8.87012, "city": "BUSTO ARSIZIO", "public_private": "PRIVATE" }, "geometry": { "type": "Point", "coordinates": [ 8.87012, 45.61099 ] } },
{ "type": "Feature", "properties": { "OBJECTID": 123768, "Shape": null, "id": "IT_PGAA86501E", "name": "MONTEBELLO", "lat": 43.087005, "lon": 12.398407, "city": "PERUGIA", "public_private": "PUBLIC" }, "geometry": { "type": "Point", "coordinates": [ 12.398407, 43.087005 ] } },
{ "type": "Feature", "properties": { "OBJECTID": 123769, "Shape": null, "id": "IT_NA1E01900A", "name": null, "lat": 40.9125, "lon": 14.34507, "city": "CASALNUOVO DI NAPOLI", "public_private": "PRIVATE" }, "geometry": { "type": "Point", "coordinates": [ 14.34507, 40.9125 ] } },
{ "type": "Feature", "properties": { "OBJECTID": 123770, "Shape": null, "id": "IT_MBEE8F6033", "name": "DAVIDE RUBINOWICZ -MONZA", "lat": 45.7136631, "lon": 9.2452164, "city": "MONZA", "public_private": "PUBLIC" }, "geometry": { "type": "Point", "coordinates": [ 9.245216400000061, 45.713663100000076 ] } },
{ "type": "Feature", "properties": { "OBJECTID": 123771, "Shape": null, "id": "IT_CE1E010002", "name": null, "lat": 40.97892, "lon": 13.98649, "city": "CASTEL VOLTURNO", "public_private": "PRIVATE" }, "geometry": { "type": "Point", "coordinates": [ 13.98649, 40.97892 ] } },
{ "type": "Feature", "properties": { "OBJECTID": 123772, "Shape": null, "id": "IT_PD1M01000T", "name": null, "lat": 45.4234997, "lon": 11.9498696, "city": "PADOVA", "public_private": "PRIVATE" }, "geometry": { "type": "Point", "coordinates": [ 11.949869600000056, 45.423499700000036 ] } },
{ "type": "Feature", "properties": { "OBJECTID": 123773, "Shape": null, "id": "IT_RMMM876016", "name": "MONTECHIARA RIANO", "lat": 42.0883175, "lon": 12.5223545, "city": "RIANO", "public_private": "PUBLIC" }, "geometry": { "type": "Point", "coordinates": [ 12.522354500000063, 42.088317500000073 ] } },
{ "type": "Feature", "properties": { "OBJECTID": 123774, "Shape": null, "id": "IT_BO1A15900D", "name": null, "lat": 44.63903, "lon": 11.18398, "city": "SAN GIOVANNI IN PERSICETO", "public_private": "PRIVATE" }, "geometry": { "type": "Point", "coordinates": [ 11.18398, 44.63903 ] } },
{ "type": "Feature", "properties": { "OBJECTID": 123775, "Shape": null, "id": "IT_MI1A49000R", "name": null, "lat": 45.5301965, "lon": 8.7743834, "city": "ROBECCHETTO CON INDUNO", "public_private": "PRIVATE" }, "geometry": { "type": "Point", "coordinates": [ 8.774383400000033, 45.530196500000045 ] } },
{ "type": "Feature", "properties": { "OBJECTID": 123776, "Shape": null, "id": "IT_BO1A08700R", "name": null, "lat": 44.5005446, "lon": 11.2973404, "city": "BOLOGNA", "public_private": "PRIVATE" }, "geometry": { "type": "Point", "coordinates": [ 11.297340400000053, 44.500544600000069 ] } },
{ "type": "Feature", "properties": { "OBJECTID": 123777, "Shape": null, "id": "IT_NA1E09200C", "name": null, "lat": 40.9293452, "lon": 14.2205358, "city": "GIUGLIANO IN CAMPANIA", "public_private": "PRIVATE" }, "geometry": { "type": "Point", "coordinates": [ 14.22053580000005, 40.929345200000057 ] } },
{ "type": "Feature", "properties": { "OBJECTID": 123778, "Shape": null, "id": "IT_NA1A42400B", "name": null, "lat": 40.9085545, "lon": 14.2701459, "city": "ARZANO", "public_private": "PRIVATE" }, "geometry": { "type": "Point", "coordinates": [ 14.270145900000045, 40.908554500000037 ] } },
{ "type": "Feature", "properties": { "OBJECTID": 123779, "Shape": null, "id": "IT_SA1A167005", "name": null, "lat": 40.74385, "lon": 14.62968, "city": "NOCERA INFERIORE", "public_private": "PRIVATE" }, "geometry": { "type": "Point", "coordinates": [ 14.62968, 40.74385 ] } },
{ "type": "Feature", "properties": { "OBJECTID": 123780, "Shape": null, "id": "IT_FIAA81903R", "name": "SAMBUCA V.P. - SAN DONATO", "lat": 43.5699, "lon": 11.2181, "city": "BARBERINO TAVARNELLE", "public_private": "PUBLIC" }, "geometry": { "type": "Point", "coordinates": [ 11.2181, 43.5699 ] } },
{ "type": "Feature", "properties": { "OBJECTID": 123781, "Shape": null, "id": "IT_MNAA82801L", "name": "LUNETTA - 'BERNI'", "lat": 45.16102, "lon": 10.82044, "city": "MANTOVA", "public_private": "PUBLIC" }, "geometry": { "type": "Point", "coordinates": [ 10.82044, 45.16102 ] } },
{ "type": "Feature", "properties": { "OBJECTID": 123782, "Shape": null, "id": "IT_MOEE045229", "name": "\"A.CORSINI \" VERICA", "lat": 44.32588, "lon": 10.90633, "city": "PAVULLO NEL FRIGNANO", "public_private": "PUBLIC" }, "geometry": { "type": "Point", "coordinates": [ 10.90633, 44.32588 ] } },
{ "type": "Feature", "properties": { "OBJECTID": 123783, "Shape": null, "id": "IT_ALMM810027", "name": "BISTAGNO - G.SARACCO", "lat": 44.66201, "lon": 8.37174, "city": "BISTAGNO", "public_private": "PUBLIC" }, "geometry": { "type": "Point", "coordinates": [ 8.37174, 44.66201 ] } },
{ "type": "Feature", "properties": { "OBJECTID": 123784, "Shape": null, "id": "IT_BGIC85800C", "name": "MOZZANICA \"L. DA VINCI\"", "lat": 45.47639, "lon": 9.68945, "city": "MOZZANICA", "public_private": "PUBLIC" }, "geometry": { "type": "Point", "coordinates": [ 9.68945, 45.47639 ] } },
{ "type": "Feature", "properties": { "OBJECTID": 123785, "Shape": null, "id": "IT_NAIC80700Q", "name": "NA - I.C. S. GAETANO", "lat": 40.8912445, "lon": 14.235167, "city": "NAPOLI", "public_private": "PUBLIC" }, "geometry": { "type": "Point", "coordinates": [ 14.235167, 40.891244500000028 ] } },
{ "type": "Feature", "properties": { "OBJECTID": 123786, "Shape": null, "id": "IT_RMAA8CU01X", "name": "QUASIMODO", "lat": 41.8715024, "lon": 12.5180997, "city": "ROMA", "public_private": "PUBLIC" }, "geometry": { "type": "Point", "coordinates": [ 12.51809970000005, 41.871502400000054 ] } },
{ "type": "Feature", "properties": { "OBJECTID": 123787, "Shape": null, "id": "IT_GEEE84406P", "name": "UMBERTO I - RIVA TRIGOSO", "lat": 44.2599, "lon": 9.42347, "city": "SESTRI LEVANTE", "public_private": "PUBLIC" }, "geometry": { "type": "Point", "coordinates": [ 9.42347, 44.2599 ] } },
{ "type": "Feature", "properties": { "OBJECTID": 123788, "Shape": null, "id": "IT_RCEE83201A", "name": "MOLOCHIO CAPOL. \"COSMANO\"", "lat": 38.3083212, "lon": 16.0316456, "city": "MOLOCHIO", "public_private": "PUBLIC" }, "geometry": { "type": "Point", "coordinates": [ 16.031645600000047, 38.30832120000008 ] } },
{ "type": "Feature", "properties": { "OBJECTID": 123789, "Shape": null, "id": "IT_LUEE830016", "name": "MASSAROSA \"A.MANZONI\"", "lat": 43.8636475, "lon": 10.3559398, "city": "MASSAROSA", "public_private": "PUBLIC" }, "geometry": { "type": "Point", "coordinates": [ 10.355939800000044, 43.86364750000007 ] } },
{ "type": "Feature", "properties": { "OBJECTID": 123790, "Shape": null, "id": "IT_BAPC18000X", "name": "LICEO \"CARMINE SYLOS\"", "lat": 41.1033333, "lon": 16.6878948, "city": "BITONTO", "public_private": "PUBLIC" }, "geometry": { "type": "Point", "coordinates": [ 16.687894800000038, 41.103333300000031 ] } },
{ "type": "Feature", "properties": { "OBJECTID": 123791, "Shape": null, "id": "IT_AGEE84402R", "name": "DANTE ALIGHIERI", "lat": 37.50914, "lon": 13.07662, "city": "SCIACCA", "public_private": "PUBLIC" }, "geometry": { "type": "Point", "coordinates": [ 13.07662, 37.50914 ] } },
{ "type": "Feature", "properties": { "OBJECTID": 123792, "Shape": null, "id": "IT_TOEE82802A", "name": "I.C. FIANO - ROBASSOMERO", "lat": 45.19652, "lon": 7.57307, "city": "ROBASSOMERO", "public_private": "PUBLIC" }, "geometry": { "type": "Point", "coordinates": [ 7.57307, 45.19652 ] } },
{ "type": "Feature", "properties": { "OBJECTID": 123793, "Shape": null, "id": "IT_PCEE81002R", "name": "FRAZ. SAN POLO", "lat": 44.9780088, "lon": 9.7408252, "city": "PODENZANO", "public_private": "PUBLIC" }, "geometry": { "type": "Point", "coordinates": [ 9.740825200000074, 44.978008800000055 ] } },
{ "type": "Feature", "properties": { "OBJECTID": 123794, "Shape": null, "id": "IT_MIEE85502P", "name": "PRIMARIA G. MAZZINI", "lat": 45.6001106, "lon": 8.9112577, "city": "LEGNANO", "public_private": "PUBLIC" }, "geometry": { "type": "Point", "coordinates": [ 8.911257700000021, 45.60011060000005 ] } },
{ "type": "Feature", "properties": { "OBJECTID": 123795, "Shape": null, "id": "IT_CAIC875002", "name": "DOMUSNOVAS IST. COMPR.", "lat": 39.319247, "lon": 8.6420542, "city": "DOMUSNOVAS", "public_private": "PUBLIC" }, "geometry": { "type": "Point", "coordinates": [ 8.642054200000075, 39.319247 ] } },
{ "type": "Feature", "properties": { "OBJECTID": 123796, "Shape": null, "id": "IT_MCMM819011", "name": "GIOVANNI XXIII", "lat": 43.1849658, "lon": 13.475417, "city": "MOGLIANO", "public_private": "PUBLIC" }, "geometry": { "type": "Point", "coordinates": [ 13.475417, 43.184965800000043 ] } },
{ "type": "Feature", "properties": { "OBJECTID": 123797, "Shape": null, "id": "IT_GERC004014", "name": "I.P.S.C. - G. CASAREGIS", "lat": 44.41608, "lon": 8.90905, "city": "GENOVA", "public_private": "PUBLIC" }, "geometry": { "type": "Point", "coordinates": [ 8.90905, 44.41608 ] } },
{ "type": "Feature", "properties": { "OBJECTID": 123798, "Shape": null, "id": "IT_OREE80305A", "name": "NEONELI-ULATIRSO-ARDAULI-NUGHED", "lat": 39.69996, "lon": 8.78271, "city": "NEONELI", "public_private": "PUBLIC" }, "geometry": { "type": "Point", "coordinates": [ 8.78271, 39.69996 ] } },
{ "type": "Feature", "properties": { "OBJECTID": 123799, "Shape": null, "id": "IT_BRPS030007", "name": "LICEO \"F. RIBEZZO\"", "lat": 40.52931, "lon": 17.58932, "city": "FRANCAVILLA FONTANA", "public_private": "PUBLIC" }, "geometry": { "type": "Point", "coordinates": [ 17.58932, 40.52931 ] } },
{ "type": "Feature", "properties": { "OBJECTID": 123800, "Shape": null, "id": "IT_TPAA815043", "name": "VIA TORINO", "lat": 37.126893, "lon": 14.8521334, "city": "CASTELVETRANO", "public_private": "PUBLIC" }, "geometry": { "type": "Point", "coordinates": [ 14.852133400000071, 37.126893 ] } },
{ "type": "Feature", "properties": { "OBJECTID": 123801, "Shape": null, "id": "IT_RMIC819001", "name": "REGINA ELENA", "lat": 42.0579452, "lon": 12.6983933, "city": "ROMA", "public_private": "PUBLIC" }, "geometry": { "type": "Point", "coordinates": [ 12.698393300000077, 42.057945200000063 ] } },
{ "type": "Feature", "properties": { "OBJECTID": 123802, "Shape": null, "id": "IT_NAAA8CV02T", "name": "NA IC - VIA NAPOLI", "lat": 40.8607581, "lon": 14.1790585, "city": "NAPOLI", "public_private": "PUBLIC" }, "geometry": { "type": "Point", "coordinates": [ 14.179058500000053, 40.860758100000055 ] } },
{ "type": "Feature", "properties": { "OBJECTID": 123803, "Shape": null, "id": "IT_MBIC8AD006", "name": "IC ANNA FRANK/ MONZA", "lat": 43.0648143, "lon": 11.9089696, "city": "MONZA", "public_private": "PUBLIC" }, "geometry": { "type": "Point", "coordinates": [ 11.908969600000034, 43.06481430000008 ] } },
{ "type": "Feature", "properties": { "OBJECTID": 123804, "Shape": null, "id": "IT_GEAA860016", "name": "S.MAT. DI VIA BOTTINI", "lat": 44.4014191, "lon": 8.9841449, "city": "GENOVA", "public_private": "PUBLIC" }, "geometry": { "type": "Point", "coordinates": [ 8.984144900000047, 44.401419100000055 ] } },
{ "type": "Feature", "properties": { "OBJECTID": 123805, "Shape": null, "id": "IT_AVEE87101A", "name": "SCUOLA PRIMARIA-CAPOSELE", "lat": 40.81176695, "lon": 15.22538761, "city": "CAPOSELE", "public_private": "PUBLIC" }, "geometry": { "type": "Point", "coordinates": [ 15.225387610000041, 40.811766950000049 ] } },
{ "type": "Feature", "properties": { "OBJECTID": 123806, "Shape": null, "id": "IT_AVIS01600X", "name": "ISTITUTO D'ISTRUZ. SUP. \"G. DE GRUTTOLA\"", "lat": 41.16, "lon": 15.10845, "city": "ARIANO IRPINO", "public_private": "PUBLIC" }, "geometry": { "type": "Point", "coordinates": [ 15.10845, 41.16 ] } },
{ "type": "Feature", "properties": { "OBJECTID": 123807, "Shape": null, "id": "IT_CSAA8AJ03G", "name": "BISIGNANO - C. COLLINA CASTELLO", "lat": 39.51347, "lon": 16.28587, "city": "BISIGNANO", "public_private": "PUBLIC" }, "geometry": { "type": "Point", "coordinates": [ 16.28587, 39.51347 ] } },
{ "type": "Feature", "properties": { "OBJECTID": 123808, "Shape": null, "id": "IT_FEAA81404B", "name": "G.PASCOLI-MASSA FISCAGLIA", "lat": 44.80148, "lon": 11.97391, "city": "FISCAGLIA", "public_private": "PUBLIC" }, "geometry": { "type": "Point", "coordinates": [ 11.97391, 44.80148 ] } },
{ "type": "Feature", "properties": { "OBJECTID": 123809, "Shape": null, "id": "IT_COEE816017", "name": "ALBAVILLA CAP.", "lat": 45.80382775, "lon": 9.194811334000001, "city": "ALBAVILLA", "public_private": "PUBLIC" }, "geometry": { "type": "Point", "coordinates": [ 9.194811334000065, 45.803827750000039 ] } },
{ "type": "Feature", "properties": { "OBJECTID": 123810, "Shape": null, "id": "IT_PDEE868034", "name": "TEOLO-TREPONTI PRIMARIA", "lat": 45.36936, "lon": 11.7109, "city": "TEOLO", "public_private": "PUBLIC" }, "geometry": { "type": "Point", "coordinates": [ 11.7109, 45.36936 ] } },
{ "type": "Feature", "properties": { "OBJECTID": 123811, "Shape": null, "id": "IT_RGCT701009", "name": "CENTRO TERRIT.PERM.ISTR.FORM.ETA' ADULTA", "lat": 36.92389, "lon": 14.73279, "city": "RAGUSA", "public_private": "PUBLIC" }, "geometry": { "type": "Point", "coordinates": [ 14.73279, 36.92389 ] } },
{ "type": "Feature", "properties": { "OBJECTID": 123812, "Shape": null, "id": "IT_TOMM86301G", "name": "I.C. BRUSASCO - FERMI", "lat": 45.1574783, "lon": 8.0594224, "city": "BRUSASCO", "public_private": "PUBLIC" }, "geometry": { "type": "Point", "coordinates": [ 8.059422400000074, 45.157478300000037 ] } },
{ "type": "Feature", "properties": { "OBJECTID": 123813, "Shape": null, "id": "IT_UDIC81100E", "name": "C.CAVOUR - PALAZZOLO", "lat": 45.8049362, "lon": 13.0826256, "city": "PALAZZOLO DELLO STELLA", "public_private": "PUBLIC" }, "geometry": { "type": "Point", "coordinates": [ 13.082625600000028, 45.804936200000043 ] } },
{ "type": "Feature", "properties": { "OBJECTID": 123814, "Shape": null, "id": "IT_LIEE81004N", "name": "ARGENTINA ALTOBELLI", "lat": 43.03247, "lon": 10.60345, "city": "CAMPIGLIA MARITTIMA", "public_private": "PUBLIC" }, "geometry": { "type": "Point", "coordinates": [ 10.60345, 43.03247 ] } },
{ "type": "Feature", "properties": { "OBJECTID": 123815, "Shape": null, "id": "IT_BSAA81703N", "name": "SCUOLA DELL'INFANZIA BERZO", "lat": 46.0929711, "lon": 10.3326985, "city": "BERZO DEMO", "public_private": "PUBLIC" }, "geometry": { "type": "Point", "coordinates": [ 10.332698500000049, 46.092971100000057 ] } },
{ "type": "Feature", "properties": { "OBJECTID": 123816, "Shape": null, "id": "IT_PZIC857003", "name": "I.C. \"S.G. BOSCO\" PALAZZO S. G.", "lat": 40.9310172, "lon": 15.9795259, "city": "PALAZZO SAN GERVASIO", "public_private": "PUBLIC" }, "geometry": { "type": "Point", "coordinates": [ 15.979525900000056, 40.931017200000042 ] } },
{ "type": "Feature", "properties": { "OBJECTID": 123817, "Shape": null, "id": "IT_CEIC8AB009", "name": "I.C.\"G. FALCONE E P.BORSELLINO\"", "lat": 41.2692242, "lon": 14.1859612, "city": "PIETRAMELARA", "public_private": "PUBLIC" }, "geometry": { "type": "Point", "coordinates": [ 14.185961200000065, 41.269224200000053 ] } },
{ "type": "Feature", "properties": { "OBJECTID": 123818, "Shape": null, "id": "IT_IMEE816051", "name": "SCUOLA PRIMARIA TORRI", "lat": 43.83576, "lon": 7.55582, "city": "VENTIMIGLIA", "public_private": "PUBLIC" }, "geometry": { "type": "Point", "coordinates": [ 7.55582, 43.83576 ] } },
{ "type": "Feature", "properties": { "OBJECTID": 123819, "Shape": null, "id": "IT_ARAA841025", "name": "\"IL GABBIANO\"", "lat": 43.1928417, "lon": 11.9346174, "city": "CORTONA", "public_private": "PUBLIC" }, "geometry": { "type": "Point", "coordinates": [ 11.934617400000036, 43.192841700000031 ] } },
{ "type": "Feature", "properties": { "OBJECTID": 123820, "Shape": null, "id": "IT_MSEE80501C", "name": "FOSDINOVO CANIPAROLA", "lat": 44.10435, "lon": 9.99424, "city": "FOSDINOVO", "public_private": "PUBLIC" }, "geometry": { "type": "Point", "coordinates": [ 9.99424, 44.10435 ] } },
{ "type": "Feature", "properties": { "OBJECTID": 123821, "Shape": null, "id": "IT_PAEE03703N", "name": "GIANLUCA IRRERA", "lat": 38.0946611, "lon": 13.338317, "city": "PALERMO", "public_private": "PUBLIC" }, "geometry": { "type": "Point", "coordinates": [ 13.338317, 38.094661100000053 ] } },
{ "type": "Feature", "properties": { "OBJECTID": 123822, "Shape": null, "id": "IT_AREE821025", "name": "DOCCIO", "lat": 43.5676162, "lon": 11.5384796, "city": "SAN GIOVANNI VALDARNO", "public_private": "PUBLIC" }, "geometry": { "type": "Point", "coordinates": [ 11.538479600000073, 43.567616200000032 ] } },
{ "type": "Feature", "properties": { "OBJECTID": 123823, "Shape": null, "id": "IT_BAMM29300D", "name": "S.S.1 G. \"V. EM III-ALIGHIERI\"", "lat": 41.2301536, "lon": 16.29817406, "city": "ANDRIA", "public_private": "PUBLIC" }, "geometry": { "type": "Point", "coordinates": [ 16.298174060000065, 41.230153600000051 ] } },
{ "type": "Feature", "properties": { "OBJECTID": 123824, "Shape": null, "id": "IT_BNEE850048", "name": "CAMPOLI CAP.", "lat": 41.13156, "lon": 14.64506, "city": "CAMPOLI DEL MONTE TABURNO", "public_private": "PUBLIC" }, "geometry": { "type": "Point", "coordinates": [ 14.64506, 41.13156 ] } },
{ "type": "Feature", "properties": { "OBJECTID": 123825, "Shape": null, "id": "IT_PNIC81100E", "name": "IC FONTANAFREDDA\"R.L.MONTALCINI", "lat": 45.98272, "lon": 12.5710038, "city": "FONTANAFREDDA", "public_private": "PUBLIC" }, "geometry": { "type": "Point", "coordinates": [ 12.571003800000028, 45.98272 ] } },
{ "type": "Feature", "properties": { "OBJECTID": 123826, "Shape": null, "id": "IT_SOIC806009", "name": "I.C. GARIBALDI DI CHIAVENNA", "lat": 46.3194356, "lon": 9.3916897, "city": "CHIAVENNA", "public_private": "PUBLIC" }, "geometry": { "type": "Point", "coordinates": [ 9.391689700000029, 46.319435600000077 ] } },
{ "type": "Feature", "properties": { "OBJECTID": 123827, "Shape": null, "id": "IT_TOMM85403V", "name": "I.C. VEROLENGO - TORRAZZA P.TE", "lat": 45.21532, "lon": 7.97464, "city": "TORRAZZA PIEMONTE", "public_private": "PUBLIC" }, "geometry": { "type": "Point", "coordinates": [ 7.97464, 45.21532 ] } },
{ "type": "Feature", "properties": { "OBJECTID": 123828, "Shape": null, "id": "IT_PZEE88301N", "name": "AVIGLIANO SCALO BUSCIOLANO PZ", "lat": 40.6057264, "lon": 15.7629412, "city": "POTENZA", "public_private": "PUBLIC" }, "geometry": { "type": "Point", "coordinates": [ 15.762941200000057, 40.605726400000037 ] } },
{ "type": "Feature", "properties": { "OBJECTID": 123829, "Shape": null, "id": "IT_PIEE84101X", "name": "GALILEI", "lat": 43.67558295, "lon": 10.54945619, "city": "CASCINA", "public_private": "PUBLIC" }, "geometry": { "type": "Point", "coordinates": [ 10.549456190000058, 43.675582950000035 ] } },
{ "type": "Feature", "properties": { "OBJECTID": 123830, "Shape": null, "id": "IT_UDEE856016", "name": "ENRICO FRUCH - PASIAN DI PRATO", "lat": 46.05234, "lon": 13.1927, "city": "PASIAN DI PRATO", "public_private": "PUBLIC" }, "geometry": { "type": "Point", "coordinates": [ 13.1927, 46.05234 ] } },
{ "type": "Feature", "properties": { "OBJECTID": 123831, "Shape": null, "id": "IT_BOMM867016", "name": "G. SIMONI - MEDICINA", "lat": 44.47583, "lon": 11.64098, "city": "MEDICINA", "public_private": "PUBLIC" }, "geometry": { "type": "Point", "coordinates": [ 11.64098, 44.47583 ] } },
{ "type": "Feature", "properties": { "OBJECTID": 123832, "Shape": null, "id": "IT_CEAA897016", "name": "LUSCIANO VIA RESISTENZA", "lat": 40.97131, "lon": 14.19217, "city": "LUSCIANO", "public_private": "PUBLIC" }, "geometry": { "type": "Point", "coordinates": [ 14.19217, 40.97131 ] } },
{ "type": "Feature", "properties": { "OBJECTID": 123833, "Shape": null, "id": "IT_MBEE8AD029", "name": "\"B. MUNARI\" - MONZA", "lat": 45.5731328, "lon": 9.2562191, "city": "MONZA", "public_private": "PUBLIC" }, "geometry": { "type": "Point", "coordinates": [ 9.256219100000067, 45.573132800000053 ] } },
{ "type": "Feature", "properties": { "OBJECTID": 123834, "Shape": null, "id": "IT_TOIC894006", "name": "I.C. AZEGLIO", "lat": 45.4248143, "lon": 7.991409509, "city": "AZEGLIO", "public_private": "PUBLIC" }, "geometry": { "type": "Point", "coordinates": [ 7.99140950900005, 45.424814300000037 ] } },
{ "type": "Feature", "properties": { "OBJECTID": 123835, "Shape": null, "id": "IT_RNEE813056", "name": "MARINA CENTRO (IC G.ZAVALLONI)", "lat": 44.00249, "lon": 12.6551, "city": "RICCIONE", "public_private": "PUBLIC" }, "geometry": { "type": "Point", "coordinates": [ 12.6551, 44.00249 ] } },
{ "type": "Feature", "properties": { "OBJECTID": 123836, "Shape": null, "id": "IT_MSEE81808T", "name": "\"CARDUCCI\" POGGIOLETTO (MASSA)", "lat": 44.027504, "lon": 10.134002, "city": "MASSA", "public_private": "PUBLIC" }, "geometry": { "type": "Point", "coordinates": [ 10.134002, 44.027504 ] } },
{ "type": "Feature", "properties": { "OBJECTID": 123837, "Shape": null, "id": "IT_VAEE82805B", "name": "A. MANZONI - MONVALLE", "lat": 45.85654, "lon": 8.6281, "city": "MONVALLE", "public_private": "PUBLIC" }, "geometry": { "type": "Point", "coordinates": [ 8.6281, 45.85654 ] } },
{ "type": "Feature", "properties": { "OBJECTID": 123838, "Shape": null, "id": "IT_FIMM82903G", "name": "GALILEO CHINI", "lat": 43.9960778, "lon": 11.3550688, "city": "SCARPERIA E SAN PIERO", "public_private": "PUBLIC" }, "geometry": { "type": "Point", "coordinates": [ 11.355068800000026, 43.99607780000008 ] } },
{ "type": "Feature", "properties": { "OBJECTID": 123839, "Shape": null, "id": "IT_RMIC87400D", "name": "FIANO VIA L.GIUSTINIANI 20", "lat": 42.17113, "lon": 12.58918, "city": "FIANO ROMANO", "public_private": "PUBLIC" }, "geometry": { "type": "Point", "coordinates": [ 12.58918, 42.17113 ] } },
{ "type": "Feature", "properties": { "OBJECTID": 123840, "Shape": null, "id": "IT_BATD007011", "name": "I.I.S.S. \"L. EINAUDI\"", "lat": 41.21766, "lon": 16.05828, "city": "CANOSA DI PUGLIA", "public_private": "PUBLIC" }, "geometry": { "type": "Point", "coordinates": [ 16.05828, 41.21766 ] } },
{ "type": "Feature", "properties": { "OBJECTID": 123841, "Shape": null, "id": "IT_MNEE839018", "name": "PRIMARIA CAMPITELLO", "lat": 45.0892862, "lon": 10.6040519, "city": "MARCARIA", "public_private": "PUBLIC" }, "geometry": { "type": "Point", "coordinates": [ 10.604051900000059, 45.08928620000006 ] } },
{ "type": "Feature", "properties": { "OBJECTID": 123842, "Shape": null, "id": "IT_FRAA834037", "name": "ROCCASECCA SCALO-VIA LAZIO", "lat": 41.53026, "lon": 13.64981, "city": "ROCCASECCA", "public_private": "PUBLIC" }, "geometry": { "type": "Point", "coordinates": [ 13.64981, 41.53026 ] } },
{ "type": "Feature", "properties": { "OBJECTID": 123843, "Shape": null, "id": "EL_261", "name": "2Ο ΤΕΕ ΠΑΤΡΑΣ", "lat": 38.222626, "lon": 21.752115, "city": null, "public_private": null }, "geometry": { "type": "Point", "coordinates": [ 21.752115, 38.222626 ] } },
{ "type": "Feature", "properties": { "OBJECTID": 123844, "Shape": null, "id": "IT_NAPS00601E", "name": "I.S.I.S. \"ROSARIO LIVATINO\"", "lat": 40.8333784, "lon": 14.3178075, "city": "NAPOLI", "public_private": "PUBLIC" }, "geometry": { "type": "Point", "coordinates": [ 14.317807500000072, 40.833378400000072 ] } },
{ "type": "Feature", "properties": { "OBJECTID": 123845, "Shape": null, "id": "IT_CZPS01801T", "name": "LS \"A.GUARASCI\" SOVERATO", "lat": 38.68396, "lon": 16.55246, "city": "SOVERATO", "public_private": "PUBLIC" }, "geometry": { "type": "Point", "coordinates": [ 16.55246, 38.68396 ] } },
{ "type": "Feature", "properties": { "OBJECTID": 123846, "Shape": null, "id": "IT_MIEE8FB03V", "name": "PRIMARIA M.GREPPI", "lat": 45.40625, "lon": 9.26891, "city": "SAN DONATO MILANESE", "public_private": "PUBLIC" }, "geometry": { "type": "Point", "coordinates": [ 9.26891, 45.40625 ] } },
{ "type": "Feature", "properties": { "OBJECTID": 123847, "Shape": null, "id": "IT_BAEE8AE01G", "name": "CARRANTE - PRIMARIA", "lat": 41.09517, "lon": 16.86449, "city": "BARI", "public_private": "PUBLIC" }, "geometry": { "type": "Point", "coordinates": [ 16.86449, 41.09517 ] } },
{ "type": "Feature", "properties": { "OBJECTID": 123848, "Shape": null, "id": "IT_MEEE877017", "name": "TORRENOVA", "lat": 38.0941431, "lon": 14.6745612, "city": "TORRENOVA", "public_private": "PUBLIC" }, "geometry": { "type": "Point", "coordinates": [ 14.674561200000028, 38.094143100000053 ] } },
{ "type": "Feature", "properties": { "OBJECTID": 123849, "Shape": null, "id": "IT_RMIC8B0005", "name": "G. PALLAVICINI", "lat": 41.8079183, "lon": 12.4469905, "city": "ROMA", "public_private": "PUBLIC" }, "geometry": { "type": "Point", "coordinates": [ 12.446990500000027, 41.80791830000004 ] } },
{ "type": "Feature", "properties": { "OBJECTID": 123850, "Shape": null, "id": "IT_PZMM852022", "name": "I GRADO RIVELLO", "lat": 40.08147, "lon": 15.7592, "city": "RIVELLO", "public_private": "PUBLIC" }, "geometry": { "type": "Point", "coordinates": [ 15.7592, 40.08147 ] } },
{ "type": "Feature", "properties": { "OBJECTID": 123851, "Shape": null, "id": "IT_ALIC83000A", "name": "NOVI LIGURE 2 - IST. COMPR.", "lat": 44.7600311, "lon": 8.8020606, "city": "NOVI LIGURE", "public_private": "PUBLIC" }, "geometry": { "type": "Point", "coordinates": [ 8.802060600000061, 44.760031100000049 ] } },
{ "type": "Feature", "properties": { "OBJECTID": 123852, "Shape": null, "id": "IT_NAAA87901E", "name": "I.C. VIVIANI - CASAREA CASALNUO", "lat": 40.91564, "lon": 14.3503, "city": "CASALNUOVO DI NAPOLI", "public_private": "PUBLIC" }, "geometry": { "type": "Point", "coordinates": [ 14.3503, 40.91564 ] } },
{ "type": "Feature", "properties": { "OBJECTID": 123853, "Shape": null, "id": "IT_NAAA8FW01C", "name": "PORTICI IC 2 - VIA BERNINI", "lat": 40.81717, "lon": 14.34245, "city": "PORTICI", "public_private": "PUBLIC" }, "geometry": { "type": "Point", "coordinates": [ 14.34245, 40.81717 ] } },
{ "type": "Feature", "properties": { "OBJECTID": 123854, "Shape": null, "id": "IT_CBAA849033", "name": "VIA BERLINGUER", "lat": 41.5645123, "lon": 14.6690588, "city": "CAMPOBASSO", "public_private": "PUBLIC" }, "geometry": { "type": "Point", "coordinates": [ 14.669058800000073, 41.564512300000047 ] } },
{ "type": "Feature", "properties": { "OBJECTID": 123855, "Shape": null, "id": "IT_CTCT707001", "name": "C.T.N.14(DIST.22-S.M.STURZO BIANCAVILLA)", "lat": 37.6420136, "lon": 14.8740699, "city": "BIANCAVILLA", "public_private": "PUBLIC" }, "geometry": { "type": "Point", "coordinates": [ 14.874069900000052, 37.642013600000041 ] } },
{ "type": "Feature", "properties": { "OBJECTID": 123856, "Shape": null, "id": "IT_MOEE824017", "name": "\" GASPARINI \" CONCORDIA S/S", "lat": 44.9174979, "lon": 10.9878928, "city": "CONCORDIA SULLA SECCHIA", "public_private": "PUBLIC" }, "geometry": { "type": "Point", "coordinates": [ 10.987892800000054, 44.917497900000058 ] } },
{ "type": "Feature", "properties": { "OBJECTID": 123857, "Shape": null, "id": "IT_PGTF003013", "name": "\"SALVATORELLI-MONETA\"", "lat": 42.90465, "lon": 12.33686, "city": "MARSCIANO", "public_private": "PUBLIC" }, "geometry": { "type": "Point", "coordinates": [ 12.33686, 42.90465 ] } },
{ "type": "Feature", "properties": { "OBJECTID": 123858, "Shape": null, "id": "IT_KRMM821024", "name": "CASTELSILANO", "lat": 39.26537, "lon": 16.76517, "city": "CASTELSILANO", "public_private": "PUBLIC" }, "geometry": { "type": "Point", "coordinates": [ 16.76517, 39.26537 ] } },
{ "type": "Feature", "properties": { "OBJECTID": 123859, "Shape": null, "id": "IT_UDAA82802T", "name": "TREPPO GRANDE", "lat": 46.190624, "lon": 13.158124, "city": "TREPPO GRANDE", "public_private": "PUBLIC" }, "geometry": { "type": "Point", "coordinates": [ 13.158124, 46.190624 ] } },
{ "type": "Feature", "properties": { "OBJECTID": 123860, "Shape": null, "id": "IT_GREE81805R", "name": "SCARLINO CAP.-\"P.BARBERINI\"", "lat": 42.9087872, "lon": 10.8511208, "city": "SCARLINO", "public_private": "PUBLIC" }, "geometry": { "type": "Point", "coordinates": [ 10.851120800000047, 42.908787200000063 ] } },
{ "type": "Feature", "properties": { "OBJECTID": 123861, "Shape": null, "id": "IT_UDAA848034", "name": "MANZANO/V. ZORUTTI", "lat": 45.9901012, "lon": 13.3828817, "city": "MANZANO", "public_private": "PUBLIC" }, "geometry": { "type": "Point", "coordinates": [ 13.382881700000041, 45.990101200000026 ] } },
{ "type": "Feature", "properties": { "OBJECTID": 123862, "Shape": null, "id": "IT_LUMM830015", "name": "\"PELLEGRINI \" MASSAROSA", "lat": 43.8680158, "lon": 10.3409085, "city": "MASSAROSA", "public_private": "PUBLIC" }, "geometry": { "type": "Point", "coordinates": [ 10.340908500000069, 43.86801580000008 ] } },
{ "type": "Feature", "properties": { "OBJECTID": 123863, "Shape": null, "id": "IT_MNTD01000X", "name": "I.T.E.S. \"ALBERTO PITENTINO\"", "lat": 45.005803, "lon": 10.4696195, "city": "MANTOVA", "public_private": "PUBLIC" }, "geometry": { "type": "Point", "coordinates": [ 10.469619500000022, 45.005803 ] } },
{ "type": "Feature", "properties": { "OBJECTID": 123864, "Shape": null, "id": "IT_VETH00801E", "name": "SEBASTIANO VENIER", "lat": 46.1926913, "lon": 13.1000561, "city": "VENEZIA", "public_private": "PUBLIC" }, "geometry": { "type": "Point", "coordinates": [ 13.100056100000074, 46.192691300000035 ] } },
{ "type": "Feature", "properties": { "OBJECTID": 123865, "Shape": null, "id": "IT_CEIC8A2009", "name": "FIERAMOSCA - MARTUCCI CAPUA", "lat": 41.1120839, "lon": 14.2073773, "city": "CAPUA", "public_private": "PUBLIC" }, "geometry": { "type": "Point", "coordinates": [ 14.207377300000076, 41.112083900000073 ] } },
{ "type": "Feature", "properties": { "OBJECTID": 123866, "Shape": null, "id": "IT_RMEE8D7028", "name": "PRINCIPESSA MAFALDA", "lat": 41.9214424, "lon": 12.4980602, "city": "ROMA", "public_private": "PUBLIC" }, "geometry": { "type": "Point", "coordinates": [ 12.498060200000054, 41.921442400000046 ] } },
{ "type": "Feature", "properties": { "OBJECTID": 123867, "Shape": null, "id": "IT_VEMM868013", "name": "GIACOMO LEOPARDI", "lat": 45.438358, "lon": 12.1216826, "city": "MIRA", "public_private": "PUBLIC" }, "geometry": { "type": "Point", "coordinates": [ 12.121682600000042, 45.438358 ] } },
{ "type": "Feature", "properties": { "OBJECTID": 123868, "Shape": null, "id": "IT_VRIC84200D", "name": "IC MINERBE", "lat": 45.23838, "lon": 11.34129, "city": "MINERBE", "public_private": "PUBLIC" }, "geometry": { "type": "Point", "coordinates": [ 11.34129, 45.23838 ] } },
{ "type": "Feature", "properties": { "OBJECTID": 123869, "Shape": null, "id": "IT_FREE85004B", "name": "SORA RUGGERI", "lat": 41.716682, "lon": 13.6166443, "city": "SORA", "public_private": "PUBLIC" }, "geometry": { "type": "Point", "coordinates": [ 13.616644300000075, 41.716682 ] } },
{ "type": "Feature", "properties": { "OBJECTID": 123870, "Shape": null, "id": "IT_RCMM86501L", "name": "PEDULLA' (SIDERNO)", "lat": 38.264465, "lon": 16.2909173, "city": "SIDERNO", "public_private": "PUBLIC" }, "geometry": { "type": "Point", "coordinates": [ 16.290917300000046, 38.264465 ] } },
{ "type": "Feature", "properties": { "OBJECTID": 123871, "Shape": null, "id": "IT_PAMM8BF013", "name": "LEONARDO DA VINCI", "lat": 38.13848, "lon": 13.33788, "city": "PALERMO", "public_private": "PUBLIC" }, "geometry": { "type": "Point", "coordinates": [ 13.33788, 38.13848 ] } },
{ "type": "Feature", "properties": { "OBJECTID": 123872, "Shape": null, "id": "IT_VISL01301L", "name": "LICEO ARTISTICO A.CANOVA- VICENZA", "lat": 45.5454805, "lon": 11.5677185, "city": "VICENZA", "public_private": "PUBLIC" }, "geometry": { "type": "Point", "coordinates": [ 11.567718500000069, 45.545480500000053 ] } },
{ "type": "Feature", "properties": { "OBJECTID": 123873, "Shape": null, "id": "IT_COEE83001D", "name": "CADORAGO CAP", "lat": 45.72466, "lon": 9.0362, "city": "CADORAGO", "public_private": "PUBLIC" }, "geometry": { "type": "Point", "coordinates": [ 9.0362, 45.72466 ] } },
{ "type": "Feature", "properties": { "OBJECTID": 123874, "Shape": null, "id": "IT_LUAA834029", "name": "\"GENNY BIBOLOTTI MARSILI\"", "lat": 43.9547087, "lon": 10.2174139, "city": "PIETRASANTA", "public_private": "PUBLIC" }, "geometry": { "type": "Point", "coordinates": [ 10.217413900000054, 43.954708700000026 ] } },
{ "type": "Feature", "properties": { "OBJECTID": 123875, "Shape": null, "id": "IT_CBMM85304X", "name": "MONS. V. CORDISCO MONTEFALCONE", "lat": 41.86555, "lon": 14.63579, "city": "MONTEFALCONE NEL SANNIO", "public_private": "PUBLIC" }, "geometry": { "type": "Point", "coordinates": [ 14.63579, 41.86555 ] } },
{ "type": "Feature", "properties": { "OBJECTID": 123876, "Shape": null, "id": "IT_FIEE82202R", "name": "COLLI ALTI - \"DANTE ALIGHIERI\"", "lat": 43.79794, "lon": 11.10296, "city": "SIGNA", "public_private": "PUBLIC" }, "geometry": { "type": "Point", "coordinates": [ 11.10296, 43.79794 ] } },
{ "type": "Feature", "properties": { "OBJECTID": 123877, "Shape": null, "id": "IT_SRTD00901A", "name": "IST.TEC. SETT. ECONOMICO \"A. RUIZ\"", "lat": 37.2442, "lon": 15.21931, "city": "AUGUSTA", "public_private": "PUBLIC" }, "geometry": { "type": "Point", "coordinates": [ 15.21931, 37.2442 ] } },
{ "type": "Feature", "properties": { "OBJECTID": 123878, "Shape": null, "id": "IT_LIMM81001D", "name": "\"MURATORI LODOVICO ANTONIO\"", "lat": 43.07774, "lon": 10.67576, "city": "SUVERETO", "public_private": "PUBLIC" }, "geometry": { "type": "Point", "coordinates": [ 10.67576, 43.07774 ] } },
{ "type": "Feature", "properties": { "OBJECTID": 123879, "Shape": null, "id": "IT_UDAA848056", "name": "SAN GIOVANNI AL NAT/V.SCUOLE", "lat": 45.9776254, "lon": 13.399966, "city": "SAN GIOVANNI AL NATISONE", "public_private": "PUBLIC" }, "geometry": { "type": "Point", "coordinates": [ 13.399966, 45.977625400000079 ] } },
{ "type": "Feature", "properties": { "OBJECTID": 123880, "Shape": null, "id": "IT_COAA80901V", "name": "COMO VIA BRAMBILLA", "lat": 45.7731162, "lon": 9.1242247, "city": "COMO", "public_private": "PUBLIC" }, "geometry": { "type": "Point", "coordinates": [ 9.12422470000007, 45.773116200000061 ] } },
{ "type": "Feature", "properties": { "OBJECTID": 123881, "Shape": null, "id": "IT_PAAA840037", "name": "GRISI' VIA V.E. = CAMPOREALE", "lat": 37.95306, "lon": 13.09086, "city": "MONREALE", "public_private": "PUBLIC" }, "geometry": { "type": "Point", "coordinates": [ 13.09086, 37.95306 ] } },
{ "type": "Feature", "properties": { "OBJECTID": 123882, "Shape": null, "id": "IT_BLAA82602D", "name": "SCUOLA INFANZIA CENCENIGHE AG.", "lat": 46.3492781, "lon": 11.9688758, "city": "CENCENIGHE AGORDINO", "public_private": "PUBLIC" }, "geometry": { "type": "Point", "coordinates": [ 11.968875800000035, 46.349278100000049 ] } },
{ "type": "Feature", "properties": { "OBJECTID": 123883, "Shape": null, "id": "IT_MTTF01601L", "name": "I.TEC.IND.\"F. CASSOLA\"-FERRANDINA", "lat": 40.5079388, "lon": 16.4491757, "city": "FERRANDINA", "public_private": "PUBLIC" }, "geometry": { "type": "Point", "coordinates": [ 16.449175700000069, 40.507938800000034 ] } },
{ "type": "Feature", "properties": { "OBJECTID": 123884, "Shape": null, "id": "IT_AQIC823003", "name": "IC NAVELLI", "lat": 42.2364249, "lon": 13.73074329, "city": "NAVELLI", "public_private": "PUBLIC" }, "geometry": { "type": "Point", "coordinates": [ 13.730743290000078, 42.236424900000031 ] } },
{ "type": "Feature", "properties": { "OBJECTID": 123885, "Shape": null, "id": "IT_NAIS026009", "name": "I.S. LICEO \"ELSA MORANTE\"", "lat": 40.9006483, "lon": 14.2504155, "city": "NAPOLI", "public_private": "PUBLIC" }, "geometry": { "type": "Point", "coordinates": [ 14.250415500000031, 40.900648300000057 ] } },
{ "type": "Feature", "properties": { "OBJECTID": 123886, "Shape": null, "id": "IT_CZTD01801N", "name": "ITE \"ANTONINO CALABRETTA\" SOVERATO", "lat": 38.68652, "lon": 16.54991, "city": "SOVERATO", "public_private": "PUBLIC" }, "geometry": { "type": "Point", "coordinates": [ 16.54991, 38.68652 ] } },
{ "type": "Feature", "properties": { "OBJECTID": 123887, "Shape": null, "id": "IT_PDEE896038", "name": "CITTADELLA-CA' ONORAI", "lat": 45.6675935, "lon": 11.7799731, "city": "CITTADELLA", "public_private": "PUBLIC" }, "geometry": { "type": "Point", "coordinates": [ 11.779973100000063, 45.667593500000066 ] } },
{ "type": "Feature", "properties": { "OBJECTID": 123888, "Shape": null, "id": "IT_AREE81004R", "name": "ARCOBALENO", "lat": 43.3975151, "lon": 11.7860358, "city": "CIVITELLA IN VAL DI CHIANA", "public_private": "PUBLIC" }, "geometry": { "type": "Point", "coordinates": [ 11.786035800000036, 43.397515100000078 ] } },
{ "type": "Feature", "properties": { "OBJECTID": 123889, "Shape": null, "id": "IT_LEAA831013", "name": "I NUCLEO", "lat": 40.2631579, "lon": 17.8949405, "city": "PORTO CESAREO", "public_private": "PUBLIC" }, "geometry": { "type": "Point", "coordinates": [ 17.894940500000075, 40.263157900000067 ] } },
{ "type": "Feature", "properties": { "OBJECTID": 123890, "Shape": null, "id": "EL_262", "name": "10Ο ΤΕΕ ΠΑΤΡΑΣ", "lat": 38.253748, "lon": 21.747153, "city": null, "public_private": null }, "geometry": { "type": "Point", "coordinates": [ 21.747153, 38.253748 ] } },
{ "type": "Feature", "properties": { "OBJECTID": 123891, "Shape": null, "id": "IT_LEEE889043", "name": "GIOSUE' CARDUCCI", "lat": 39.9532554, "lon": 18.217524, "city": "TAURISANO", "public_private": "PUBLIC" }, "geometry": { "type": "Point", "coordinates": [ 18.217524, 39.953255400000046 ] } },
{ "type": "Feature", "properties": { "OBJECTID": 123892, "Shape": null, "id": "IT_REMM83701N", "name": "CASTELLARANO \"GIOVANNI XXIII\"", "lat": 44.5114136, "lon": 10.7309244, "city": "CASTELLARANO", "public_private": "PUBLIC" }, "geometry": { "type": "Point", "coordinates": [ 10.730924400000049, 44.511413600000026 ] } },
{ "type": "Feature", "properties": { "OBJECTID": 123893, "Shape": null, "id": "IT_SAMM807017", "name": "S. GREGORIO MAGNO", "lat": 40.66002, "lon": 15.40117, "city": "SAN GREGORIO MAGNO", "public_private": "PUBLIC" }, "geometry": { "type": "Point", "coordinates": [ 15.40117, 40.66002 ] } },
{ "type": "Feature", "properties": { "OBJECTID": 123894, "Shape": null, "id": "IT_BREE82303P", "name": "ALCIDE DE GASPERI", "lat": 40.491681, "lon": 17.9954365, "city": "SAN PIETRO VERNOTICO", "public_private": "PUBLIC" }, "geometry": { "type": "Point", "coordinates": [ 17.995436500000039, 40.491681 ] } },
{ "type": "Feature", "properties": { "OBJECTID": 123895, "Shape": null, "id": "IT_AGTD09001T", "name": "LEONARDO SCIASCIA", "lat": 37.2972244, "lon": 13.5285019, "city": "PORTO EMPEDOCLE", "public_private": "PUBLIC" }, "geometry": { "type": "Point", "coordinates": [ 13.528501900000037, 37.297224400000061 ] } },
{ "type": "Feature", "properties": { "OBJECTID": 123896, "Shape": null, "id": "IT_RCEE842022", "name": "TELESIO", "lat": 38.093339, "lon": 15.655192, "city": "REGGIO DI CALABRIA", "public_private": "PUBLIC" }, "geometry": { "type": "Point", "coordinates": [ 15.655192, 38.093339 ] } },
{ "type": "Feature", "properties": { "OBJECTID": 123897, "Shape": null, "id": "IT_PDEE84303Q", "name": "GAZZO PADOVANO-GROSSA", "lat": 45.5585919, "lon": 11.7094098, "city": "GAZZO", "public_private": "PUBLIC" }, "geometry": { "type": "Point", "coordinates": [ 11.70940980000006, 45.558591900000067 ] } },
{ "type": "Feature", "properties": { "OBJECTID": 123898, "Shape": null, "id": "IT_MIRC061012", "name": "I.P. - M. BELLISARIO", "lat": 45.54265, "lon": 9.47167, "city": "INZAGO", "public_private": "PUBLIC" }, "geometry": { "type": "Point", "coordinates": [ 9.47167, 45.54265 ] } },
{ "type": "Feature", "properties": { "OBJECTID": 123899, "Shape": null, "id": "IT_VRPS00801L", "name": "A.M. ROVEGGIO", "lat": 45.30466, "lon": 11.38239, "city": "COLOGNA VENETA", "public_private": "PUBLIC" }, "geometry": { "type": "Point", "coordinates": [ 11.38239, 45.30466 ] } },
{ "type": "Feature", "properties": { "OBJECTID": 123900, "Shape": null, "id": "IT_SPMM801015", "name": "VEZZANO L. / PRATI SARCIARA", "lat": 44.13006, "lon": 9.88812, "city": "VEZZANO LIGURE", "public_private": "PUBLIC" }, "geometry": { "type": "Point", "coordinates": [ 9.88812, 44.13006 ] } },
{ "type": "Feature", "properties": { "OBJECTID": 123901, "Shape": null, "id": "IT_PSAA836024", "name": "URBINO PASCOLI-PETRIANO/GALLO", "lat": 43.7855848, "lon": 12.7152361, "city": "PETRIANO", "public_private": "PUBLIC" }, "geometry": { "type": "Point", "coordinates": [ 12.715236100000027, 43.785584800000038 ] } },
{ "type": "Feature", "properties": { "OBJECTID": 123902, "Shape": null, "id": "IT_CZEE871049", "name": "PIRIVOGLIA-IC CHIARAVALLE N. 2", "lat": 38.69242, "lon": 16.402, "city": "CHIARAVALLE CENTRALE", "public_private": "PUBLIC" }, "geometry": { "type": "Point", "coordinates": [ 16.402, 38.69242 ] } },
{ "type": "Feature", "properties": { "OBJECTID": 123903, "Shape": null, "id": "IT_MEAA897039", "name": "S.LUCIA", "lat": 38.2671854, "lon": 15.6340898, "city": "MESSINA", "public_private": "PUBLIC" }, "geometry": { "type": "Point", "coordinates": [ 15.634089800000027, 38.267185400000074 ] } },
{ "type": "Feature", "properties": { "OBJECTID": 123904, "Shape": null, "id": "IT_NAAA8CQ04B", "name": "I.C. A. DE CURTIS - PALMA CAMPA", "lat": 40.86655, "lon": 14.54263, "city": "PALMA CAMPANIA", "public_private": "PUBLIC" }, "geometry": { "type": "Point", "coordinates": [ 14.54263, 40.86655 ] } },
{ "type": "Feature", "properties": { "OBJECTID": 123905, "Shape": null, "id": "IT_RMMM8B0016", "name": "V. BACHELET", "lat": 41.8074373, "lon": 12.4421922, "city": "ROMA", "public_private": "PUBLIC" }, "geometry": { "type": "Point", "coordinates": [ 12.442192200000022, 41.807437300000061 ] } },
{ "type": "Feature", "properties": { "OBJECTID": 123906, "Shape": null, "id": "IT_VAEE81202P", "name": "QUAGLIA - FR. BOGNO -", "lat": 45.8429064, "lon": 8.6562449, "city": "BESOZZO", "public_private": "PUBLIC" }, "geometry": { "type": "Point", "coordinates": [ 8.656244900000047, 45.842906400000061 ] } },
{ "type": "Feature", "properties": { "OBJECTID": 123907, "Shape": null, "id": "IT_ANEE843037", "name": "OSIMO \"BRUNO DA OSIMO\"", "lat": 43.48638, "lon": 13.48659, "city": "OSIMO", "public_private": "PUBLIC" }, "geometry": { "type": "Point", "coordinates": [ 13.48659, 43.48638 ] } },
{ "type": "Feature", "properties": { "OBJECTID": 123908, "Shape": null, "id": "IT_MIEE8AP01B", "name": "PRMARIA A. COSTA", "lat": 45.55604, "lon": 9.22121, "city": "CINISELLO BALSAMO", "public_private": "PUBLIC" }, "geometry": { "type": "Point", "coordinates": [ 9.22121, 45.55604 ] } },
{ "type": "Feature", "properties": { "OBJECTID": 123909, "Shape": null, "id": "IT_MIEE8FH01Q", "name": "PRIMARIA A.MANZONI", "lat": 45.5580075, "lon": 8.9449418, "city": "PARABIAGO", "public_private": "PUBLIC" }, "geometry": { "type": "Point", "coordinates": [ 8.944941800000038, 45.558007500000031 ] } },
{ "type": "Feature", "properties": { "OBJECTID": 123910, "Shape": null, "id": "IT_IMEE806027", "name": "S.BIAGIO DELLA CIMA", "lat": 43.81739, "lon": 7.64952, "city": "SAN BIAGIO DELLA CIMA", "public_private": "PUBLIC" }, "geometry": { "type": "Point", "coordinates": [ 7.64952, 43.81739 ] } },
{ "type": "Feature", "properties": { "OBJECTID": 123911, "Shape": null, "id": "IT_BGEE83409A", "name": "FILAGO CAP.", "lat": 45.63623, "lon": 9.55427, "city": "FILAGO", "public_private": "PUBLIC" }, "geometry": { "type": "Point", "coordinates": [ 9.55427, 45.63623 ] } },
{ "type": "Feature", "properties": { "OBJECTID": 123912, "Shape": null, "id": "IT_UDAA818027", "name": "\"CARLO COLLODI\" - MADRISIO", "lat": 46.118384, "lon": 13.0581007, "city": "FAGAGNA", "public_private": "PUBLIC" }, "geometry": { "type": "Point", "coordinates": [ 13.058100700000068, 46.118384 ] } },
{ "type": "Feature", "properties": { "OBJECTID": 123913, "Shape": null, "id": "IT_NAEE897019", "name": "GRUMO NEVANO MATTEOTTI CIRILLO", "lat": 40.9404371, "lon": 14.2521053, "city": "GRUMO NEVANO", "public_private": "PUBLIC" }, "geometry": { "type": "Point", "coordinates": [ 14.252105300000039, 40.940437100000054 ] } },
{ "type": "Feature", "properties": { "OBJECTID": 123914, "Shape": null, "id": "IT_PIPM050007", "name": "EUGENIO MONTALE", "lat": 43.6692384, "lon": 10.638632, "city": "PONTEDERA", "public_private": "PUBLIC" }, "geometry": { "type": "Point", "coordinates": [ 10.638632, 43.66923840000004 ] } },
{ "type": "Feature", "properties": { "OBJECTID": 123915, "Shape": null, "id": "IT_MIEE8FR02L", "name": "PRIMARIA E. DE AMICIS", "lat": 45.4597832, "lon": 8.8945072, "city": "MAGENTA", "public_private": "PUBLIC" }, "geometry": { "type": "Point", "coordinates": [ 8.894507200000021, 45.459783200000061 ] } },
{ "type": "Feature", "properties": { "OBJECTID": 123916, "Shape": null, "id": "IT_VREE86302N", "name": "\"A.MAURIGI\" PAZZON", "lat": 45.6059385, "lon": 10.7951325, "city": "CAPRINO VERONESE", "public_private": "PUBLIC" }, "geometry": { "type": "Point", "coordinates": [ 10.795132500000022, 45.605938500000036 ] } },
{ "type": "Feature", "properties": { "OBJECTID": 123917, "Shape": null, "id": "IT_UDEE83101T", "name": "I. NIEVO - PREMARIACCO", "lat": 46.0612799, "lon": 13.3954891, "city": "PREMARIACCO", "public_private": "PUBLIC" }, "geometry": { "type": "Point", "coordinates": [ 13.395489100000077, 46.061279900000045 ] } },
{ "type": "Feature", "properties": { "OBJECTID": 123918, "Shape": null, "id": "IT_TPAA83804Q", "name": "SC. DELL'INFANZIA \"S. GEMMA\"", "lat": 37.649173, "lon": 12.6154586, "city": "MAZARA DEL VALLO", "public_private": "PUBLIC" }, "geometry": { "type": "Point", "coordinates": [ 12.615458600000068, 37.649173 ] } },
{ "type": "Feature", "properties": { "OBJECTID": 123919, "Shape": null, "id": "IT_TOAA00401L", "name": "TO ALLIEVO SPINA 3", "lat": 45.09134, "lon": 7.66936, "city": "TORINO", "public_private": "PUBLIC" }, "geometry": { "type": "Point", "coordinates": [ 7.66936, 45.09134 ] } },
{ "type": "Feature", "properties": { "OBJECTID": 123920, "Shape": null, "id": "IT_VEMM811017", "name": "DON TONIATTI", "lat": 45.79449, "lon": 12.90606, "city": "FOSSALTA DI PORTOGRUARO", "public_private": "PUBLIC" }, "geometry": { "type": "Point", "coordinates": [ 12.90606, 45.79449 ] } },
{ "type": "Feature", "properties": { "OBJECTID": 123921, "Shape": null, "id": "IT_ENIS01900T", "name": "\"FRATELLI TESTA\" - NICOSIA", "lat": 37.7505339, "lon": 14.38625, "city": "NICOSIA", "public_private": "PUBLIC" }, "geometry": { "type": "Point", "coordinates": [ 14.38625, 37.75053390000005 ] } },
{ "type": "Feature", "properties": { "OBJECTID": 123922, "Shape": null, "id": "IT_PDMM85801A", "name": "ROVOLON SEZ. DI CERVARESE", "lat": 45.3853787, "lon": 11.6516755, "city": "ROVOLON", "public_private": "PUBLIC" }, "geometry": { "type": "Point", "coordinates": [ 11.651675500000067, 45.385378700000047 ] } },
{ "type": "Feature", "properties": { "OBJECTID": 123923, "Shape": null, "id": "IT_NAEE220046", "name": "POMPEI 2 - L. MELE -", "lat": 40.7333069, "lon": 14.5049472, "city": "POMPEI", "public_private": "PUBLIC" }, "geometry": { "type": "Point", "coordinates": [ 14.504947200000061, 40.733306900000059 ] } },
{ "type": "Feature", "properties": { "OBJECTID": 123924, "Shape": null, "id": "IT_BGIC82200N", "name": "ARCENE - C.CONSONNI", "lat": 45.57573, "lon": 9.61115, "city": "ARCENE", "public_private": "PUBLIC" }, "geometry": { "type": "Point", "coordinates": [ 9.61115, 45.57573 ] } },
{ "type": "Feature", "properties": { "OBJECTID": 123925, "Shape": null, "id": "IT_LOMM806046", "name": "SECONDARIA I GRADO -CORNO G.", "lat": 45.1322276, "lon": 9.7591391, "city": "CORNO GIOVINE", "public_private": "PUBLIC" }, "geometry": { "type": "Point", "coordinates": [ 9.759139100000027, 45.132227600000078 ] } },
{ "type": "Feature", "properties": { "OBJECTID": 123926, "Shape": null, "id": "IT_PGEE842013", "name": "BAIANO-CROCEMARROGGIA", "lat": 42.73026, "lon": 12.67068, "city": "SPOLETO", "public_private": "PUBLIC" }, "geometry": { "type": "Point", "coordinates": [ 12.67068, 42.73026 ] } },
{ "type": "Feature", "properties": { "OBJECTID": 123927, "Shape": null, "id": "IT_LTEE82201Q", "name": "LOTTIZZAZIONE MONTARELLI", "lat": 41.5876175, "lon": 12.6391446, "city": "APRILIA", "public_private": "PUBLIC" }, "geometry": { "type": "Point", "coordinates": [ 12.639144600000066, 41.587617500000079 ] } },
{ "type": "Feature", "properties": { "OBJECTID": 123928, "Shape": null, "id": "IT_TVEE83603P", "name": "SCUOLA PRIMARIA - VISNA'", "lat": 45.8358765, "lon": 12.4137248, "city": "VAZZOLA", "public_private": "PUBLIC" }, "geometry": { "type": "Point", "coordinates": [ 12.413724800000068, 45.83587650000004 ] } },
{ "type": "Feature", "properties": { "OBJECTID": 123929, "Shape": null, "id": "IT_ARIC841007", "name": "CORTONA 2", "lat": 43.2132899, "lon": 12.0111893, "city": "CORTONA", "public_private": "PUBLIC" }, "geometry": { "type": "Point", "coordinates": [ 12.011189300000069, 43.213289900000063 ] } },
{ "type": "Feature", "properties": { "OBJECTID": 123930, "Shape": null, "id": "IT_MOAA808025", "name": "MURATORI", "lat": 44.73583, "lon": 10.92606, "city": "SOLIERA", "public_private": "PUBLIC" }, "geometry": { "type": "Point", "coordinates": [ 10.92606, 44.73583 ] } },
{ "type": "Feature", "properties": { "OBJECTID": 123931, "Shape": null, "id": "IT_PEPM020004", "name": "LICEO \"G. MARCONI\" PESCARA", "lat": 42.4597169, "lon": 14.2191894, "city": "PESCARA", "public_private": "PUBLIC" }, "geometry": { "type": "Point", "coordinates": [ 14.219189400000062, 42.459716900000046 ] } },
{ "type": "Feature", "properties": { "OBJECTID": 123932, "Shape": null, "id": "IT_BSAA806048", "name": "SCUOLA INFANZIA TREVISO BS", "lat": 45.7129495, "lon": 10.4597936, "city": "TREVISO BRESCIANO", "public_private": "PUBLIC" }, "geometry": { "type": "Point", "coordinates": [ 10.459793600000069, 45.712949500000036 ] } },
{ "type": "Feature", "properties": { "OBJECTID": 123933, "Shape": null, "id": "IT_VIAA86001G", "name": "EDMONDO DE AMICIS", "lat": 45.6384527, "lon": 11.5506055, "city": "DUEVILLE", "public_private": "PUBLIC" }, "geometry": { "type": "Point", "coordinates": [ 11.550605500000074, 45.638452700000073 ] } },
{ "type": "Feature", "properties": { "OBJECTID": 123934, "Shape": null, "id": "IT_CNMM80901A", "name": "BOVES \"A.VASSALLO\"", "lat": 44.330089, "lon": 7.5484168, "city": "BOVES", "public_private": "PUBLIC" }, "geometry": { "type": "Point", "coordinates": [ 7.548416800000041, 44.330089 ] } },
{ "type": "Feature", "properties": { "OBJECTID": 123935, "Shape": null, "id": "IT_PTAA811063", "name": "VALDIBRANA", "lat": 43.96992, "lon": 10.9133, "city": "PISTOIA", "public_private": "PUBLIC" }, "geometry": { "type": "Point", "coordinates": [ 10.9133, 43.96992 ] } },
{ "type": "Feature", "properties": { "OBJECTID": 123936, "Shape": null, "id": "IT_CSEE89003T", "name": "RENDE - CENTRO", "lat": 39.33195, "lon": 16.1864, "city": "RENDE", "public_private": "PUBLIC" }, "geometry": { "type": "Point", "coordinates": [ 16.1864, 39.33195 ] } },
{ "type": "Feature", "properties": { "OBJECTID": 123937, "Shape": null, "id": "EL_263", "name": "1Ο ΤΕΕ ΝΑΥΠΑΚΤΟΥ", "lat": 38.392171, "lon": 21.820176, "city": null, "public_private": null }, "geometry": { "type": "Point", "coordinates": [ 21.820176, 38.392171 ] } },
{ "type": "Feature", "properties": { "OBJECTID": 123938, "Shape": null, "id": "IT_CHAA841053", "name": "ORTONA A MARE - FONTEGRANDE", "lat": 42.33904, "lon": 14.37728, "city": "ORTONA", "public_private": "PUBLIC" }, "geometry": { "type": "Point", "coordinates": [ 14.37728, 42.33904 ] } },
{ "type": "Feature", "properties": { "OBJECTID": 123939, "Shape": null, "id": "IT_NAEE8F9015", "name": "POGGIOMARINO 1 IC FALCONE -CAP.", "lat": 40.7992109, "lon": 14.540883, "city": "POGGIOMARINO", "public_private": "PUBLIC" }, "geometry": { "type": "Point", "coordinates": [ 14.540883, 40.799210900000048 ] } },
{ "type": "Feature", "properties": { "OBJECTID": 123940, "Shape": null, "id": "IT_PGIS00300E", "name": "I.O. \"SALVATORELLI-MONETA\"", "lat": 42.90465, "lon": 12.33686, "city": "MARSCIANO", "public_private": "PUBLIC" }, "geometry": { "type": "Point", "coordinates": [ 12.33686, 42.90465 ] } },
{ "type": "Feature", "properties": { "OBJECTID": 123941, "Shape": null, "id": "IT_MCAA82705X", "name": "ENRICO FERMI - VIA PACE", "lat": 43.30529, "lon": 13.46219, "city": "MACERATA", "public_private": "PUBLIC" }, "geometry": { "type": "Point", "coordinates": [ 13.46219, 43.30529 ] } },
{ "type": "Feature", "properties": { "OBJECTID": 123942, "Shape": null, "id": "IT_TPEE82604P", "name": "PLESSO \"SAN G.BOSCO\" - RILIEVO", "lat": 37.9154063, "lon": 12.540773, "city": "MISILISCEMI", "public_private": "PUBLIC" }, "geometry": { "type": "Point", "coordinates": [ 12.540773, 37.915406300000029 ] } },
{ "type": "Feature", "properties": { "OBJECTID": 123943, "Shape": null, "id": "IT_PAMM88501V", "name": "KAROL WOJTYLA-PONTEFICE-SFLAVIA", "lat": 38.0845013, "lon": 13.5315709, "city": "SANTA FLAVIA", "public_private": "PUBLIC" }, "geometry": { "type": "Point", "coordinates": [ 13.531570900000077, 38.084501300000056 ] } },
{ "type": "Feature", "properties": { "OBJECTID": 123944, "Shape": null, "id": "IT_ANTF02301E", "name": "GUGLIELMO MARCONI", "lat": 43.5203382, "lon": 13.23376261, "city": "JESI", "public_private": "PUBLIC" }, "geometry": { "type": "Point", "coordinates": [ 13.233762610000042, 43.520338200000026 ] } },
{ "type": "Feature", "properties": { "OBJECTID": 123945, "Shape": null, "id": "IT_VEEE85603X", "name": "ALESSANDRO MANZONI-BALLO'", "lat": 45.45844, "lon": 12.07132, "city": "MIRANO", "public_private": "PUBLIC" }, "geometry": { "type": "Point", "coordinates": [ 12.07132, 45.45844 ] } },
{ "type": "Feature", "properties": { "OBJECTID": 123946, "Shape": null, "id": "IT_CTAA860052", "name": "MILO", "lat": 37.72187, "lon": 15.1102811, "city": "MILO", "public_private": "PUBLIC" }, "geometry": { "type": "Point", "coordinates": [ 15.110281100000066, 37.72187 ] } },
{ "type": "Feature", "properties": { "OBJECTID": 123947, "Shape": null, "id": "IT_BIEE81403G", "name": "BIELLA-PAVIGNANO", "lat": 45.580833, "lon": 8.0625233, "city": "BIELLA", "public_private": "PUBLIC" }, "geometry": { "type": "Point", "coordinates": [ 8.062523300000066, 45.580833 ] } },
{ "type": "Feature", "properties": { "OBJECTID": 123948, "Shape": null, "id": "IT_CNPS01101X", "name": "CEVA - \"G.BARUFFI\"", "lat": 44.38426685, "lon": 8.033528553, "city": "CEVA", "public_private": "PUBLIC" }, "geometry": { "type": "Point", "coordinates": [ 8.033528553000053, 44.384266850000074 ] } },
{ "type": "Feature", "properties": { "OBJECTID": 123949, "Shape": null, "id": "IT_CZRA00301N", "name": "ISTITUTO PROFESSIONALE DI STATO-SOVERIA", "lat": 39.07634, "lon": 16.38231, "city": "SOVERIA MANNELLI", "public_private": "PUBLIC" }, "geometry": { "type": "Point", "coordinates": [ 16.38231, 39.07634 ] } },
{ "type": "Feature", "properties": { "OBJECTID": 123950, "Shape": null, "id": "IT_PSEE82701D", "name": "PESARO - GAUDIANO CARDUCCI", "lat": 43.9066947, "lon": 12.912539, "city": "PESARO", "public_private": "PUBLIC" }, "geometry": { "type": "Point", "coordinates": [ 12.912539, 43.90669470000006 ] } },
{ "type": "Feature", "properties": { "OBJECTID": 123951, "Shape": null, "id": "IT_VEIC832007", "name": "I.C. S.MICHELE AL TAGLIAMENTO", "lat": 45.7627585, "lon": 12.997108, "city": "SAN MICHELE AL TAGLIAMENTO", "public_private": "PUBLIC" }, "geometry": { "type": "Point", "coordinates": [ 12.997108, 45.762758500000075 ] } },
{ "type": "Feature", "properties": { "OBJECTID": 123952, "Shape": null, "id": "IT_BGAA829019", "name": "BREMBATE-GRIGNANO", "lat": 45.619291, "lon": 9.5415308, "city": "BREMBATE", "public_private": "PUBLIC" }, "geometry": { "type": "Point", "coordinates": [ 9.541530800000032, 45.619291 ] } },
{ "type": "Feature", "properties": { "OBJECTID": 123953, "Shape": null, "id": "IT_PVEE82403T", "name": "FRAZIONE FUMO", "lat": 45.0242128, "lon": 9.1548008, "city": "CORVINO SAN QUIRICO", "public_private": "PUBLIC" }, "geometry": { "type": "Point", "coordinates": [ 9.154800800000032, 45.024212800000043 ] } },
{ "type": "Feature", "properties": { "OBJECTID": 123954, "Shape": null, "id": "IT_CAAA84702Q", "name": "VIA SARDEGNA (SETTIMO S.PIETRO)", "lat": 39.2879452, "lon": 9.189161, "city": "SETTIMO SAN PIETRO", "public_private": "PUBLIC" }, "geometry": { "type": "Point", "coordinates": [ 9.189161, 39.287945200000024 ] } },
{ "type": "Feature", "properties": { "OBJECTID": 123955, "Shape": null, "id": "IT_SAAA86301B", "name": "SCUOLA DELL'INFANZIA - ACERNO", "lat": 40.73754, "lon": 15.05653, "city": "ACERNO", "public_private": "PUBLIC" }, "geometry": { "type": "Point", "coordinates": [ 15.05653, 40.73754 ] } },
{ "type": "Feature", "properties": { "OBJECTID": 123956, "Shape": null, "id": "IT_FRMM81701G", "name": "SCUOLA MEDIA BROCCOSTELLA", "lat": 41.7030417, "lon": 13.6365993, "city": "BROCCOSTELLA", "public_private": "PUBLIC" }, "geometry": { "type": "Point", "coordinates": [ 13.636599300000057, 41.703041700000028 ] } },
{ "type": "Feature", "properties": { "OBJECTID": 123957, "Shape": null, "id": "IT_NAEE8FW02P", "name": "PORTICI IC COMES DON MILANI", "lat": 40.8138418, "lon": 14.3363962, "city": "PORTICI", "public_private": "PUBLIC" }, "geometry": { "type": "Point", "coordinates": [ 14.336396200000024, 40.813841800000034 ] } },
{ "type": "Feature", "properties": { "OBJECTID": 123958, "Shape": null, "id": "IT_TOMM89001X", "name": "I.C. DRUENTO - DON MILANI", "lat": 45.13076, "lon": 7.57729, "city": "DRUENTO", "public_private": "PUBLIC" }, "geometry": { "type": "Point", "coordinates": [ 7.57729, 45.13076 ] } },
{ "type": "Feature", "properties": { "OBJECTID": 123959, "Shape": null, "id": "IT_PIAA83006D", "name": "SC INFANZIA PERIGNANO", "lat": 43.60379, "lon": 10.5886, "city": "CASCIANA TERME LARI", "public_private": "PUBLIC" }, "geometry": { "type": "Point", "coordinates": [ 10.5886, 43.60379 ] } },
{ "type": "Feature", "properties": { "OBJECTID": 123960, "Shape": null, "id": "EL_264", "name": "1Ο ΤΕΕ ΑΓΡΙΝΙΟΥ", "lat": 38.625451, "lon": 21.413462, "city": null, "public_private": null }, "geometry": { "type": "Point", "coordinates": [ 21.413462, 38.625451 ] } },
{ "type": "Feature", "properties": { "OBJECTID": 123961, "Shape": null, "id": "IT_TAEE859012", "name": "SANT'ELIA", "lat": 40.53808, "lon": 17.42947, "city": "GROTTAGLIE", "public_private": "PUBLIC" }, "geometry": { "type": "Point", "coordinates": [ 17.42947, 40.53808 ] } },
{ "type": "Feature", "properties": { "OBJECTID": 123962, "Shape": null, "id": "IT_VEAA837028", "name": "GIANNI RODARI", "lat": 45.51688, "lon": 12.17963, "city": "MARTELLAGO", "public_private": "PUBLIC" }, "geometry": { "type": "Point", "coordinates": [ 12.17963, 45.51688 ] } },
{ "type": "Feature", "properties": { "OBJECTID": 123963, "Shape": null, "id": "IT_PEMM828015", "name": "S.M. I.SILONE - MONTESILVANO", "lat": 42.4981432, "lon": 14.1331549, "city": "MONTESILVANO", "public_private": "PUBLIC" }, "geometry": { "type": "Point", "coordinates": [ 14.133154900000022, 42.498143200000072 ] } },
{ "type": "Feature", "properties": { "OBJECTID": 123964, "Shape": null, "id": "IT_LEEE85503V", "name": "PRIMARIA \"SAC. SERGIO STISO\"", "lat": 40.205253, "lon": 18.2482725, "city": "ZOLLINO", "public_private": "PUBLIC" }, "geometry": { "type": "Point", "coordinates": [ 18.248272500000041, 40.205253 ] } },
{ "type": "Feature", "properties": { "OBJECTID": 123965, "Shape": null, "id": "IT_MIEE8E702A", "name": "PRIMARIA PIAZZA NEGRI", "lat": 45.4259513, "lon": 8.9097791, "city": "CASSINETTA DI LUGAGNANO", "public_private": "PUBLIC" }, "geometry": { "type": "Point", "coordinates": [ 8.909779100000037, 45.425951300000065 ] } },
{ "type": "Feature", "properties": { "OBJECTID": 123966, "Shape": null, "id": "IT_TOAA87104D", "name": "IC RIVOLI MATTEOTTI D. CAUSTICO", "lat": 45.0784872, "lon": 7.514323, "city": "RIVOLI", "public_private": "PUBLIC" }, "geometry": { "type": "Point", "coordinates": [ 7.514323, 45.078487200000041 ] } },
{ "type": "Feature", "properties": { "OBJECTID": 123967, "Shape": null, "id": "IT_PAIC840008", "name": "I.C. CAMPOREALE", "lat": 37.887138, "lon": 13.09958189, "city": "CAMPOREALE", "public_private": "PUBLIC" }, "geometry": { "type": "Point", "coordinates": [ 13.099581890000024, 37.887138 ] } },
{ "type": "Feature", "properties": { "OBJECTID": 123968, "Shape": null, "id": "IT_REIC827002", "name": "CADELBOSCO DI SOPRA", "lat": 44.76453, "lon": 10.59443, "city": "CADELBOSCO DI SOPRA", "public_private": "PUBLIC" }, "geometry": { "type": "Point", "coordinates": [ 10.59443, 44.76453 ] } },
{ "type": "Feature", "properties": { "OBJECTID": 123969, "Shape": null, "id": "IT_GEAA81202T", "name": "S.MAT. - MONTEGRAPPA -", "lat": 44.4280046, "lon": 8.9076848, "city": "GENOVA", "public_private": "PUBLIC" }, "geometry": { "type": "Point", "coordinates": [ 8.907684800000027, 44.428004600000065 ] } },
{ "type": "Feature", "properties": { "OBJECTID": 123970, "Shape": null, "id": "IT_MNAA82103X", "name": "INFANZIA SAN GIACOMO D/ SEGNATE", "lat": 44.9735605, "lon": 11.0377082, "city": "SAN GIACOMO DELLE SEGNATE", "public_private": "PUBLIC" }, "geometry": { "type": "Point", "coordinates": [ 11.037708200000054, 44.973560500000076 ] } },
{ "type": "Feature", "properties": { "OBJECTID": 123971, "Shape": null, "id": "IT_CTAA8AX03N", "name": "PLESSO VERGA", "lat": 37.22278, "lon": 14.52186, "city": "CALTAGIRONE", "public_private": "PUBLIC" }, "geometry": { "type": "Point", "coordinates": [ 14.52186, 37.22278 ] } },
{ "type": "Feature", "properties": { "OBJECTID": 123972, "Shape": null, "id": "IT_SVEE805043", "name": "ANDORA - STELLANELLO F.BRUNO", "lat": 41.3067508, "lon": 14.8754619, "city": "STELLANELLO", "public_private": "PUBLIC" }, "geometry": { "type": "Point", "coordinates": [ 14.875461900000062, 41.306750800000032 ] } },
{ "type": "Feature", "properties": { "OBJECTID": 123973, "Shape": null, "id": "IT_MIIC8CH00T", "name": "IC CONFALONIERI", "lat": 45.4877387, "lon": 9.1855216, "city": "MILANO", "public_private": "PUBLIC" }, "geometry": { "type": "Point", "coordinates": [ 9.185521600000072, 45.487738700000079 ] } },
{ "type": "Feature", "properties": { "OBJECTID": 123974, "Shape": null, "id": "IT_FIAA809025", "name": "GEMMA CECCHI", "lat": 43.55315, "lon": 10.90892, "city": "MONTAIONE", "public_private": "PUBLIC" }, "geometry": { "type": "Point", "coordinates": [ 10.90892, 43.55315 ] } },
{ "type": "Feature", "properties": { "OBJECTID": 123975, "Shape": null, "id": "IT_CNEE81606Q", "name": "CAMERANA - FRAZ. CONTRADA", "lat": 44.44302, "lon": 8.14593, "city": "CAMERANA", "public_private": "PUBLIC" }, "geometry": { "type": "Point", "coordinates": [ 8.14593, 44.44302 ] } },
{ "type": "Feature", "properties": { "OBJECTID": 123976, "Shape": null, "id": "IT_ROIC810005", "name": "FIESSO UMBERTIANO", "lat": 44.94293, "lon": 11.59687, "city": "FIESSO UMBERTIANO", "public_private": "PUBLIC" }, "geometry": { "type": "Point", "coordinates": [ 11.59687, 44.94293 ] } },
{ "type": "Feature", "properties": { "OBJECTID": 123977, "Shape": null, "id": "IT_TVSL022014", "name": "I.S.I.S.S. \"C. ROSSELLI\"", "lat": 45.66819, "lon": 11.9264, "city": "CASTELFRANCO VENETO", "public_private": "PUBLIC" }, "geometry": { "type": "Point", "coordinates": [ 11.9264, 45.66819 ] } },
{ "type": "Feature", "properties": { "OBJECTID": 123978, "Shape": null, "id": "IT_LTAA817013", "name": "VIA DEGLI OSCI", "lat": 41.3587672, "lon": 13.4313095, "city": "FONDI", "public_private": "PUBLIC" }, "geometry": { "type": "Point", "coordinates": [ 13.431309500000054, 41.358767200000045 ] } },
{ "type": "Feature", "properties": { "OBJECTID": 123979, "Shape": null, "id": "IT_FRTE026017", "name": "I.T.A.S. DI SORA", "lat": 41.7151892, "lon": 13.6045848, "city": "SORA", "public_private": "PUBLIC" }, "geometry": { "type": "Point", "coordinates": [ 13.604584800000055, 41.715189200000054 ] } },
{ "type": "Feature", "properties": { "OBJECTID": 123980, "Shape": null, "id": "IT_PREE83001T", "name": "SAN SECONDO CPL.", "lat": 44.92115, "lon": 10.22747, "city": "SAN SECONDO PARMENSE", "public_private": "PUBLIC" }, "geometry": { "type": "Point", "coordinates": [ 10.22747, 44.92115 ] } },
{ "type": "Feature", "properties": { "OBJECTID": 123981, "Shape": null, "id": "IT_VRMM86301G", "name": "CAPRINO V.SE - \"MONS.GAITER L.\"", "lat": 45.60548, "lon": 10.80033, "city": "CAPRINO VERONESE", "public_private": "PUBLIC" }, "geometry": { "type": "Point", "coordinates": [ 10.80033, 45.60548 ] } },
{ "type": "Feature", "properties": { "OBJECTID": 123982, "Shape": null, "id": "IT_PAIC81600B", "name": "I.C. \"ALFONSO GIORDANO\"", "lat": 37.7475931, "lon": 13.5993348, "city": "LERCARA FRIDDI", "public_private": "PUBLIC" }, "geometry": { "type": "Point", "coordinates": [ 13.599334800000065, 37.747593100000074 ] } },
{ "type": "Feature", "properties": { "OBJECTID": 123983, "Shape": null, "id": "IT_MEEE82004E", "name": "GIOVANNI PAOLO II F. VALDINA EE", "lat": 38.2177369, "lon": 15.354791, "city": "VALDINA", "public_private": "PUBLIC" }, "geometry": { "type": "Point", "coordinates": [ 15.354791, 38.217736900000034 ] } },
{ "type": "Feature", "properties": { "OBJECTID": 123984, "Shape": null, "id": "IT_VIMM88801G", "name": "SMS VITTORELLI -BASSANO DEL G.", "lat": 45.74984, "lon": 11.69905, "city": "BASSANO DEL GRAPPA", "public_private": "PUBLIC" }, "geometry": { "type": "Point", "coordinates": [ 11.69905, 45.74984 ] } },
{ "type": "Feature", "properties": { "OBJECTID": 123985, "Shape": null, "id": "IT_SVMM820011", "name": "I GR. PERTINI-VILLAPIANA SAVONA", "lat": 44.1126791, "lon": 8.2390869, "city": "SAVONA", "public_private": "PUBLIC" }, "geometry": { "type": "Point", "coordinates": [ 8.239086900000075, 44.112679100000037 ] } },
{ "type": "Feature", "properties": { "OBJECTID": 123986, "Shape": null, "id": "IT_TVEE86103B", "name": "PRIMARIA \"DON L.MILANI\"", "lat": 45.7317653, "lon": 12.439002, "city": "PONTE DI PIAVE", "public_private": "PUBLIC" }, "geometry": { "type": "Point", "coordinates": [ 12.439002, 45.731765300000063 ] } },
{ "type": "Feature", "properties": { "OBJECTID": 123987, "Shape": null, "id": "IT_UDMM81101G", "name": "C.CAVOUR - SEC. 1' GR PALAZZOLO", "lat": 45.8049362, "lon": 13.0826256, "city": "PALAZZOLO DELLO STELLA", "public_private": "PUBLIC" }, "geometry": { "type": "Point", "coordinates": [ 13.082625600000028, 45.804936200000043 ] } },
{ "type": "Feature", "properties": { "OBJECTID": 123988, "Shape": null, "id": "IT_CSEE8AW01T", "name": "S.GIOV.IN F. \"F.LLI BANDIERA IC", "lat": 39.2536724, "lon": 16.6978044, "city": "SAN GIOVANNI IN FIORE", "public_private": "PUBLIC" }, "geometry": { "type": "Point", "coordinates": [ 16.697804400000052, 39.253672400000028 ] } },
{ "type": "Feature", "properties": { "OBJECTID": 123989, "Shape": null, "id": "IT_SAEE8A801P", "name": "GIACINTO VICINANZA SA", "lat": 40.676783, "lon": 14.7664735, "city": "SALERNO", "public_private": "PUBLIC" }, "geometry": { "type": "Point", "coordinates": [ 14.766473500000075, 40.676783 ] } },
{ "type": "Feature", "properties": { "OBJECTID": 123990, "Shape": null, "id": "IT_ENIC825001", "name": "CHINNICI-RONCALLI", "lat": 37.37619, "lon": 14.37212, "city": "PIAZZA ARMERINA", "public_private": "PUBLIC" }, "geometry": { "type": "Point", "coordinates": [ 14.37212, 37.37619 ] } },
{ "type": "Feature", "properties": { "OBJECTID": 123991, "Shape": null, "id": "IT_PDIC837008", "name": "IC DI GALLIERA VENETA", "lat": 45.66781, "lon": 11.82991, "city": "GALLIERA VENETA", "public_private": "PUBLIC" }, "geometry": { "type": "Point", "coordinates": [ 11.82991, 45.66781 ] } },
{ "type": "Feature", "properties": { "OBJECTID": 123992, "Shape": null, "id": "IT_CTMM894015", "name": "SMS G. LEOPARDI CATANIA", "lat": 37.5210542, "lon": 15.1029134, "city": "CATANIA", "public_private": "PUBLIC" }, "geometry": { "type": "Point", "coordinates": [ 15.102913400000034, 37.521054200000037 ] } },