{
"type": "FeatureCollection",
"name": "EU_education25",
"crs": { "type": "name", "properties": { "name": "urn:ogc:def:crs:OGC:1.3:CRS84" } },
"features": [
{ "type": "Feature", "properties": { "OBJECTID": 296785, "Shape": null, "id": "AT_603311", "name": "SANKT MARTIN IM SULMTAL", "lat": 46.7558283, "lon": 15.29953026, "city": "SANKT MARTIN IM SULMTAL", "public_private": "PUBLIC" }, "geometry": { "type": "Point", "coordinates": [ 15.29953026000004, 46.755828300000076 ] } },
{ "type": "Feature", "properties": { "OBJECTID": 296786, "Shape": null, "id": "AT_603351", "name": "SANKT MARTIN IM SULMTAL", "lat": 46.7152481, "lon": 15.3206083, "city": "SANKT ULRICH IN GREITH", "public_private": "PUBLIC" }, "geometry": { "type": "Point", "coordinates": [ 15.32060830000006, 46.715248100000053 ] } },
{ "type": "Feature", "properties": { "OBJECTID": 296787, "Shape": null, "id": "AT_603421", "name": "WIES", "lat": 46.7152781, "lon": 15.20693152, "city": "WIES, STEIERMARK", "public_private": "PUBLIC" }, "geometry": { "type": "Point", "coordinates": [ 15.206931520000069, 46.715278100000035 ] } },
{ "type": "Feature", "properties": { "OBJECTID": 296788, "Shape": null, "id": "AT_603431", "name": "WETTMANNSTÄTTEN", "lat": 46.8325932, "lon": 15.3870535, "city": "WETTMANNSTÄTTEN", "public_private": "PUBLIC" }, "geometry": { "type": "Point", "coordinates": [ 15.387053500000036, 46.832593200000076 ] } },
{ "type": "Feature", "properties": { "OBJECTID": 296789, "Shape": null, "id": "AT_603471", "name": "DEUTSCHLANDSBERG", "lat": 46.8192702, "lon": 15.2137195, "city": "DEUTSCHLANDSBERG", "public_private": "PRIVATE" }, "geometry": { "type": "Point", "coordinates": [ 15.213719500000025, 46.819270200000062 ] } },
{ "type": "Feature", "properties": { "OBJECTID": 296790, "Shape": null, "id": "AT_606016", "name": "GRATWEIN-STRASSENGEL", "lat": 47.1350802, "lon": 15.2843679, "city": "REIN", "public_private": "PUBLIC" }, "geometry": { "type": "Point", "coordinates": [ 15.284367900000063, 47.135080200000061 ] } },
{ "type": "Feature", "properties": { "OBJECTID": 296791, "Shape": null, "id": "AT_606026", "name": "SEIERSBERG-PIRKA", "lat": 47.0118848, "lon": 15.4057028, "city": "SEIERSBERG-PIRKA", "public_private": "PRIVATE" }, "geometry": { "type": "Point", "coordinates": [ 15.405702800000029, 47.011884800000075 ] } },
{ "type": "Feature", "properties": { "OBJECTID": 296792, "Shape": null, "id": "AT_606044", "name": "GRATKORN", "lat": 47.13414125, "lon": 15.34583758, "city": "GRATKORN", "public_private": "PUBLIC" }, "geometry": { "type": "Point", "coordinates": [ 15.345837580000023, 47.134141250000027 ] } },
{ "type": "Feature", "properties": { "OBJECTID": 296793, "Shape": null, "id": "AT_606092", "name": "KALSDORF BEI GRAZ", "lat": 46.9616925, "lon": 15.4780941, "city": "KALSDORF BEI GRAZ", "public_private": "PUBLIC" }, "geometry": { "type": "Point", "coordinates": [ 15.478094100000021, 46.961692500000026 ] } },
{ "type": "Feature", "properties": { "OBJECTID": 296794, "Shape": null, "id": "AT_606122", "name": "SEMRIACH", "lat": 47.2204014, "lon": 15.40512224, "city": "SEMRIACH", "public_private": "PUBLIC" }, "geometry": { "type": "Point", "coordinates": [ 15.405122240000026, 47.220401400000071 ] } },
{ "type": "Feature", "properties": { "OBJECTID": 296795, "Shape": null, "id": "AT_606131", "name": "GRATKORN", "lat": 47.1361976, "lon": 15.3482044, "city": "GRATKORN", "public_private": "PUBLIC" }, "geometry": { "type": "Point", "coordinates": [ 15.348204400000043, 47.13619760000006 ] } },
{ "type": "Feature", "properties": { "OBJECTID": 296796, "Shape": null, "id": "AT_606141", "name": "GRATKORN", "lat": 47.13441595, "lon": 15.35092645, "city": "GRATKORN", "public_private": "PUBLIC" }, "geometry": { "type": "Point", "coordinates": [ 15.350926450000031, 47.134415950000061 ] } },
{ "type": "Feature", "properties": { "OBJECTID": 296797, "Shape": null, "id": "AT_606152", "name": "GRATWEIN-STRASSENGEL", "lat": 47.1315657, "lon": 15.31769887, "city": "GRATWEIN", "public_private": "PUBLIC" }, "geometry": { "type": "Point", "coordinates": [ 15.317698870000072, 47.131565700000067 ] } },
{ "type": "Feature", "properties": { "OBJECTID": 296798, "Shape": null, "id": "AT_606201", "name": "GRATWEIN-STRASSENGEL", "lat": 47.1145078, "lon": 15.33599053, "city": "JUDENDORF-STRASSENGEL", "public_private": "PUBLIC" }, "geometry": { "type": "Point", "coordinates": [ 15.335990530000061, 47.114507800000069 ] } },
{ "type": "Feature", "properties": { "OBJECTID": 296799, "Shape": null, "id": "AT_606231", "name": "KALSDORF BEI GRAZ", "lat": 46.9616574, "lon": 15.47876042, "city": "KALSDORF BEI GRAZ", "public_private": "PUBLIC" }, "geometry": { "type": "Point", "coordinates": [ 15.478760420000071, 46.961657400000036 ] } },
{ "type": "Feature", "properties": { "OBJECTID": 296800, "Shape": null, "id": "AT_606291", "name": "NESTELBACH BEI GRAZ", "lat": 47.0588017, "lon": 15.6101716, "city": "NESTELBACH BEI GRAZ", "public_private": "PUBLIC" }, "geometry": { "type": "Point", "coordinates": [ 15.610171600000058, 47.05880170000006 ] } },
{ "type": "Feature", "properties": { "OBJECTID": 296801, "Shape": null, "id": "AT_606341", "name": "DOBL-ZWARING", "lat": 46.91105825, "lon": 15.41153799, "city": "ZWARING-PÖLS", "public_private": "PUBLIC" }, "geometry": { "type": "Point", "coordinates": [ 15.411537990000056, 46.911058250000053 ] } },
{ "type": "Feature", "properties": { "OBJECTID": 296802, "Shape": null, "id": "AT_606411", "name": "SANKT RADEGUND BEI GRAZ", "lat": 47.17779965, "lon": 15.48801785, "city": "SANKT RADEGUND BEI GRAZ", "public_private": "PUBLIC" }, "geometry": { "type": "Point", "coordinates": [ 15.488017850000062, 47.177799650000054 ] } },
{ "type": "Feature", "properties": { "OBJECTID": 296803, "Shape": null, "id": "AT_606471", "name": "STIWOLL", "lat": 47.1027344, "lon": 15.21622732, "city": "STIWOLL", "public_private": "PUBLIC" }, "geometry": { "type": "Point", "coordinates": [ 15.21622732000003, 47.102734400000031 ] } },
{ "type": "Feature", "properties": { "OBJECTID": 296804, "Shape": null, "id": "AT_606491", "name": "HASELSDORF-TOBELBAD", "lat": 46.9839524, "lon": 15.36283398, "city": "TOBELBAD", "public_private": "PUBLIC" }, "geometry": { "type": "Point", "coordinates": [ 15.362833980000062, 46.983952400000078 ] } },
{ "type": "Feature", "properties": { "OBJECTID": 296805, "Shape": null, "id": "AT_606501", "name": "ÜBELBACH", "lat": 47.2253826, "lon": 15.2377605, "city": "ÜBELBACH", "public_private": "PUBLIC" }, "geometry": { "type": "Point", "coordinates": [ 15.237760500000036, 47.225382600000046 ] } },
{ "type": "Feature", "properties": { "OBJECTID": 296806, "Shape": null, "id": "AT_606541", "name": "WERNDORF", "lat": 46.92196415, "lon": 15.48299866, "city": "WERNDORF", "public_private": "PUBLIC" }, "geometry": { "type": "Point", "coordinates": [ 15.482998660000021, 46.921964150000065 ] } },
{ "type": "Feature", "properties": { "OBJECTID": 296807, "Shape": null, "id": "AT_606591", "name": "SEIERSBERG-PIRKA", "lat": 46.99742955, "lon": 15.39288968, "city": "SEIERSBERG-PIRKA", "public_private": "PUBLIC" }, "geometry": { "type": "Point", "coordinates": [ 15.392889680000053, 46.997429550000049 ] } },
{ "type": "Feature", "properties": { "OBJECTID": 296808, "Shape": null, "id": "AT_606920", "name": "FROHNLEITEN", "lat": 47.2686417, "lon": 15.32556557, "city": "FROHNLEITEN", "public_private": "PUBLIC" }, "geometry": { "type": "Point", "coordinates": [ 15.325565570000037, 47.268641700000046 ] } },
{ "type": "Feature", "properties": { "OBJECTID": 296809, "Shape": null, "id": "AT_610016", "name": "LEIBNITZ", "lat": 46.7777757, "lon": 15.5419811, "city": "LEIBNITZ", "public_private": "PUBLIC" }, "geometry": { "type": "Point", "coordinates": [ 15.541981100000044, 46.777775700000063 ] } },
{ "type": "Feature", "properties": { "OBJECTID": 296810, "Shape": null, "id": "AT_610031", "name": "EHRENHAUSEN AN DER WEINSTRASSE", "lat": 46.7267414, "lon": 15.581217, "city": "EHRENHAUSEN", "public_private": "PUBLIC" }, "geometry": { "type": "Point", "coordinates": [ 15.581217, 46.726741400000037 ] } },
{ "type": "Feature", "properties": { "OBJECTID": 296811, "Shape": null, "id": "AT_610051", "name": "LEIBNITZ", "lat": 46.77847275, "lon": 15.52394334, "city": "LEIBNITZ", "public_private": "PUBLIC" }, "geometry": { "type": "Point", "coordinates": [ 15.523943340000073, 46.778472750000049 ] } },
{ "type": "Feature", "properties": { "OBJECTID": 296812, "Shape": null, "id": "AT_610071", "name": "GAMLITZ", "lat": 46.7204928, "lon": 15.552258, "city": "GAMLITZ", "public_private": "PUBLIC" }, "geometry": { "type": "Point", "coordinates": [ 15.552258, 46.720492800000045 ] } },
{ "type": "Feature", "properties": { "OBJECTID": 296813, "Shape": null, "id": "AT_610081", "name": "GLEINSTÄTTEN", "lat": 46.7519855, "lon": 15.36781712, "city": "GLEINSTÄTTEN", "public_private": "PUBLIC" }, "geometry": { "type": "Point", "coordinates": [ 15.367817120000041, 46.751985500000046 ] } },
{ "type": "Feature", "properties": { "OBJECTID": 296814, "Shape": null, "id": "AT_610091", "name": "GRALLA", "lat": 46.8144577, "lon": 15.5534967, "city": "GRALLA", "public_private": "PUBLIC" }, "geometry": { "type": "Point", "coordinates": [ 15.553496700000039, 46.814457700000048 ] } },
{ "type": "Feature", "properties": { "OBJECTID": 296815, "Shape": null, "id": "AT_610112", "name": "SCHWARZAUTAL", "lat": 46.84422395, "lon": 15.6549967, "city": "WOLFSBERG IM SCHWARZAUTAL", "public_private": "PUBLIC" }, "geometry": { "type": "Point", "coordinates": [ 15.654996700000027, 46.844223950000071 ] } },
{ "type": "Feature", "properties": { "OBJECTID": 296816, "Shape": null, "id": "AT_610132", "name": "EHRENHAUSEN AN DER WEINSTRASSE", "lat": 46.7265969, "lon": 15.58215689, "city": "EHRENHAUSEN", "public_private": "PUBLIC" }, "geometry": { "type": "Point", "coordinates": [ 15.582156890000022, 46.726596900000061 ] } },
{ "type": "Feature", "properties": { "OBJECTID": 296817, "Shape": null, "id": "AT_610211", "name": "LEBRING-SANKT MARGARETHEN", "lat": 46.85906075, "lon": 15.53324028, "city": "LEBRING", "public_private": "PUBLIC" }, "geometry": { "type": "Point", "coordinates": [ 15.53324028000003, 46.859060750000026 ] } },
{ "type": "Feature", "properties": { "OBJECTID": 296818, "Shape": null, "id": "AT_610261", "name": "OBERHAAG", "lat": 46.6855107, "lon": 15.33126332, "city": "OBERHAAG", "public_private": "PUBLIC" }, "geometry": { "type": "Point", "coordinates": [ 15.331263320000062, 46.685510700000066 ] } },
{ "type": "Feature", "properties": { "OBJECTID": 296819, "Shape": null, "id": "AT_610351", "name": "SANKT VEIT IN DER SÜDSTEIERMARK", "lat": 46.7498905, "lon": 15.6253988, "city": "ST. VEIT IN DER SÜDSTEIERMARK", "public_private": "PUBLIC" }, "geometry": { "type": "Point", "coordinates": [ 15.625398800000028, 46.749890500000049 ] } },
{ "type": "Feature", "properties": { "OBJECTID": 296820, "Shape": null, "id": "AT_610371", "name": "STRASS IN STEIERMARK", "lat": 46.7295049, "lon": 15.6283154, "city": "STRASS IN STEIERMARK", "public_private": "PUBLIC" }, "geometry": { "type": "Point", "coordinates": [ 15.628315400000076, 46.729504900000052 ] } },
{ "type": "Feature", "properties": { "OBJECTID": 296821, "Shape": null, "id": "AT_610381", "name": "TILLMITSCH", "lat": 46.81225025, "lon": 15.51838576, "city": "TILLMITSCH", "public_private": "PUBLIC" }, "geometry": { "type": "Point", "coordinates": [ 15.518385760000058, 46.812250250000034 ] } },
{ "type": "Feature", "properties": { "OBJECTID": 296822, "Shape": null, "id": "AT_610431", "name": "WAGNA", "lat": 46.76542975, "lon": 15.55439426, "city": "WAGNA", "public_private": "PUBLIC" }, "geometry": { "type": "Point", "coordinates": [ 15.554394260000038, 46.765429750000067 ] } },
{ "type": "Feature", "properties": { "OBJECTID": 296823, "Shape": null, "id": "AT_610451", "name": "SANKT VEIT IN DER SÜDSTEIERMARK", "lat": 46.75437535, "lon": 15.72160762, "city": "SANKT VEIT I. D. SÜDSTEIERMARK", "public_private": "PUBLIC" }, "geometry": { "type": "Point", "coordinates": [ 15.721607620000043, 46.754375350000032 ] } },
{ "type": "Feature", "properties": { "OBJECTID": 296824, "Shape": null, "id": "AT_610930", "name": "LEIBNITZ", "lat": 46.7884861, "lon": 15.5398737, "city": "LEIBNITZ", "public_private": "PRIVATE" }, "geometry": { "type": "Point", "coordinates": [ 15.539873700000044, 46.788486100000057 ] } },
{ "type": "Feature", "properties": { "OBJECTID": 296825, "Shape": null, "id": "AT_611041", "name": "TROFAIACH", "lat": 47.4129535, "lon": 14.97038228, "city": "TROFAIACH", "public_private": "PUBLIC" }, "geometry": { "type": "Point", "coordinates": [ 14.970382280000024, 47.412953500000071 ] } },
{ "type": "Feature", "properties": { "OBJECTID": 296826, "Shape": null, "id": "AT_611046", "name": "LEOBEN", "lat": 47.373561, "lon": 15.09208449, "city": "LEOBEN", "public_private": "PUBLIC" }, "geometry": { "type": "Point", "coordinates": [ 15.092084490000047, 47.373561 ] } },
{ "type": "Feature", "properties": { "OBJECTID": 296827, "Shape": null, "id": "AT_611082", "name": "SANKT MICHAEL IN OBERSTEIERMARK", "lat": 47.3369173, "lon": 15.0223503, "city": "SANKT MICHAEL IN OBERSTEIERMARK", "public_private": "PUBLIC" }, "geometry": { "type": "Point", "coordinates": [ 15.022350300000028, 47.336917300000039 ] } },
{ "type": "Feature", "properties": { "OBJECTID": 296828, "Shape": null, "id": "AT_611131", "name": "LEOBEN", "lat": 47.3689232, "lon": 15.09495476, "city": "LEOBEN", "public_private": "PUBLIC" }, "geometry": { "type": "Point", "coordinates": [ 15.094954760000064, 47.36892320000004 ] } },
{ "type": "Feature", "properties": { "OBJECTID": 296829, "Shape": null, "id": "AT_611151", "name": "LEOBEN", "lat": 47.3890879, "lon": 15.10252934, "city": "LEOBEN", "public_private": "PUBLIC" }, "geometry": { "type": "Point", "coordinates": [ 15.102529340000046, 47.38908790000005 ] } },
{ "type": "Feature", "properties": { "OBJECTID": 296830, "Shape": null, "id": "AT_611171", "name": "LEOBEN", "lat": 47.3811491, "lon": 15.0893111, "city": "LEOBEN", "public_private": "PUBLIC" }, "geometry": { "type": "Point", "coordinates": [ 15.089311100000032, 47.381149100000073 ] } },
{ "type": "Feature", "properties": { "OBJECTID": 296831, "Shape": null, "id": "AT_611241", "name": "SANKT MICHAEL IN OBERSTEIERMARK", "lat": 47.33692025, "lon": 15.02202979, "city": "SANKT MICHAEL IN OBERSTEIERMARK", "public_private": "PUBLIC" }, "geometry": { "type": "Point", "coordinates": [ 15.022029790000033, 47.336920250000048 ] } },
{ "type": "Feature", "properties": { "OBJECTID": 296832, "Shape": null, "id": "AT_611321", "name": "WALD AM SCHOBERPASS", "lat": 47.4475315, "lon": 14.67652075, "city": "WALD AM SCHOBERPASS", "public_private": "PUBLIC" }, "geometry": { "type": "Point", "coordinates": [ 14.676520750000066, 47.447531500000025 ] } },
{ "type": "Feature", "properties": { "OBJECTID": 296833, "Shape": null, "id": "AT_611351", "name": "LEOBEN", "lat": 47.3654379, "lon": 15.0977777, "city": "LEOBEN", "public_private": "PRIVATE" }, "geometry": { "type": "Point", "coordinates": [ 15.097777700000051, 47.365437900000074 ] } },
{ "type": "Feature", "properties": { "OBJECTID": 296834, "Shape": null, "id": "AT_611910", "name": "LEOBEN", "lat": 47.38509595, "lon": 15.0821337, "city": "LEOBEN", "public_private": "PUBLIC" }, "geometry": { "type": "Point", "coordinates": [ 15.082133700000043, 47.38509595000005 ] } },
{ "type": "Feature", "properties": { "OBJECTID": 296835, "Shape": null, "id": "AT_612091", "name": "SANKT GALLEN", "lat": 47.68619755, "lon": 14.61628559, "city": "SANKT GALLEN, STEIERMARK", "public_private": "PUBLIC" }, "geometry": { "type": "Point", "coordinates": [ 14.616285590000075, 47.686197550000031 ] } },
{ "type": "Feature", "properties": { "OBJECTID": 296836, "Shape": null, "id": "AT_612291", "name": "WILDALPEN", "lat": 47.6622875, "lon": 14.9881225, "city": "WILDALPEN", "public_private": "PUBLIC" }, "geometry": { "type": "Point", "coordinates": [ 14.988122500000031, 47.662287500000048 ] } },
{ "type": "Feature", "properties": { "OBJECTID": 296837, "Shape": null, "id": "AT_616012", "name": "BÄRNBACH", "lat": 47.0724346, "lon": 15.1253106, "city": "BÄRNBACH", "public_private": "PUBLIC" }, "geometry": { "type": "Point", "coordinates": [ 15.125310600000034, 47.072434600000065 ] } },
{ "type": "Feature", "properties": { "OBJECTID": 296838, "Shape": null, "id": "AT_616015", "name": "VOITSBERG", "lat": 47.05150625, "lon": 15.14497452, "city": "VOITSBERG", "public_private": "PUBLIC" }, "geometry": { "type": "Point", "coordinates": [ 15.144974520000062, 47.051506250000045 ] } },
{ "type": "Feature", "properties": { "OBJECTID": 296839, "Shape": null, "id": "AT_616022", "name": "EDELSCHROTT", "lat": 47.022611, "lon": 15.0547523, "city": "EDELSCHROTT", "public_private": "PUBLIC" }, "geometry": { "type": "Point", "coordinates": [ 15.054752300000075, 47.022611 ] } },
{ "type": "Feature", "properties": { "OBJECTID": 296840, "Shape": null, "id": "AT_616071", "name": "KÖFLACH", "lat": 47.13080475, "lon": 15.03482682, "city": "GRADEN BEI KÖFLACH", "public_private": "PUBLIC" }, "geometry": { "type": "Point", "coordinates": [ 15.034826820000035, 47.130804750000038 ] } },
{ "type": "Feature", "properties": { "OBJECTID": 296841, "Shape": null, "id": "AT_616092", "name": "STALLHOFEN", "lat": 47.0497408, "lon": 15.2205502, "city": "STALLHOFEN", "public_private": "PUBLIC" }, "geometry": { "type": "Point", "coordinates": [ 15.220550200000048, 47.049740800000052 ] } },
{ "type": "Feature", "properties": { "OBJECTID": 296842, "Shape": null, "id": "AT_616171", "name": "EDELSCHROTT", "lat": 46.9567336, "lon": 15.06007959, "city": "MODRIACH", "public_private": "PUBLIC" }, "geometry": { "type": "Point", "coordinates": [ 15.060079590000043, 46.956733600000064 ] } },
{ "type": "Feature", "properties": { "OBJECTID": 296843, "Shape": null, "id": "AT_616211", "name": "SÖDING-SANKT JOHANN", "lat": 47.0103587, "lon": 15.226813, "city": "SÖDING - SANKT JOHANN", "public_private": "PUBLIC" }, "geometry": { "type": "Point", "coordinates": [ 15.226813, 47.01035870000004 ] } },
{ "type": "Feature", "properties": { "OBJECTID": 296844, "Shape": null, "id": "AT_616291", "name": "VOITSBERG", "lat": 47.04488415, "lon": 15.15659875, "city": "VOITSBERG", "public_private": "PUBLIC" }, "geometry": { "type": "Point", "coordinates": [ 15.156598750000057, 47.04488415000003 ] } },
{ "type": "Feature", "properties": { "OBJECTID": 296845, "Shape": null, "id": "AT_616417", "name": "KÖFLACH", "lat": 47.06308035, "lon": 15.0861536, "city": "KÖFLACH", "public_private": "PRIVATE" }, "geometry": { "type": "Point", "coordinates": [ 15.086153600000046, 47.063080350000064 ] } },
{ "type": "Feature", "properties": { "OBJECTID": 296846, "Shape": null, "id": "AT_616428", "name": "VOITSBERG", "lat": 47.0456664, "lon": 15.1543989, "city": "VOITSBERG", "public_private": "PUBLIC" }, "geometry": { "type": "Point", "coordinates": [ 15.154398900000047, 47.045666400000073 ] } },
{ "type": "Feature", "properties": { "OBJECTID": 296847, "Shape": null, "id": "AT_616710", "name": "MARIA LANKOWITZ", "lat": 47.06063385, "lon": 15.0677626, "city": "MARIA LANKOWITZ", "public_private": "PUBLIC" }, "geometry": { "type": "Point", "coordinates": [ 15.067762600000037, 47.060633850000045 ] } },
{ "type": "Feature", "properties": { "OBJECTID": 296848, "Shape": null, "id": "AT_617016", "name": "GLEISDORF", "lat": 47.10737865, "lon": 15.71506559, "city": "GLEISDORF", "public_private": "PUBLIC" }, "geometry": { "type": "Point", "coordinates": [ 15.715065590000052, 47.107378650000044 ] } },
{ "type": "Feature", "properties": { "OBJECTID": 296849, "Shape": null, "id": "AT_617051", "name": "SANKT RUPRECHT AN DER RAAB", "lat": 47.18212985, "lon": 15.70809471, "city": "SANKT RUPRECHT AN DER RAAB", "public_private": "PUBLIC" }, "geometry": { "type": "Point", "coordinates": [ 15.708094710000069, 47.182129850000081 ] } },
{ "type": "Feature", "properties": { "OBJECTID": 296850, "Shape": null, "id": "AT_617064", "name": "PISCHELSDORF AM KULM", "lat": 47.1757851, "lon": 15.80432417, "city": "PISCHELSDORF AM KULM", "public_private": "PUBLIC" }, "geometry": { "type": "Point", "coordinates": [ 15.804324170000029, 47.175785100000041 ] } },
{ "type": "Feature", "properties": { "OBJECTID": 296851, "Shape": null, "id": "AT_617091", "name": "FLADNITZ AN DER TEICHALM", "lat": 47.2843845, "lon": 15.47609567, "city": "FLADNITZ AN DER TEICHALM", "public_private": "PUBLIC" }, "geometry": { "type": "Point", "coordinates": [ 15.476095670000063, 47.284384500000044 ] } },
{ "type": "Feature", "properties": { "OBJECTID": 296852, "Shape": null, "id": "AT_617112", "name": "SANKT RUPRECHT AN DER RAAB", "lat": 47.15447315, "lon": 15.66067069, "city": "SANKT RUPRECHT AN DER RAAB", "public_private": "PUBLIC" }, "geometry": { "type": "Point", "coordinates": [ 15.660670690000075, 47.154473150000058 ] } },
{ "type": "Feature", "properties": { "OBJECTID": 296853, "Shape": null, "id": "AT_617132", "name": "STRALLEGG", "lat": 47.4090518, "lon": 15.7257155, "city": "STRALLEGG", "public_private": "PUBLIC" }, "geometry": { "type": "Point", "coordinates": [ 15.725715500000035, 47.409051800000043 ] } },
{ "type": "Feature", "properties": { "OBJECTID": 296854, "Shape": null, "id": "AT_617142", "name": "WEIZ", "lat": 47.22014845, "lon": 15.63296615, "city": "WEIZ", "public_private": "PUBLIC" }, "geometry": { "type": "Point", "coordinates": [ 15.632966150000073, 47.220148450000067 ] } },
{ "type": "Feature", "properties": { "OBJECTID": 296855, "Shape": null, "id": "AT_617181", "name": "GUTENBERG-STENZENGREITH", "lat": 47.2071939, "lon": 15.56364655, "city": "WEIZ", "public_private": "PUBLIC" }, "geometry": { "type": "Point", "coordinates": [ 15.563646550000044, 47.20719390000005 ] } },
{ "type": "Feature", "properties": { "OBJECTID": 296856, "Shape": null, "id": "AT_617241", "name": "MIESENBACH BEI BIRKFELD", "lat": 47.3726612, "lon": 15.7590736, "city": "MIESENBACH BEI BIRKFELD", "public_private": "PUBLIC" }, "geometry": { "type": "Point", "coordinates": [ 15.759073600000022, 47.372661200000039 ] } },
{ "type": "Feature", "properties": { "OBJECTID": 296857, "Shape": null, "id": "AT_617291", "name": "PASSAIL", "lat": 47.24161875, "lon": 15.45937474, "city": "PASSAIL", "public_private": "PUBLIC" }, "geometry": { "type": "Point", "coordinates": [ 15.459374740000044, 47.241618750000043 ] } },
{ "type": "Feature", "properties": { "OBJECTID": 296858, "Shape": null, "id": "AT_617371", "name": "ILZTAL", "lat": 47.1422716, "lon": 15.7812178, "city": "ILZTAL", "public_private": "PUBLIC" }, "geometry": { "type": "Point", "coordinates": [ 15.781217800000036, 47.142271600000072 ] } },
{ "type": "Feature", "properties": { "OBJECTID": 296859, "Shape": null, "id": "AT_617417", "name": "WEIZ", "lat": 47.2157528, "lon": 15.63089782, "city": "WEIZ", "public_private": "PRIVATE" }, "geometry": { "type": "Point", "coordinates": [ 15.63089782000003, 47.215752800000075 ] } },
{ "type": "Feature", "properties": { "OBJECTID": 296860, "Shape": null, "id": "AT_617431", "name": "ST. KATHREIN AM HAUENSTEIN", "lat": 47.4889933, "lon": 15.69058562, "city": "SANKT KATHREIN AM HAUENSTEIN", "public_private": "PUBLIC" }, "geometry": { "type": "Point", "coordinates": [ 15.690585620000036, 47.488993300000061 ] } },
{ "type": "Feature", "properties": { "OBJECTID": 296861, "Shape": null, "id": "AT_617461", "name": "SANKT RUPRECHT AN DER RAAB", "lat": 47.1551951, "lon": 15.65999983, "city": "SANKT RUPRECHT AN DER RAAB", "public_private": "PUBLIC" }, "geometry": { "type": "Point", "coordinates": [ 15.659999830000061, 47.155195100000071 ] } },
{ "type": "Feature", "properties": { "OBJECTID": 296862, "Shape": null, "id": "AT_617501", "name": "WEIZ", "lat": 47.2184614, "lon": 15.62586166, "city": "WEIZ", "public_private": "PUBLIC" }, "geometry": { "type": "Point", "coordinates": [ 15.625861660000055, 47.218461400000081 ] } },
{ "type": "Feature", "properties": { "OBJECTID": 296863, "Shape": null, "id": "AT_617720", "name": "NAAS", "lat": 47.24910145, "lon": 15.59575442, "city": "WEIZ", "public_private": "PUBLIC" }, "geometry": { "type": "Point", "coordinates": [ 15.595754420000048, 47.249101450000069 ] } },
{ "type": "Feature", "properties": { "OBJECTID": 296864, "Shape": null, "id": "AT_620015", "name": "KNITTELFELD", "lat": 47.2163458, "lon": 14.8166917, "city": "KNITTELFELD", "public_private": "PUBLIC" }, "geometry": { "type": "Point", "coordinates": [ 14.816691700000035, 47.216345800000056 ] } },
{ "type": "Feature", "properties": { "OBJECTID": 296865, "Shape": null, "id": "AT_620026", "name": "SECKAU", "lat": 47.2745122, "lon": 14.7868544, "city": "SECKAU", "public_private": "PRIVATE" }, "geometry": { "type": "Point", "coordinates": [ 14.786854400000038, 47.274512200000061 ] } },
{ "type": "Feature", "properties": { "OBJECTID": 296866, "Shape": null, "id": "AT_620036", "name": "KNITTELFELD", "lat": 47.2139568, "lon": 14.8256891, "city": "KNITTELFELD", "public_private": "PUBLIC" }, "geometry": { "type": "Point", "coordinates": [ 14.825689100000034, 47.213956800000062 ] } },
{ "type": "Feature", "properties": { "OBJECTID": 296867, "Shape": null, "id": "AT_620061", "name": "GAAL", "lat": 47.27290465, "lon": 14.67040015, "city": "BISCHOFFELD", "public_private": "PUBLIC" }, "geometry": { "type": "Point", "coordinates": [ 14.670400150000035, 47.272904650000044 ] } },
{ "type": "Feature", "properties": { "OBJECTID": 296868, "Shape": null, "id": "AT_620072", "name": "PÖLS-OBERKURZHEIM", "lat": 47.2204574, "lon": 14.577562, "city": "PÖLS OB JUDENBURG", "public_private": "PUBLIC" }, "geometry": { "type": "Point", "coordinates": [ 14.577562, 47.220457400000043 ] } },
{ "type": "Feature", "properties": { "OBJECTID": 296869, "Shape": null, "id": "AT_620101", "name": "JUDENBURG", "lat": 47.1698561, "lon": 14.6569702, "city": "JUDENBURG", "public_private": "PUBLIC" }, "geometry": { "type": "Point", "coordinates": [ 14.656970200000046, 47.169856100000061 ] } },
{ "type": "Feature", "properties": { "OBJECTID": 296870, "Shape": null, "id": "AT_620112", "name": "SPIELBERG", "lat": 47.20994, "lon": 14.79698252, "city": "SPIELBERG BEI KNITTELFELD", "public_private": "PUBLIC" }, "geometry": { "type": "Point", "coordinates": [ 14.796982520000029, 47.20994 ] } },
{ "type": "Feature", "properties": { "OBJECTID": 296871, "Shape": null, "id": "AT_620141", "name": "SANKT MARGARETHEN BEI KNITTELFELD", "lat": 47.22814945, "lon": 14.85692212, "city": "KNITTELFELD", "public_private": "PUBLIC" }, "geometry": { "type": "Point", "coordinates": [ 14.856922120000036, 47.228149450000046 ] } },
{ "type": "Feature", "properties": { "OBJECTID": 296872, "Shape": null, "id": "AT_620201", "name": "KOBENZ", "lat": 47.2478551, "lon": 14.84637741, "city": "KOBENZ", "public_private": "PUBLIC" }, "geometry": { "type": "Point", "coordinates": [ 14.846377410000059, 47.247855100000038 ] } },
{ "type": "Feature", "properties": { "OBJECTID": 296873, "Shape": null, "id": "AT_620261", "name": "SANKT PETER OB JUDENBURG", "lat": 47.18638035, "lon": 14.58737649, "city": "SANKT PETER OB JUDENBURG", "public_private": "PUBLIC" }, "geometry": { "type": "Point", "coordinates": [ 14.587376490000054, 47.186380350000036 ] } },
{ "type": "Feature", "properties": { "OBJECTID": 296874, "Shape": null, "id": "AT_620331", "name": "KNITTELFELD", "lat": 47.2158776, "lon": 14.81528254, "city": "KNITTELFELD", "public_private": "PRIVATE" }, "geometry": { "type": "Point", "coordinates": [ 14.815282540000055, 47.215877600000056 ] } },
{ "type": "Feature", "properties": { "OBJECTID": 296875, "Shape": null, "id": "AT_620710", "name": "KOBENZ", "lat": 47.2469028, "lon": 14.84694857, "city": "KOBENZ", "public_private": "PUBLIC" }, "geometry": { "type": "Point", "coordinates": [ 14.846948570000052, 47.246902800000043 ] } },
{ "type": "Feature", "properties": { "OBJECTID": 296876, "Shape": null, "id": "AT_621011", "name": "AFLENZ", "lat": 47.5426802, "lon": 15.23637553, "city": "AFLENZ KURORT", "public_private": "PUBLIC" }, "geometry": { "type": "Point", "coordinates": [ 15.236375530000032, 47.542680200000063 ] } },
{ "type": "Feature", "properties": { "OBJECTID": 296877, "Shape": null, "id": "AT_621016", "name": "BRUCK AN DER MUR", "lat": 47.4123962, "lon": 15.26583409, "city": "BRUCK AN DER MUR", "public_private": "PUBLIC" }, "geometry": { "type": "Point", "coordinates": [ 15.265834090000055, 47.412396200000046 ] } },
{ "type": "Feature", "properties": { "OBJECTID": 296878, "Shape": null, "id": "AT_621025", "name": "SANKT BARBARA IM MÜRZTAL", "lat": 47.5284116, "lon": 15.5159704, "city": "MITTERDORF IM MÜRZTAL", "public_private": "PUBLIC" }, "geometry": { "type": "Point", "coordinates": [ 15.515970400000072, 47.528411600000027 ] } },
{ "type": "Feature", "properties": { "OBJECTID": 296879, "Shape": null, "id": "AT_621026", "name": "KAPFENBERG", "lat": 47.45287475, "lon": 15.31046714, "city": "KAPFENBERG", "public_private": "PUBLIC" }, "geometry": { "type": "Point", "coordinates": [ 15.310467140000071, 47.452874750000035 ] } },
{ "type": "Feature", "properties": { "OBJECTID": 296880, "Shape": null, "id": "AT_621041", "name": "BRUCK AN DER MUR", "lat": 47.40891585, "lon": 15.26680084, "city": "BRUCK AN DER MUR", "public_private": "PUBLIC" }, "geometry": { "type": "Point", "coordinates": [ 15.26680084000003, 47.408915850000028 ] } },
{ "type": "Feature", "properties": { "OBJECTID": 296881, "Shape": null, "id": "AT_621061", "name": "KINDBERG", "lat": 47.50154815, "lon": 15.44310958, "city": "KINDBERG", "public_private": "PUBLIC" }, "geometry": { "type": "Point", "coordinates": [ 15.443109580000055, 47.501548150000076 ] } },
{ "type": "Feature", "properties": { "OBJECTID": 296882, "Shape": null, "id": "AT_621072", "name": "MARIAZELL", "lat": 47.7712587, "lon": 15.3175869, "city": "MARIAZELL", "public_private": "PUBLIC" }, "geometry": { "type": "Point", "coordinates": [ 15.317586900000038, 47.771258700000033 ] } },
{ "type": "Feature", "properties": { "OBJECTID": 296883, "Shape": null, "id": "AT_621101", "name": "KRIEGLACH", "lat": 47.5456009, "lon": 15.55964147, "city": "KRIEGLACH", "public_private": "PUBLIC" }, "geometry": { "type": "Point", "coordinates": [ 15.559641470000031, 47.545600900000068 ] } },
{ "type": "Feature", "properties": { "OBJECTID": 296884, "Shape": null, "id": "AT_621132", "name": "MÜRZZUSCHLAG", "lat": 47.6047916, "lon": 15.6718576, "city": "MÜRZZUSCHLAG", "public_private": "PUBLIC" }, "geometry": { "type": "Point", "coordinates": [ 15.671857600000067, 47.604791600000055 ] } },
{ "type": "Feature", "properties": { "OBJECTID": 296885, "Shape": null, "id": "AT_621201", "name": "KAPFENBERG", "lat": 47.4489944, "lon": 15.28036869, "city": "KAPFENBERG", "public_private": "PUBLIC" }, "geometry": { "type": "Point", "coordinates": [ 15.280368690000046, 47.448994400000061 ] } },
{ "type": "Feature", "properties": { "OBJECTID": 296886, "Shape": null, "id": "AT_621211", "name": "KAPFENBERG", "lat": 47.46095045, "lon": 15.32981586, "city": "KAPFENBERG", "public_private": "PUBLIC" }, "geometry": { "type": "Point", "coordinates": [ 15.329815860000053, 47.460950450000041 ] } },
{ "type": "Feature", "properties": { "OBJECTID": 296887, "Shape": null, "id": "AT_621251", "name": "MARIAZELL", "lat": 47.77190535, "lon": 15.3172383, "city": "MARIAZELL", "public_private": "PUBLIC" }, "geometry": { "type": "Point", "coordinates": [ 15.317238300000042, 47.771905350000054 ] } },
{ "type": "Feature", "properties": { "OBJECTID": 296888, "Shape": null, "id": "AT_621291", "name": "KAPFENBERG", "lat": 47.4869552, "lon": 15.3201934, "city": "KAPFENBERG-POGIER", "public_private": "PUBLIC" }, "geometry": { "type": "Point", "coordinates": [ 15.320193400000051, 47.486955200000068 ] } },
{ "type": "Feature", "properties": { "OBJECTID": 296889, "Shape": null, "id": "AT_621341", "name": "TRAGÖSS-SANKT KATHAREIN", "lat": 47.505785, "lon": 15.07255029, "city": "TRAGÖSS", "public_private": "PUBLIC" }, "geometry": { "type": "Point", "coordinates": [ 15.072550290000038, 47.505785 ] } },
{ "type": "Feature", "properties": { "OBJECTID": 296890, "Shape": null, "id": "AT_621371", "name": "SPITAL AM SEMMERING", "lat": 47.6147844, "lon": 15.75602552, "city": "SPITAL AM SEMMERING", "public_private": "PUBLIC" }, "geometry": { "type": "Point", "coordinates": [ 15.756025520000037, 47.614784400000076 ] } },
{ "type": "Feature", "properties": { "OBJECTID": 296891, "Shape": null, "id": "AT_621418", "name": "MÜRZZUSCHLAG", "lat": 47.6013063, "lon": 15.6702429, "city": "MÜRZZUSCHLAG", "public_private": "PUBLIC" }, "geometry": { "type": "Point", "coordinates": [ 15.670242900000062, 47.601306300000033 ] } },
{ "type": "Feature", "properties": { "OBJECTID": 296892, "Shape": null, "id": "AT_621720", "name": "KAPFENBERG", "lat": 47.4543771, "lon": 15.31280759, "city": "KAPFENBERG", "public_private": "PUBLIC" }, "geometry": { "type": "Point", "coordinates": [ 15.312807590000034, 47.454377100000045 ] } },
{ "type": "Feature", "properties": { "OBJECTID": 296893, "Shape": null, "id": "AT_622013", "name": "FÜRSTENFELD", "lat": 47.0475595, "lon": 16.0821395, "city": "FÜRSTENFELD", "public_private": "PUBLIC" }, "geometry": { "type": "Point", "coordinates": [ 16.082139500000039, 47.047559500000034 ] } },
{ "type": "Feature", "properties": { "OBJECTID": 296894, "Shape": null, "id": "AT_622015", "name": "FÜRSTENFELD", "lat": 47.043796, "lon": 16.0750347, "city": "FÜRSTENFELD", "public_private": "PUBLIC" }, "geometry": { "type": "Point", "coordinates": [ 16.07503470000006, 47.043796 ] } },
{ "type": "Feature", "properties": { "OBJECTID": 296895, "Shape": null, "id": "AT_622016", "name": "FÜRSTENFELD", "lat": 47.04798913, "lon": 16.07564288, "city": "FÜRSTENFELD", "public_private": "PUBLIC" }, "geometry": { "type": "Point", "coordinates": [ 16.075642880000032, 47.047989130000076 ] } },
{ "type": "Feature", "properties": { "OBJECTID": 296896, "Shape": null, "id": "AT_622025", "name": "HARTBERG", "lat": 47.28274415, "lon": 15.97080696, "city": "HARTBERG", "public_private": "PUBLIC" }, "geometry": { "type": "Point", "coordinates": [ 15.970806960000061, 47.282744150000042 ] } },
{ "type": "Feature", "properties": { "OBJECTID": 296897, "Shape": null, "id": "AT_622034", "name": "PÖLLAU", "lat": 47.2995861, "lon": 15.8307941, "city": "PÖLLAU", "public_private": "PUBLIC" }, "geometry": { "type": "Point", "coordinates": [ 15.830794100000048, 47.299586100000056 ] } },
{ "type": "Feature", "properties": { "OBJECTID": 296898, "Shape": null, "id": "AT_622051", "name": "DECHANTSKIRCHEN", "lat": 47.41724585, "lon": 16.02097804, "city": "DECHANTSKIRCHEN", "public_private": "PUBLIC" }, "geometry": { "type": "Point", "coordinates": [ 16.020978040000045, 47.417245850000029 ] } },
{ "type": "Feature", "properties": { "OBJECTID": 296899, "Shape": null, "id": "AT_622071", "name": "GROSSWILFERSDORF", "lat": 47.07977965, "lon": 15.99196511, "city": "GROSSWILFERSDORF", "public_private": "PUBLIC" }, "geometry": { "type": "Point", "coordinates": [ 15.991965110000024, 47.079779650000035 ] } },
{ "type": "Feature", "properties": { "OBJECTID": 296900, "Shape": null, "id": "AT_622092", "name": "STUBENBERG", "lat": 47.24407985, "lon": 15.80304169, "city": "STUBENBERG", "public_private": "PUBLIC" }, "geometry": { "type": "Point", "coordinates": [ 15.803041690000043, 47.244079850000048 ] } },
{ "type": "Feature", "properties": { "OBJECTID": 296901, "Shape": null, "id": "AT_622111", "name": "BAD LOIPERSDORF", "lat": 47.0142418, "lon": 16.1041975, "city": "LOIPERSDORF BEI FÜRSTENFELD", "public_private": "PUBLIC" }, "geometry": { "type": "Point", "coordinates": [ 16.104197500000055, 47.014241800000036 ] } },
{ "type": "Feature", "properties": { "OBJECTID": 296902, "Shape": null, "id": "AT_622131", "name": "OTTENDORF AN DER RITTSCHEIN", "lat": 47.04681105, "lon": 15.8966918, "city": "OTTENDORF AN DER RITTSCHEIN", "public_private": "PUBLIC" }, "geometry": { "type": "Point", "coordinates": [ 15.896691800000042, 47.046811050000031 ] } },
{ "type": "Feature", "properties": { "OBJECTID": 296903, "Shape": null, "id": "AT_622161", "name": "FÜRSTENFELD", "lat": 47.02553585, "lon": 16.05368417, "city": "FÜRSTENFELD", "public_private": "PUBLIC" }, "geometry": { "type": "Point", "coordinates": [ 16.053684170000054, 47.02553585000004 ] } },
{ "type": "Feature", "properties": { "OBJECTID": 296904, "Shape": null, "id": "AT_622172", "name": "HARTBERG", "lat": 47.2787122, "lon": 15.967585, "city": "HARTBERG", "public_private": "PUBLIC" }, "geometry": { "type": "Point", "coordinates": [ 15.967585, 47.278712200000029 ] } },
{ "type": "Feature", "properties": { "OBJECTID": 296905, "Shape": null, "id": "AT_622201", "name": "WALDBACH-MÖNICHWALD", "lat": 47.446462, "lon": 15.88273009, "city": "MÖNICHWALD", "public_private": "PUBLIC" }, "geometry": { "type": "Point", "coordinates": [ 15.882730090000052, 47.446462 ] } },
{ "type": "Feature", "properties": { "OBJECTID": 296906, "Shape": null, "id": "AT_622241", "name": "PÖLLAU", "lat": 47.29937145, "lon": 15.83630851, "city": "PÖLLAU", "public_private": "PUBLIC" }, "geometry": { "type": "Point", "coordinates": [ 15.836308510000038, 47.299371450000081 ] } },
{ "type": "Feature", "properties": { "OBJECTID": 296907, "Shape": null, "id": "AT_622291", "name": "ROHRBACH AN DER LAFNITZ", "lat": 47.3912875, "lon": 15.98757179, "city": "ROHRBACH AN DER LAFNITZ", "public_private": "PUBLIC" }, "geometry": { "type": "Point", "coordinates": [ 15.987571790000061, 47.391287500000033 ] } },
{ "type": "Feature", "properties": { "OBJECTID": 296908, "Shape": null, "id": "AT_622401", "name": "STUBENBERG", "lat": 47.24407985, "lon": 15.80304169, "city": "STUBENBERG", "public_private": "PUBLIC" }, "geometry": { "type": "Point", "coordinates": [ 15.803041690000043, 47.244079850000048 ] } },
{ "type": "Feature", "properties": { "OBJECTID": 296909, "Shape": null, "id": "AT_622418", "name": "FÜRSTENFELD", "lat": 47.04798913, "lon": 16.07564288, "city": "FÜRSTENFELD", "public_private": "PUBLIC" }, "geometry": { "type": "Point", "coordinates": [ 16.075642880000032, 47.047989130000076 ] } },
{ "type": "Feature", "properties": { "OBJECTID": 296910, "Shape": null, "id": "AT_622461", "name": "BAD WALTERSDORF", "lat": 47.169459, "lon": 16.0128406, "city": "BAD WALTERSDORF", "public_private": "PUBLIC" }, "geometry": { "type": "Point", "coordinates": [ 16.012840600000061, 47.169459 ] } },
{ "type": "Feature", "properties": { "OBJECTID": 296911, "Shape": null, "id": "AT_622481", "name": "PÖLLAU", "lat": 47.324212, "lon": 15.7975797, "city": "PÖLLAU", "public_private": "PUBLIC" }, "geometry": { "type": "Point", "coordinates": [ 15.797579700000028, 47.324212 ] } },
{ "type": "Feature", "properties": { "OBJECTID": 296912, "Shape": null, "id": "AT_622511", "name": "HARTBERG", "lat": 47.2597687, "lon": 15.9717534, "city": "HARTBERG", "public_private": "PRIVATE" }, "geometry": { "type": "Point", "coordinates": [ 15.971753400000068, 47.259768700000052 ] } },
{ "type": "Feature", "properties": { "OBJECTID": 296913, "Shape": null, "id": "AT_622810", "name": "HARTBERG", "lat": 47.2787362, "lon": 15.97846486, "city": "HARTBERG", "public_private": "PUBLIC" }, "geometry": { "type": "Point", "coordinates": [ 15.978464860000031, 47.278736200000026 ] } },
{ "type": "Feature", "properties": { "OBJECTID": 296914, "Shape": null, "id": "AT_623014", "name": "KIRCHBACH-ZERLACH", "lat": 46.9335172, "lon": 15.6593534, "city": "KIRCHBACH IN STEIERMARK", "public_private": "PUBLIC" }, "geometry": { "type": "Point", "coordinates": [ 15.659353400000043, 46.93351720000004 ] } },
{ "type": "Feature", "properties": { "OBJECTID": 296915, "Shape": null, "id": "AT_623026", "name": "BAD RADKERSBURG", "lat": 46.68592305, "lon": 15.99478219, "city": "BAD RADKERSBURG", "public_private": "PUBLIC" }, "geometry": { "type": "Point", "coordinates": [ 15.994782190000024, 46.685923050000042 ] } },
{ "type": "Feature", "properties": { "OBJECTID": 296916, "Shape": null, "id": "AT_623035", "name": "BAD RADKERSBURG", "lat": 46.6846686, "lon": 15.9958162, "city": "BAD RADKERSBURG", "public_private": "PUBLIC" }, "geometry": { "type": "Point", "coordinates": [ 15.995816200000036, 46.684668600000066 ] } },
{ "type": "Feature", "properties": { "OBJECTID": 296917, "Shape": null, "id": "AT_623052", "name": "GNAS", "lat": 46.87186615, "lon": 15.8306313, "city": "GNAS", "public_private": "PUBLIC" }, "geometry": { "type": "Point", "coordinates": [ 15.83063130000005, 46.871866150000074 ] } },
{ "type": "Feature", "properties": { "OBJECTID": 296918, "Shape": null, "id": "AT_623071", "name": "FELDBACH", "lat": 46.95160695, "lon": 15.88653227, "city": "FELDBACH", "public_private": "PUBLIC" }, "geometry": { "type": "Point", "coordinates": [ 15.886532270000032, 46.951606950000041 ] } },
{ "type": "Feature", "properties": { "OBJECTID": 296919, "Shape": null, "id": "AT_623072", "name": "KIRCHBERG AN DER RAAB", "lat": 46.9896403, "lon": 15.7600862, "city": "KIRCHBERG AN DER RAAB", "public_private": "PUBLIC" }, "geometry": { "type": "Point", "coordinates": [ 15.760086200000046, 46.989640300000076 ] } },
{ "type": "Feature", "properties": { "OBJECTID": 296920, "Shape": null, "id": "AT_623102", "name": "SANKT ANNA AM AIGEN", "lat": 46.8388485, "lon": 15.9763888, "city": "SANKT ANNA AM AIGEN", "public_private": "PUBLIC" }, "geometry": { "type": "Point", "coordinates": [ 15.976388800000052, 46.83884850000004 ] } },
{ "type": "Feature", "properties": { "OBJECTID": 296921, "Shape": null, "id": "AT_623122", "name": "DEUTSCH GORITZ", "lat": 46.7500088, "lon": 15.82728806, "city": "DEUTSCH GORITZ", "public_private": "PUBLIC" }, "geometry": { "type": "Point", "coordinates": [ 15.827288060000058, 46.750008800000046 ] } },
{ "type": "Feature", "properties": { "OBJECTID": 296922, "Shape": null, "id": "AT_623151", "name": "FEHRING", "lat": 46.94654195, "lon": 16.06020932, "city": "FEHRING", "public_private": "PUBLIC" }, "geometry": { "type": "Point", "coordinates": [ 16.06020932000007, 46.946541950000039 ] } },
{ "type": "Feature", "properties": { "OBJECTID": 296923, "Shape": null, "id": "AT_623171", "name": "KAPFENSTEIN", "lat": 46.8890964, "lon": 15.97805531, "city": "KAPFENSTEIN", "public_private": "PUBLIC" }, "geometry": { "type": "Point", "coordinates": [ 15.978055310000059, 46.889096400000028 ] } },
{ "type": "Feature", "properties": { "OBJECTID": 296924, "Shape": null, "id": "AT_623221", "name": "PALDAU", "lat": 46.9393357, "lon": 15.7991087, "city": "PALDAU", "public_private": "PUBLIC" }, "geometry": { "type": "Point", "coordinates": [ 15.799108700000033, 46.939335700000072 ] } },
{ "type": "Feature", "properties": { "OBJECTID": 296925, "Shape": null, "id": "AT_623251", "name": "SANKT STEFAN IM ROSENTAL", "lat": 46.9071518, "lon": 15.7085188, "city": "SANKT STEFAN IM ROSENTAL", "public_private": "PUBLIC" }, "geometry": { "type": "Point", "coordinates": [ 15.708518800000036, 46.907151800000065 ] } },
{ "type": "Feature", "properties": { "OBJECTID": 296926, "Shape": null, "id": "AT_623321", "name": "KLÖCH", "lat": 46.76047025, "lon": 15.96637696, "city": "KLÖCH", "public_private": "PUBLIC" }, "geometry": { "type": "Point", "coordinates": [ 15.966376960000048, 46.760470250000026 ] } },
{ "type": "Feature", "properties": { "OBJECTID": 296927, "Shape": null, "id": "AT_623361", "name": "BAD RADKERSBURG", "lat": 46.68516725, "lon": 15.98690163, "city": "BAD RADKERSBURG", "public_private": "PUBLIC" }, "geometry": { "type": "Point", "coordinates": [ 15.986901630000034, 46.685167250000063 ] } },
{ "type": "Feature", "properties": { "OBJECTID": 296928, "Shape": null, "id": "AT_623371", "name": "DEUTSCH GORITZ", "lat": 46.74444545, "lon": 15.81850536, "city": "DEUTSCH GORITZ", "public_private": "PUBLIC" }, "geometry": { "type": "Point", "coordinates": [ 15.818505360000074, 46.744445450000057 ] } },
{ "type": "Feature", "properties": { "OBJECTID": 296929, "Shape": null, "id": "AT_623381", "name": "STRADEN", "lat": 46.8056903, "lon": 15.87154442, "city": "STRADEN", "public_private": "PUBLIC" }, "geometry": { "type": "Point", "coordinates": [ 15.871544420000077, 46.805690300000037 ] } },
{ "type": "Feature", "properties": { "OBJECTID": 296930, "Shape": null, "id": "AT_623429", "name": "FELDBACH", "lat": 46.9553879, "lon": 15.88571884, "city": "FELDBACH", "public_private": "PUBLIC" }, "geometry": { "type": "Point", "coordinates": [ 15.885718840000038, 46.955387900000062 ] } },
{ "type": "Feature", "properties": { "OBJECTID": 296931, "Shape": null, "id": "AT_901026", "name": "WIEN-INNERE STADT", "lat": 48.21203755, "lon": 16.3649801, "city": "WIEN", "public_private": "PRIVATE" }, "geometry": { "type": "Point", "coordinates": [ 16.364980100000025, 48.212037550000048 ] } },
{ "type": "Feature", "properties": { "OBJECTID": 296932, "Shape": null, "id": "AT_901061", "name": "WIEN-INNERE STADT", "lat": 48.2098575, "lon": 16.3763935, "city": "WIEN", "public_private": "PRIVATE" }, "geometry": { "type": "Point", "coordinates": [ 16.376393500000063, 48.209857500000055 ] } },
{ "type": "Feature", "properties": { "OBJECTID": 296933, "Shape": null, "id": "AT_902016", "name": "WIEN-LEOPOLDSTADT", "lat": 48.2235397, "lon": 16.3842307, "city": "WIEN", "public_private": "PUBLIC" }, "geometry": { "type": "Point", "coordinates": [ 16.384230700000046, 48.22353970000006 ] } },
{ "type": "Feature", "properties": { "OBJECTID": 296934, "Shape": null, "id": "AT_902026", "name": "WIEN-LEOPOLDSTADT", "lat": 48.2206738, "lon": 16.4022073, "city": "WIEN", "public_private": "PUBLIC" }, "geometry": { "type": "Point", "coordinates": [ 16.402207300000043, 48.220673800000043 ] } },
{ "type": "Feature", "properties": { "OBJECTID": 296935, "Shape": null, "id": "AT_902031", "name": "WIEN-LEOPOLDSTADT", "lat": 48.2221224, "lon": 16.38489139, "city": "WIEN", "public_private": "PUBLIC" }, "geometry": { "type": "Point", "coordinates": [ 16.384891390000064, 48.222122400000046 ] } },
{ "type": "Feature", "properties": { "OBJECTID": 296936, "Shape": null, "id": "AT_902036", "name": "WIEN-LEOPOLDSTADT", "lat": 48.21802215, "lon": 16.38648331, "city": "WIEN", "public_private": "PUBLIC" }, "geometry": { "type": "Point", "coordinates": [ 16.386483310000074, 48.218022150000081 ] } },
{ "type": "Feature", "properties": { "OBJECTID": 296937, "Shape": null, "id": "AT_902053", "name": "WIEN-LEOPOLDSTADT", "lat": 48.2063831, "lon": 16.3992322, "city": "WIEN", "public_private": "PUBLIC" }, "geometry": { "type": "Point", "coordinates": [ 16.399232200000029, 48.206383100000039 ] } },
{ "type": "Feature", "properties": { "OBJECTID": 296938, "Shape": null, "id": "AT_902082", "name": "WIEN-LEOPOLDSTADT", "lat": 48.2222798, "lon": 16.375444, "city": "WIEN", "public_private": "PRIVATE" }, "geometry": { "type": "Point", "coordinates": [ 16.375444, 48.222279800000081 ] } },
{ "type": "Feature", "properties": { "OBJECTID": 296939, "Shape": null, "id": "AT_902111", "name": "WIEN-LEOPOLDSTADT", "lat": 48.2058818, "lon": 16.39994748, "city": "WIEN", "public_private": "PUBLIC" }, "geometry": { "type": "Point", "coordinates": [ 16.399947480000037, 48.205881800000043 ] } },
{ "type": "Feature", "properties": { "OBJECTID": 296940, "Shape": null, "id": "AT_902122", "name": "WIEN-LEOPOLDSTADT", "lat": 48.2199048, "lon": 16.383796, "city": "WIEN", "public_private": "PRIVATE" }, "geometry": { "type": "Point", "coordinates": [ 16.383796, 48.219904800000052 ] } },
{ "type": "Feature", "properties": { "OBJECTID": 296941, "Shape": null, "id": "AT_902151", "name": "WIEN-LEOPOLDSTADT", "lat": 48.2251654, "lon": 16.3954321, "city": "WIEN", "public_private": "PUBLIC" }, "geometry": { "type": "Point", "coordinates": [ 16.39543210000005, 48.225165400000037 ] } },
{ "type": "Feature", "properties": { "OBJECTID": 296942, "Shape": null, "id": "AT_902171", "name": "WIEN-LEOPOLDSTADT", "lat": 48.2221769, "lon": 16.3804305, "city": "WIEN", "public_private": "PRIVATE" }, "geometry": { "type": "Point", "coordinates": [ 16.380430500000045, 48.222176900000079 ] } },
{ "type": "Feature", "properties": { "OBJECTID": 296943, "Shape": null, "id": "AT_902231", "name": "WIEN-LEOPOLDSTADT", "lat": 48.2199048, "lon": 16.383796, "city": "WIEN", "public_private": "PRIVATE" }, "geometry": { "type": "Point", "coordinates": [ 16.383796, 48.219904800000052 ] } },
{ "type": "Feature", "properties": { "OBJECTID": 296944, "Shape": null, "id": "AT_902428", "name": "WIEN-LEOPOLDSTADT", "lat": 48.22792735, "lon": 16.37999145, "city": "WIEN", "public_private": "PRIVATE" }, "geometry": { "type": "Point", "coordinates": [ 16.379991450000034, 48.227927350000073 ] } },
{ "type": "Feature", "properties": { "OBJECTID": 296945, "Shape": null, "id": "AT_902920", "name": "WIEN-LEOPOLDSTADT", "lat": 48.2033815, "lon": 16.4354861, "city": "WIEN", "public_private": "PRIVATE" }, "geometry": { "type": "Point", "coordinates": [ 16.435486100000048, 48.203381500000035 ] } },
{ "type": "Feature", "properties": { "OBJECTID": 296946, "Shape": null, "id": "AT_903021", "name": "WIEN-LANDSTRASSE", "lat": 48.199, "lon": 16.3992614, "city": "WIEN", "public_private": "PUBLIC" }, "geometry": { "type": "Point", "coordinates": [ 16.399261400000057, 48.199 ] } },
{ "type": "Feature", "properties": { "OBJECTID": 296947, "Shape": null, "id": "AT_903026", "name": "WIEN-LANDSTRASSE", "lat": 48.1951535, "lon": 16.3922007, "city": "WIEN", "public_private": "PUBLIC" }, "geometry": { "type": "Point", "coordinates": [ 16.392200700000046, 48.19515350000006 ] } },
{ "type": "Feature", "properties": { "OBJECTID": 296948, "Shape": null, "id": "AT_903031", "name": "WIEN-LANDSTRASSE", "lat": 48.1938348, "lon": 16.39295335, "city": "WIEN", "public_private": "PUBLIC" }, "geometry": { "type": "Point", "coordinates": [ 16.392953350000028, 48.193834800000047 ] } },
{ "type": "Feature", "properties": { "OBJECTID": 296949, "Shape": null, "id": "AT_903033", "name": "WIEN-LANDSTRASSE", "lat": 48.19237515, "lon": 16.40205571, "city": "WIEN", "public_private": "PUBLIC" }, "geometry": { "type": "Point", "coordinates": [ 16.40205571000007, 48.192375150000032 ] } },
{ "type": "Feature", "properties": { "OBJECTID": 296950, "Shape": null, "id": "AT_903046", "name": "WIEN-LANDSTRASSE", "lat": 48.1950754, "lon": 16.3853138, "city": "WIEN", "public_private": "PRIVATE" }, "geometry": { "type": "Point", "coordinates": [ 16.385313800000063, 48.195075400000064 ] } },
{ "type": "Feature", "properties": { "OBJECTID": 296951, "Shape": null, "id": "AT_903066", "name": "WIEN-LANDSTRASSE", "lat": 48.1977992, "lon": 16.4036861, "city": "WIEN", "public_private": "PUBLIC" }, "geometry": { "type": "Point", "coordinates": [ 16.403686100000073, 48.197799200000077 ] } },
{ "type": "Feature", "properties": { "OBJECTID": 296952, "Shape": null, "id": "AT_903121", "name": "WIEN-LANDSTRASSE", "lat": 48.1950754, "lon": 16.3853138, "city": "WIEN", "public_private": "PRIVATE" }, "geometry": { "type": "Point", "coordinates": [ 16.385313800000063, 48.195075400000064 ] } },
{ "type": "Feature", "properties": { "OBJECTID": 296953, "Shape": null, "id": "AT_903428", "name": "WIEN-LANDSTRASSE", "lat": 48.1940889, "lon": 16.38611531, "city": "WIEN", "public_private": "PRIVATE" }, "geometry": { "type": "Point", "coordinates": [ 16.386115310000037, 48.194088900000054 ] } },
{ "type": "Feature", "properties": { "OBJECTID": 296954, "Shape": null, "id": "AT_903507", "name": "WIEN-LANDSTRASSE", "lat": 48.1905471, "lon": 16.3969989, "city": "WIEN", "public_private": "PUBLIC" }, "geometry": { "type": "Point", "coordinates": [ 16.396998900000028, 48.19054710000006 ] } },
{ "type": "Feature", "properties": { "OBJECTID": 296955, "Shape": null, "id": "AT_904012", "name": "WIEN-WIEDEN", "lat": 48.1945776, "lon": 16.365644, "city": "WIEN", "public_private": "PUBLIC" }, "geometry": { "type": "Point", "coordinates": [ 16.365644, 48.194577600000059 ] } },
{ "type": "Feature", "properties": { "OBJECTID": 296956, "Shape": null, "id": "AT_403091", "name": "WELS", "lat": 48.1621166, "lon": 14.0072741, "city": "WELS", "public_private": "PUBLIC" }, "geometry": { "type": "Point", "coordinates": [ 14.007274100000075, 48.162116600000047 ] } },
{ "type": "Feature", "properties": { "OBJECTID": 296957, "Shape": null, "id": "AT_403121", "name": "WELS", "lat": 48.191252, "lon": 14.01335946, "city": "WELS", "public_private": "PUBLIC" }, "geometry": { "type": "Point", "coordinates": [ 14.013359460000061, 48.191252 ] } },
{ "type": "Feature", "properties": { "OBJECTID": 296958, "Shape": null, "id": "AT_403190", "name": "WELS", "lat": 48.16100975, "lon": 14.02717328, "city": "WELS", "public_private": "PRIVATE" }, "geometry": { "type": "Point", "coordinates": [ 14.027173280000056, 48.161009750000062 ] } },
{ "type": "Feature", "properties": { "OBJECTID": 296959, "Shape": null, "id": "AT_403419", "name": "WELS", "lat": 48.16193, "lon": 14.0302999, "city": "WELS", "public_private": "PRIVATE" }, "geometry": { "type": "Point", "coordinates": [ 14.030299900000045, 48.16193 ] } },
{ "type": "Feature", "properties": { "OBJECTID": 296960, "Shape": null, "id": "AT_403457", "name": "WELS", "lat": 48.1577975, "lon": 14.0298704, "city": "WELS", "public_private": "PUBLIC" }, "geometry": { "type": "Point", "coordinates": [ 14.02987040000005, 48.157797500000072 ] } },
{ "type": "Feature", "properties": { "OBJECTID": 296961, "Shape": null, "id": "AT_403910", "name": "WELS", "lat": 48.1729073, "lon": 14.02586806, "city": "WELS", "public_private": "PRIVATE" }, "geometry": { "type": "Point", "coordinates": [ 14.02586806000005, 48.172907300000077 ] } },
{ "type": "Feature", "properties": { "OBJECTID": 296962, "Shape": null, "id": "AT_404023", "name": "BRAUNAU AM INN", "lat": 48.25748905, "lon": 13.04025959, "city": "BRAUNAU AM INN", "public_private": "PUBLIC" }, "geometry": { "type": "Point", "coordinates": [ 13.040259590000062, 48.257489050000061 ] } },
{ "type": "Feature", "properties": { "OBJECTID": 296963, "Shape": null, "id": "AT_404051", "name": "BRAUNAU AM INN", "lat": 48.25687485, "lon": 13.04245466, "city": "BRAUNAU AM INN", "public_private": "PUBLIC" }, "geometry": { "type": "Point", "coordinates": [ 13.042454660000033, 48.256874850000031 ] } },
{ "type": "Feature", "properties": { "OBJECTID": 296964, "Shape": null, "id": "AT_404291", "name": "MINING", "lat": 48.27562265, "lon": 13.16238874, "city": "MINING", "public_private": "PUBLIC" }, "geometry": { "type": "Point", "coordinates": [ 13.16238874000004, 48.275622650000059 ] } },
{ "type": "Feature", "properties": { "OBJECTID": 296965, "Shape": null, "id": "AT_404417", "name": "BRAUNAU AM INN", "lat": 48.25545055, "lon": 13.03639494, "city": "BRAUNAU", "public_private": "PRIVATE" }, "geometry": { "type": "Point", "coordinates": [ 13.036394940000037, 48.255450550000035 ] } },
{ "type": "Feature", "properties": { "OBJECTID": 296966, "Shape": null, "id": "AT_404581", "name": "BRAUNAU AM INN", "lat": 48.2463349, "lon": 13.03348695, "city": "BRAUNAU AM INN", "public_private": "PUBLIC" }, "geometry": { "type": "Point", "coordinates": [ 13.033486950000054, 48.246334900000079 ] } },
{ "type": "Feature", "properties": { "OBJECTID": 296967, "Shape": null, "id": "AT_404591", "name": "ST. PETER AM HART", "lat": 48.2699507, "lon": 13.11077709, "city": "SANKT PETER AM HART", "public_private": "PRIVATE" }, "geometry": { "type": "Point", "coordinates": [ 13.110777090000056, 48.269950700000038 ] } },
{ "type": "Feature", "properties": { "OBJECTID": 296968, "Shape": null, "id": "AT_405012", "name": "ALKOVEN", "lat": 48.2860557, "lon": 14.1043473, "city": "ALKOVEN", "public_private": "PUBLIC" }, "geometry": { "type": "Point", "coordinates": [ 14.104347300000029, 48.286055700000077 ] } },
{ "type": "Feature", "properties": { "OBJECTID": 296969, "Shape": null, "id": "AT_405023", "name": "ALKOVEN", "lat": 48.27981495, "lon": 14.10936265, "city": "ALKOVEN", "public_private": "PUBLIC" }, "geometry": { "type": "Point", "coordinates": [ 14.109362650000037, 48.279814950000059 ] } },
{ "type": "Feature", "properties": { "OBJECTID": 296970, "Shape": null, "id": "AT_405051", "name": "HAIBACH OB DER DONAU", "lat": 48.41272265, "lon": 13.91655771, "city": "HAIBACH OB DER DONAU", "public_private": "PUBLIC" }, "geometry": { "type": "Point", "coordinates": [ 13.916557710000063, 48.412722650000035 ] } },
{ "type": "Feature", "properties": { "OBJECTID": 296971, "Shape": null, "id": "AT_405111", "name": "HINZENBACH", "lat": 48.2855108, "lon": 13.97794613, "city": "HINZENBACH", "public_private": "PUBLIC" }, "geometry": { "type": "Point", "coordinates": [ 13.977946130000078, 48.285510800000054 ] } },
{ "type": "Feature", "properties": { "OBJECTID": 296972, "Shape": null, "id": "AT_405418", "name": "EFERDING", "lat": 48.3138529, "lon": 14.02320365, "city": "EFERDING", "public_private": "PUBLIC" }, "geometry": { "type": "Point", "coordinates": [ 14.023203650000028, 48.313852900000029 ] } },
{ "type": "Feature", "properties": { "OBJECTID": 296973, "Shape": null, "id": "AT_407152", "name": "SCHARNSTEIN", "lat": 47.9031211, "lon": 13.96034071, "city": "SCHARNSTEIN", "public_private": "PUBLIC" }, "geometry": { "type": "Point", "coordinates": [ 13.960340710000025, 47.903121100000078 ] } },
{ "type": "Feature", "properties": { "OBJECTID": 296974, "Shape": null, "id": "AT_407261", "name": "SCHARNSTEIN", "lat": 47.89827265, "lon": 13.95334795, "city": "SCHARNSTEIN", "public_private": "PUBLIC" }, "geometry": { "type": "Point", "coordinates": [ 13.953347950000023, 47.898272650000081 ] } },
{ "type": "Feature", "properties": { "OBJECTID": 296975, "Shape": null, "id": "AT_904036", "name": "WIEN-WIEDEN", "lat": 48.1846303, "lon": 16.3687149, "city": "WIEN", "public_private": "PUBLIC" }, "geometry": { "type": "Point", "coordinates": [ 16.368714900000043, 48.184630300000038 ] } },
{ "type": "Feature", "properties": { "OBJECTID": 296976, "Shape": null, "id": "AT_904081", "name": "WIEN-WIEDEN", "lat": 48.1930106, "lon": 16.3708807, "city": "WIEN", "public_private": "PRIVATE" }, "geometry": { "type": "Point", "coordinates": [ 16.370880700000043, 48.193010600000036 ] } },
{ "type": "Feature", "properties": { "OBJECTID": 296977, "Shape": null, "id": "AT_905022", "name": "WIEN-MARGARETEN", "lat": 48.1827912, "lon": 16.3614296, "city": "WIEN", "public_private": "PUBLIC" }, "geometry": { "type": "Point", "coordinates": [ 16.361429600000065, 48.182791200000054 ] } },
{ "type": "Feature", "properties": { "OBJECTID": 296978, "Shape": null, "id": "AT_905032", "name": "WIEN-MARGARETEN", "lat": 48.1880265, "lon": 16.3567271, "city": "WIEN", "public_private": "PUBLIC" }, "geometry": { "type": "Point", "coordinates": [ 16.356727100000057, 48.188026500000035 ] } },
{ "type": "Feature", "properties": { "OBJECTID": 296979, "Shape": null, "id": "AT_905448", "name": "WIEN-MARGARETEN", "lat": 48.1924161, "lon": 16.3605251, "city": "WIEN", "public_private": "PRIVATE" }, "geometry": { "type": "Point", "coordinates": [ 16.360525100000075, 48.192416100000059 ] } },
{ "type": "Feature", "properties": { "OBJECTID": 296980, "Shape": null, "id": "AT_906024", "name": "WIEN-MARIAHILF", "lat": 48.19224455, "lon": 16.3444111, "city": "WIEN", "public_private": "PRIVATE" }, "geometry": { "type": "Point", "coordinates": [ 16.344411100000059, 48.192244550000055 ] } },
{ "type": "Feature", "properties": { "OBJECTID": 296981, "Shape": null, "id": "AT_906036", "name": "WIEN-MARIAHILF", "lat": 48.2016043, "lon": 16.3617599, "city": "WIEN", "public_private": "PUBLIC" }, "geometry": { "type": "Point", "coordinates": [ 16.361759900000038, 48.201604300000042 ] } },
{ "type": "Feature", "properties": { "OBJECTID": 296982, "Shape": null, "id": "AT_906051", "name": "WIEN-MARIAHILF", "lat": 48.19054005, "lon": 16.34413936, "city": "WIEN", "public_private": "PRIVATE" }, "geometry": { "type": "Point", "coordinates": [ 16.344139360000042, 48.190540050000038 ] } },
{ "type": "Feature", "properties": { "OBJECTID": 296983, "Shape": null, "id": "AT_906125", "name": "WIEN-MARIAHILF", "lat": 48.1894973, "lon": 16.3420734, "city": "WIEN", "public_private": "PUBLIC" }, "geometry": { "type": "Point", "coordinates": [ 16.342073400000061, 48.189497300000028 ] } },
{ "type": "Feature", "properties": { "OBJECTID": 296984, "Shape": null, "id": "AT_906920", "name": "WIEN-MARIAHILF", "lat": 48.1964151, "lon": 16.3441254, "city": "WIEN", "public_private": "PRIVATE" }, "geometry": { "type": "Point", "coordinates": [ 16.344125400000053, 48.196415100000081 ] } },
{ "type": "Feature", "properties": { "OBJECTID": 296985, "Shape": null, "id": "AT_907014", "name": "WIEN-NEUBAU", "lat": 48.1991065, "lon": 16.3398524, "city": "WIEN", "public_private": "PRIVATE" }, "geometry": { "type": "Point", "coordinates": [ 16.339852400000041, 48.199106500000028 ] } },
{ "type": "Feature", "properties": { "OBJECTID": 296986, "Shape": null, "id": "AT_907036", "name": "WIEN-NEUBAU", "lat": 48.1991065, "lon": 16.3398524, "city": "WIEN", "public_private": "PRIVATE" }, "geometry": { "type": "Point", "coordinates": [ 16.339852400000041, 48.199106500000028 ] } },
{ "type": "Feature", "properties": { "OBJECTID": 296987, "Shape": null, "id": "AT_907066", "name": "WIEN-NEUBAU", "lat": 48.2055856, "lon": 16.3452878, "city": "WIEN", "public_private": "PUBLIC" }, "geometry": { "type": "Point", "coordinates": [ 16.345287800000051, 48.205585600000063 ] } },
{ "type": "Feature", "properties": { "OBJECTID": 296988, "Shape": null, "id": "AT_911013", "name": "WIEN-SIMMERING", "lat": 48.1724871, "lon": 16.41114657, "city": "WIEN", "public_private": "PUBLIC" }, "geometry": { "type": "Point", "coordinates": [ 16.411146570000028, 48.172487100000069 ] } },
{ "type": "Feature", "properties": { "OBJECTID": 296989, "Shape": null, "id": "AT_907930", "name": "WIEN-NEUBAU", "lat": 48.2050322, "lon": 16.3429601, "city": "WIEN", "public_private": "PRIVATE" }, "geometry": { "type": "Point", "coordinates": [ 16.342960100000028, 48.205032200000062 ] } },
{ "type": "Feature", "properties": { "OBJECTID": 296990, "Shape": null, "id": "AT_908011", "name": "WIEN-JOSEFSTADT", "lat": 48.2103422, "lon": 16.35198, "city": "WIEN", "public_private": "PUBLIC" }, "geometry": { "type": "Point", "coordinates": [ 16.35198, 48.210342200000071 ] } },
{ "type": "Feature", "properties": { "OBJECTID": 296991, "Shape": null, "id": "AT_908021", "name": "WIEN-JOSEFSTADT", "lat": 48.2097023, "lon": 16.34133, "city": "WIEN", "public_private": "PUBLIC" }, "geometry": { "type": "Point", "coordinates": [ 16.34133, 48.20970230000006 ] } },
{ "type": "Feature", "properties": { "OBJECTID": 296992, "Shape": null, "id": "AT_908046", "name": "WIEN-JOSEFSTADT", "lat": 48.2140165, "lon": 16.34574499, "city": "WIEN", "public_private": "PUBLIC" }, "geometry": { "type": "Point", "coordinates": [ 16.345744990000071, 48.214016500000071 ] } },
{ "type": "Feature", "properties": { "OBJECTID": 296993, "Shape": null, "id": "AT_908820", "name": "WIEN-JOSEFSTADT", "lat": 48.2086017, "lon": 16.3471592, "city": "WIEN", "public_private": "PRIVATE" }, "geometry": { "type": "Point", "coordinates": [ 16.347159200000021, 48.208601700000031 ] } },
{ "type": "Feature", "properties": { "OBJECTID": 296994, "Shape": null, "id": "AT_909031", "name": "WIEN-ALSERGRUND", "lat": 48.2212212, "lon": 16.3621177, "city": "WIEN", "public_private": "PUBLIC" }, "geometry": { "type": "Point", "coordinates": [ 16.362117700000056, 48.221221200000059 ] } },
{ "type": "Feature", "properties": { "OBJECTID": 296995, "Shape": null, "id": "AT_909081", "name": "WIEN-ALSERGRUND", "lat": 48.2233008, "lon": 16.351465, "city": "WIEN", "public_private": "PRIVATE" }, "geometry": { "type": "Point", "coordinates": [ 16.351465, 48.223300800000061 ] } },
{ "type": "Feature", "properties": { "OBJECTID": 296996, "Shape": null, "id": "AT_909477", "name": "WIEN-ALSERGRUND", "lat": 48.2173333, "lon": 16.3464505, "city": "WIEN", "public_private": "PRIVATE" }, "geometry": { "type": "Point", "coordinates": [ 16.34645050000006, 48.217333300000064 ] } },
{ "type": "Feature", "properties": { "OBJECTID": 296997, "Shape": null, "id": "AT_910016", "name": "WIEN-FAVORITEN", "lat": 48.1677418, "lon": 16.3740557, "city": "WIEN", "public_private": "PUBLIC" }, "geometry": { "type": "Point", "coordinates": [ 16.374055700000042, 48.167741800000044 ] } },
{ "type": "Feature", "properties": { "OBJECTID": 296998, "Shape": null, "id": "AT_910036", "name": "WIEN-FAVORITEN", "lat": 48.1710722, "lon": 16.38404407, "city": "WIEN", "public_private": "PUBLIC" }, "geometry": { "type": "Point", "coordinates": [ 16.384044070000073, 48.171072200000026 ] } },
{ "type": "Feature", "properties": { "OBJECTID": 296999, "Shape": null, "id": "AT_910061", "name": "WIEN-FAVORITEN", "lat": 48.16698635, "lon": 16.36131547, "city": "WIEN", "public_private": "PUBLIC" }, "geometry": { "type": "Point", "coordinates": [ 16.361315470000022, 48.166986350000059 ] } },
{ "type": "Feature", "properties": { "OBJECTID": 297000, "Shape": null, "id": "AT_910081", "name": "WIEN-FAVORITEN", "lat": 48.17069895, "lon": 16.36612079, "city": "WIEN", "public_private": "PUBLIC" }, "geometry": { "type": "Point", "coordinates": [ 16.366120790000025, 48.17069895000003 ] } },
{ "type": "Feature", "properties": { "OBJECTID": 297001, "Shape": null, "id": "AT_910101", "name": "WIEN-FAVORITEN", "lat": 48.1762387, "lon": 16.3723386, "city": "WIEN", "public_private": "PUBLIC" }, "geometry": { "type": "Point", "coordinates": [ 16.372338600000035, 48.176238700000056 ] } },
{ "type": "Feature", "properties": { "OBJECTID": 297002, "Shape": null, "id": "AT_910131", "name": "WIEN-FAVORITEN", "lat": 48.1712843, "lon": 16.3523299, "city": "WIEN", "public_private": "PUBLIC" }, "geometry": { "type": "Point", "coordinates": [ 16.352329900000029, 48.171284300000082 ] } },
{ "type": "Feature", "properties": { "OBJECTID": 297003, "Shape": null, "id": "AT_910151", "name": "WIEN-FAVORITEN", "lat": 48.1713454, "lon": 16.3864842, "city": "WIEN", "public_private": "PUBLIC" }, "geometry": { "type": "Point", "coordinates": [ 16.386484200000041, 48.171345400000064 ] } },
{ "type": "Feature", "properties": { "OBJECTID": 297004, "Shape": null, "id": "AT_910182", "name": "WIEN-FAVORITEN", "lat": 48.14711735, "lon": 16.39414684, "city": "WIEN", "public_private": "PUBLIC" }, "geometry": { "type": "Point", "coordinates": [ 16.394146840000076, 48.14711735000003 ] } },
{ "type": "Feature", "properties": { "OBJECTID": 297005, "Shape": null, "id": "AT_910212", "name": "WIEN-FAVORITEN", "lat": 48.17819705, "lon": 16.38178753, "city": "WIEN", "public_private": "PUBLIC" }, "geometry": { "type": "Point", "coordinates": [ 16.381787530000054, 48.178197050000051 ] } },
{ "type": "Feature", "properties": { "OBJECTID": 297006, "Shape": null, "id": "AT_910221", "name": "WIEN-FAVORITEN", "lat": 48.1647285, "lon": 16.3745722, "city": "WIEN", "public_private": "PUBLIC" }, "geometry": { "type": "Point", "coordinates": [ 16.374572200000046, 48.164728500000081 ] } },
{ "type": "Feature", "properties": { "OBJECTID": 297007, "Shape": null, "id": "AT_910241", "name": "WIEN-FAVORITEN", "lat": 48.1593743, "lon": 16.38881424, "city": "WIEN", "public_private": "PRIVATE" }, "geometry": { "type": "Point", "coordinates": [ 16.388814240000045, 48.159374300000081 ] } },
{ "type": "Feature", "properties": { "OBJECTID": 297008, "Shape": null, "id": "AT_910291", "name": "WIEN-FAVORITEN", "lat": 48.1556048, "lon": 16.3500583, "city": "WIEN", "public_private": "PUBLIC" }, "geometry": { "type": "Point", "coordinates": [ 16.350058300000057, 48.155604800000049 ] } },
{ "type": "Feature", "properties": { "OBJECTID": 297009, "Shape": null, "id": "AT_910371", "name": "WIEN-FAVORITEN", "lat": 48.1661893, "lon": 16.39089474, "city": "WIEN", "public_private": "PUBLIC" }, "geometry": { "type": "Point", "coordinates": [ 16.390894740000022, 48.166189300000042 ] } },
{ "type": "Feature", "properties": { "OBJECTID": 297010, "Shape": null, "id": "AT_910411", "name": "WIEN-FAVORITEN", "lat": 48.1790052, "lon": 16.3875922, "city": "WIEN", "public_private": "PRIVATE" }, "geometry": { "type": "Point", "coordinates": [ 16.387592200000029, 48.179005200000063 ] } },
{ "type": "Feature", "properties": { "OBJECTID": 297011, "Shape": null, "id": "AT_910431", "name": "WIEN-FAVORITEN", "lat": 48.1427623, "lon": 16.40909635, "city": "WIEN", "public_private": "PRIVATE" }, "geometry": { "type": "Point", "coordinates": [ 16.409096350000027, 48.142762300000072 ] } },
{ "type": "Feature", "properties": { "OBJECTID": 297012, "Shape": null, "id": "AT_911023", "name": "WIEN-SIMMERING", "lat": 48.1556478, "lon": 16.47052531, "city": "WIEN", "public_private": "PUBLIC" }, "geometry": { "type": "Point", "coordinates": [ 16.470525310000028, 48.155647800000054 ] } },
{ "type": "Feature", "properties": { "OBJECTID": 297013, "Shape": null, "id": "AT_911031", "name": "WIEN-SIMMERING", "lat": 48.17539005, "lon": 16.40570587, "city": "WIEN", "public_private": "PUBLIC" }, "geometry": { "type": "Point", "coordinates": [ 16.405705870000077, 48.175390050000033 ] } },
{ "type": "Feature", "properties": { "OBJECTID": 297014, "Shape": null, "id": "AT_911042", "name": "WIEN-SIMMERING", "lat": 48.1682218, "lon": 16.4197536, "city": "WIEN", "public_private": "PUBLIC" }, "geometry": { "type": "Point", "coordinates": [ 16.419753600000035, 48.168221800000026 ] } },
{ "type": "Feature", "properties": { "OBJECTID": 297015, "Shape": null, "id": "AT_911071", "name": "WIEN-SIMMERING", "lat": 48.15834725, "lon": 16.4565784, "city": "WIEN", "public_private": "PUBLIC" }, "geometry": { "type": "Point", "coordinates": [ 16.456578400000069, 48.158347250000077 ] } },
{ "type": "Feature", "properties": { "OBJECTID": 297016, "Shape": null, "id": "AT_911092", "name": "WIEN-SIMMERING", "lat": 48.1547518, "lon": 16.4610243, "city": "WIEN", "public_private": "PUBLIC" }, "geometry": { "type": "Point", "coordinates": [ 16.461024300000076, 48.154751800000042 ] } },
{ "type": "Feature", "properties": { "OBJECTID": 297017, "Shape": null, "id": "AT_911112", "name": "WIEN-SIMMERING", "lat": 48.18240395, "lon": 16.41351523, "city": "WIEN", "public_private": "PUBLIC" }, "geometry": { "type": "Point", "coordinates": [ 16.41351523000003, 48.182403950000037 ] } },
{ "type": "Feature", "properties": { "OBJECTID": 297018, "Shape": null, "id": "AT_911171", "name": "WIEN-SIMMERING", "lat": 48.1547518, "lon": 16.4610243, "city": "WIEN", "public_private": "PUBLIC" }, "geometry": { "type": "Point", "coordinates": [ 16.461024300000076, 48.154751800000042 ] } },
{ "type": "Feature", "properties": { "OBJECTID": 297019, "Shape": null, "id": "AT_911428", "name": "WIEN-SIMMERING", "lat": 48.16839595, "lon": 16.42618755, "city": "WIEN", "public_private": "PUBLIC" }, "geometry": { "type": "Point", "coordinates": [ 16.426187550000066, 48.168395950000047 ] } },
{ "type": "Feature", "properties": { "OBJECTID": 297020, "Shape": null, "id": "AT_912015", "name": "WIEN-MEIDLING", "lat": 48.1825933, "lon": 16.3382149, "city": "WIEN", "public_private": "PUBLIC" }, "geometry": { "type": "Point", "coordinates": [ 16.338214900000025, 48.182593300000065 ] } },
{ "type": "Feature", "properties": { "OBJECTID": 297021, "Shape": null, "id": "AT_912041", "name": "WIEN-MEIDLING", "lat": 48.1708797, "lon": 16.326706, "city": "WIEN", "public_private": "PUBLIC" }, "geometry": { "type": "Point", "coordinates": [ 16.326706, 48.170879700000057 ] } },
{ "type": "Feature", "properties": { "OBJECTID": 297022, "Shape": null, "id": "AT_912052", "name": "WIEN-MEIDLING", "lat": 48.1779548, "lon": 16.3253066, "city": "WIEN", "public_private": "PUBLIC" }, "geometry": { "type": "Point", "coordinates": [ 16.325306600000033, 48.177954800000066 ] } },
{ "type": "Feature", "properties": { "OBJECTID": 297023, "Shape": null, "id": "AT_912065", "name": "WIEN-MEIDLING", "lat": 48.1825933, "lon": 16.3382149, "city": "WIEN", "public_private": "PUBLIC" }, "geometry": { "type": "Point", "coordinates": [ 16.338214900000025, 48.182593300000065 ] } },
{ "type": "Feature", "properties": { "OBJECTID": 297024, "Shape": null, "id": "AT_912091", "name": "WIEN-MEIDLING", "lat": 48.1775332, "lon": 16.3262428, "city": "WIEN", "public_private": "PUBLIC" }, "geometry": { "type": "Point", "coordinates": [ 16.326242800000045, 48.177533200000028 ] } },
{ "type": "Feature", "properties": { "OBJECTID": 297025, "Shape": null, "id": "AT_912141", "name": "WIEN-MEIDLING", "lat": 48.1671229, "lon": 16.3093195, "city": "WIEN", "public_private": "PRIVATE" }, "geometry": { "type": "Point", "coordinates": [ 16.309319500000072, 48.167122900000038 ] } },
{ "type": "Feature", "properties": { "OBJECTID": 297026, "Shape": null, "id": "AT_913015", "name": "WIEN-HIETZING", "lat": 48.1862079, "lon": 16.2989848, "city": "WIEN", "public_private": "PRIVATE" }, "geometry": { "type": "Point", "coordinates": [ 16.298984800000028, 48.186207900000056 ] } },
{ "type": "Feature", "properties": { "OBJECTID": 297027, "Shape": null, "id": "AT_913023", "name": "WIEN-HIETZING", "lat": 48.1955635, "lon": 16.2612757, "city": "WIEN", "public_private": "PUBLIC" }, "geometry": { "type": "Point", "coordinates": [ 16.261275700000056, 48.195563500000048 ] } },
{ "type": "Feature", "properties": { "OBJECTID": 297028, "Shape": null, "id": "AT_913036", "name": "WIEN-HIETZING", "lat": 48.1925846, "lon": 16.2628937, "city": "WIEN", "public_private": "PRIVATE" }, "geometry": { "type": "Point", "coordinates": [ 16.262893700000063, 48.192584600000032 ] } },
{ "type": "Feature", "properties": { "OBJECTID": 297029, "Shape": null, "id": "AT_913046", "name": "WIEN-HIETZING", "lat": 48.19001765, "lon": 16.28394235, "city": "WIEN", "public_private": "PRIVATE" }, "geometry": { "type": "Point", "coordinates": [ 16.283942350000075, 48.190017650000073 ] } },
{ "type": "Feature", "properties": { "OBJECTID": 297030, "Shape": null, "id": "AT_913071", "name": "WIEN-HIETZING", "lat": 48.1925846, "lon": 16.2628937, "city": "WIEN", "public_private": "PRIVATE" }, "geometry": { "type": "Point", "coordinates": [ 16.262893700000063, 48.192584600000032 ] } },
{ "type": "Feature", "properties": { "OBJECTID": 297031, "Shape": null, "id": "AT_913419", "name": "WIEN-HIETZING", "lat": 48.184405, "lon": 16.2987017, "city": "WIEN", "public_private": "PRIVATE" }, "geometry": { "type": "Point", "coordinates": [ 16.298701700000038, 48.184405 ] } },
{ "type": "Feature", "properties": { "OBJECTID": 297032, "Shape": null, "id": "AT_914014", "name": "WIEN-PENZING", "lat": 48.1982117, "lon": 16.2948296, "city": "WIEN", "public_private": "PRIVATE" }, "geometry": { "type": "Point", "coordinates": [ 16.294829600000071, 48.198211700000058 ] } },
{ "type": "Feature", "properties": { "OBJECTID": 297033, "Shape": null, "id": "AT_914032", "name": "WIEN-PENZING", "lat": 48.1976652, "lon": 16.313646, "city": "WIEN", "public_private": "PUBLIC" }, "geometry": { "type": "Point", "coordinates": [ 16.313646, 48.197665200000074 ] } },
{ "type": "Feature", "properties": { "OBJECTID": 297034, "Shape": null, "id": "AT_914042", "name": "WIEN-PENZING", "lat": 48.2055492, "lon": 16.29331933, "city": "WIEN", "public_private": "PUBLIC" }, "geometry": { "type": "Point", "coordinates": [ 16.293319330000031, 48.205549200000064 ] } },
{ "type": "Feature", "properties": { "OBJECTID": 297035, "Shape": null, "id": "AT_914061", "name": "WIEN-PENZING", "lat": 48.1976652, "lon": 16.313646, "city": "WIEN", "public_private": "PUBLIC" }, "geometry": { "type": "Point", "coordinates": [ 16.313646, 48.197665200000074 ] } },
{ "type": "Feature", "properties": { "OBJECTID": 297036, "Shape": null, "id": "AT_914091", "name": "WIEN-PENZING", "lat": 48.2071508, "lon": 16.24565686, "city": "WIEN", "public_private": "PUBLIC" }, "geometry": { "type": "Point", "coordinates": [ 16.245656860000054, 48.207150800000079 ] } },
{ "type": "Feature", "properties": { "OBJECTID": 297037, "Shape": null, "id": "AT_914121", "name": "WIEN-PENZING", "lat": 48.1966456, "lon": 16.3030295, "city": "WIEN", "public_private": "PUBLIC" }, "geometry": { "type": "Point", "coordinates": [ 16.303029500000036, 48.196645600000068 ] } },
{ "type": "Feature", "properties": { "OBJECTID": 297038, "Shape": null, "id": "AT_914920", "name": "WIEN-PENZING", "lat": 48.1983233, "lon": 16.3118474, "city": "WIEN", "public_private": "PRIVATE" }, "geometry": { "type": "Point", "coordinates": [ 16.311847400000033, 48.198323300000027 ] } },
{ "type": "Feature", "properties": { "OBJECTID": 297039, "Shape": null, "id": "AT_915013", "name": "WIEN-RUDOLFSHEIM-FÜNFHAUS", "lat": 48.19598935, "lon": 16.32286052, "city": "WIEN", "public_private": "PUBLIC" }, "geometry": { "type": "Point", "coordinates": [ 16.322860520000063, 48.195989350000048 ] } },
{ "type": "Feature", "properties": { "OBJECTID": 297040, "Shape": null, "id": "AT_915022", "name": "WIEN-RUDOLFSHEIM-FÜNFHAUS", "lat": 48.1963734, "lon": 16.3296444, "city": "WIEN", "public_private": "PUBLIC" }, "geometry": { "type": "Point", "coordinates": [ 16.329644400000063, 48.196373400000027 ] } },
{ "type": "Feature", "properties": { "OBJECTID": 297041, "Shape": null, "id": "AT_915032", "name": "WIEN-RUDOLFSHEIM-FÜNFHAUS", "lat": 48.18655865, "lon": 16.3267386, "city": "WIEN", "public_private": "PUBLIC" }, "geometry": { "type": "Point", "coordinates": [ 16.326738600000056, 48.186558650000052 ] } },
{ "type": "Feature", "properties": { "OBJECTID": 297042, "Shape": null, "id": "AT_915045", "name": "WIEN-RUDOLFSHEIM-FÜNFHAUS", "lat": 48.2011584, "lon": 16.3351835, "city": "WIEN", "public_private": "PUBLIC" }, "geometry": { "type": "Point", "coordinates": [ 16.335183500000028, 48.201158400000054 ] } },
{ "type": "Feature", "properties": { "OBJECTID": 297043, "Shape": null, "id": "AT_915061", "name": "WIEN-RUDOLFSHEIM-FÜNFHAUS", "lat": 48.1961215, "lon": 16.32324493, "city": "WIEN", "public_private": "PUBLIC" }, "geometry": { "type": "Point", "coordinates": [ 16.323244930000044, 48.196121500000061 ] } },
{ "type": "Feature", "properties": { "OBJECTID": 297044, "Shape": null, "id": "AT_915075", "name": "WIEN-RUDOLFSHEIM-FÜNFHAUS", "lat": 48.2011584, "lon": 16.3351835, "city": "WIEN", "public_private": "PUBLIC" }, "geometry": { "type": "Point", "coordinates": [ 16.335183500000028, 48.201158400000054 ] } },
{ "type": "Feature", "properties": { "OBJECTID": 297045, "Shape": null, "id": "AT_915091", "name": "WIEN-RUDOLFSHEIM-FÜNFHAUS", "lat": 48.19248425, "lon": 16.33702633, "city": "WIEN", "public_private": "PRIVATE" }, "geometry": { "type": "Point", "coordinates": [ 16.337026330000072, 48.192484250000064 ] } },
{ "type": "Feature", "properties": { "OBJECTID": 297046, "Shape": null, "id": "AT_915940", "name": "WIEN-RUDOLFSHEIM-FÜNFHAUS", "lat": 48.1851344, "lon": 16.333, "city": "WIEN", "public_private": "PRIVATE" }, "geometry": { "type": "Point", "coordinates": [ 16.333, 48.185134400000038 ] } },
{ "type": "Feature", "properties": { "OBJECTID": 297047, "Shape": null, "id": "AT_916021", "name": "WIEN-OTTAKRING", "lat": 48.2124964, "lon": 16.315824, "city": "WIEN", "public_private": "PUBLIC" }, "geometry": { "type": "Point", "coordinates": [ 16.315824, 48.212496400000077 ] } },
{ "type": "Feature", "properties": { "OBJECTID": 297048, "Shape": null, "id": "AT_916032", "name": "WIEN-OTTAKRING", "lat": 48.2096187, "lon": 16.3148292, "city": "WIEN", "public_private": "PUBLIC" }, "geometry": { "type": "Point", "coordinates": [ 16.314829200000077, 48.209618700000078 ] } },
{ "type": "Feature", "properties": { "OBJECTID": 297049, "Shape": null, "id": "AT_916052", "name": "WIEN-OTTAKRING", "lat": 48.2182212, "lon": 16.30662284, "city": "WIEN", "public_private": "PUBLIC" }, "geometry": { "type": "Point", "coordinates": [ 16.306622840000045, 48.218221200000073 ] } },
{ "type": "Feature", "properties": { "OBJECTID": 297050, "Shape": null, "id": "AT_916081", "name": "WIEN-OTTAKRING", "lat": 48.2127003, "lon": 16.3076806, "city": "WIEN", "public_private": "PUBLIC" }, "geometry": { "type": "Point", "coordinates": [ 16.307680600000026, 48.212700300000051 ] } },
{ "type": "Feature", "properties": { "OBJECTID": 297051, "Shape": null, "id": "AT_916930", "name": "WIEN-OTTAKRING", "lat": 48.2138469, "lon": 16.302122, "city": "WIEN", "public_private": "PRIVATE" }, "geometry": { "type": "Point", "coordinates": [ 16.302122, 48.213846900000078 ] } },
{ "type": "Feature", "properties": { "OBJECTID": 297052, "Shape": null, "id": "AT_917031", "name": "WIEN-HERNALS", "lat": 48.2319811, "lon": 16.2926813, "city": "WIEN", "public_private": "PUBLIC" }, "geometry": { "type": "Point", "coordinates": [ 16.292681300000027, 48.231981100000041 ] } },
{ "type": "Feature", "properties": { "OBJECTID": 297053, "Shape": null, "id": "AT_917043", "name": "WIEN-HERNALS", "lat": 48.2257437, "lon": 16.3100907, "city": "WIEN", "public_private": "PUBLIC" }, "geometry": { "type": "Point", "coordinates": [ 16.310090700000046, 48.225743700000066 ] } },
{ "type": "Feature", "properties": { "OBJECTID": 297054, "Shape": null, "id": "AT_917081", "name": "WIEN-HERNALS", "lat": 48.23475945, "lon": 16.2898863, "city": "WIEN", "public_private": "PRIVATE" }, "geometry": { "type": "Point", "coordinates": [ 16.289886300000035, 48.23475945000007 ] } },
{ "type": "Feature", "properties": { "OBJECTID": 297055, "Shape": null, "id": "AT_918013", "name": "WIEN-WÄHRING", "lat": 48.23027415, "lon": 16.34847136, "city": "WIEN", "public_private": "PUBLIC" }, "geometry": { "type": "Point", "coordinates": [ 16.348471360000076, 48.230274150000071 ] } },
{ "type": "Feature", "properties": { "OBJECTID": 297056, "Shape": null, "id": "AT_918022", "name": "WIEN-WÄHRING", "lat": 48.2262662, "lon": 16.3351035, "city": "WIEN", "public_private": "PUBLIC" }, "geometry": { "type": "Point", "coordinates": [ 16.335103500000059, 48.226266200000055 ] } },
{ "type": "Feature", "properties": { "OBJECTID": 297057, "Shape": null, "id": "AT_918032", "name": "WIEN-WÄHRING", "lat": 48.2244798, "lon": 16.3335147, "city": "WIEN", "public_private": "PRIVATE" }, "geometry": { "type": "Point", "coordinates": [ 16.333514700000023, 48.22447980000004 ] } },
{ "type": "Feature", "properties": { "OBJECTID": 297058, "Shape": null, "id": "AT_918041", "name": "WIEN-WÄHRING", "lat": 48.2296651, "lon": 16.33389371, "city": "WIEN", "public_private": "PUBLIC" }, "geometry": { "type": "Point", "coordinates": [ 16.333893710000041, 48.229665100000034 ] } },
{ "type": "Feature", "properties": { "OBJECTID": 297059, "Shape": null, "id": "AT_918052", "name": "WIEN-WÄHRING", "lat": 48.2243412, "lon": 16.3412415, "city": "WIEN", "public_private": "PRIVATE" }, "geometry": { "type": "Point", "coordinates": [ 16.341241500000024, 48.224341200000026 ] } },
{ "type": "Feature", "properties": { "OBJECTID": 297060, "Shape": null, "id": "AT_918062", "name": "WIEN-WÄHRING", "lat": 48.2286512, "lon": 16.3488423, "city": "WIEN", "public_private": "PRIVATE" }, "geometry": { "type": "Point", "coordinates": [ 16.348842300000058, 48.228651200000058 ] } },
{ "type": "Feature", "properties": { "OBJECTID": 297061, "Shape": null, "id": "AT_918121", "name": "WIEN-WÄHRING", "lat": 48.2286512, "lon": 16.3488423, "city": "WIEN", "public_private": "PRIVATE" }, "geometry": { "type": "Point", "coordinates": [ 16.348842300000058, 48.228651200000058 ] } },
{ "type": "Feature", "properties": { "OBJECTID": 297062, "Shape": null, "id": "AT_918161", "name": "WIEN-WÄHRING", "lat": 48.2270905, "lon": 16.3331878, "city": "WIEN", "public_private": "PRIVATE" }, "geometry": { "type": "Point", "coordinates": [ 16.333187800000076, 48.227090500000031 ] } },
{ "type": "Feature", "properties": { "OBJECTID": 297063, "Shape": null, "id": "AT_919014", "name": "WIEN-DÖBLING", "lat": 48.2512921, "lon": 16.33850647, "city": "WIEN", "public_private": "PRIVATE" }, "geometry": { "type": "Point", "coordinates": [ 16.338506470000027, 48.251292100000057 ] } },
{ "type": "Feature", "properties": { "OBJECTID": 297064, "Shape": null, "id": "AT_919033", "name": "WIEN-DÖBLING", "lat": 48.2527427, "lon": 16.3320304, "city": "WIEN", "public_private": "PRIVATE" }, "geometry": { "type": "Point", "coordinates": [ 16.332030400000065, 48.252742700000056 ] } },
{ "type": "Feature", "properties": { "OBJECTID": 297065, "Shape": null, "id": "AT_919041", "name": "WIEN-DÖBLING", "lat": 48.24027255, "lon": 16.35227828, "city": "WIEN", "public_private": "PUBLIC" }, "geometry": { "type": "Point", "coordinates": [ 16.352278280000064, 48.240272550000043 ] } },
{ "type": "Feature", "properties": { "OBJECTID": 297066, "Shape": null, "id": "AT_919051", "name": "WIEN-DÖBLING", "lat": 48.24270725, "lon": 16.32591262, "city": "WIEN", "public_private": "PUBLIC" }, "geometry": { "type": "Point", "coordinates": [ 16.325912620000054, 48.24270725000008 ] } },
{ "type": "Feature", "properties": { "OBJECTID": 297067, "Shape": null, "id": "AT_919066", "name": "WIEN-DÖBLING", "lat": 48.2512921, "lon": 16.33850647, "city": "WIEN", "public_private": "PRIVATE" }, "geometry": { "type": "Point", "coordinates": [ 16.338506470000027, 48.251292100000057 ] } },
{ "type": "Feature", "properties": { "OBJECTID": 297068, "Shape": null, "id": "AT_919101", "name": "WIEN-DÖBLING", "lat": 48.2512921, "lon": 16.33850647, "city": "WIEN", "public_private": "PRIVATE" }, "geometry": { "type": "Point", "coordinates": [ 16.338506470000027, 48.251292100000057 ] } },
{ "type": "Feature", "properties": { "OBJECTID": 297069, "Shape": null, "id": "AT_919419", "name": "WIEN-DÖBLING", "lat": 48.2560933, "lon": 16.3379282, "city": "WIEN", "public_private": "PUBLIC" }, "geometry": { "type": "Point", "coordinates": [ 16.337928200000022, 48.256093300000032 ] } },
{ "type": "Feature", "properties": { "OBJECTID": 297070, "Shape": null, "id": "AT_920013", "name": "WIEN-BRIGITTENAU", "lat": 48.2271319, "lon": 16.36815258, "city": "WIEN", "public_private": "PUBLIC" }, "geometry": { "type": "Point", "coordinates": [ 16.368152580000071, 48.227131900000074 ] } },
{ "type": "Feature", "properties": { "OBJECTID": 297071, "Shape": null, "id": "AT_920024", "name": "WIEN-BRIGITTENAU", "lat": 48.2375918, "lon": 16.3661904, "city": "WIEN", "public_private": "PRIVATE" }, "geometry": { "type": "Point", "coordinates": [ 16.36619040000005, 48.237591800000075 ] } },
{ "type": "Feature", "properties": { "OBJECTID": 297072, "Shape": null, "id": "AT_920052", "name": "WIEN-BRIGITTENAU", "lat": 48.2282069, "lon": 16.36957494, "city": "WIEN", "public_private": "PUBLIC" }, "geometry": { "type": "Point", "coordinates": [ 16.369574940000064, 48.228206900000032 ] } },
{ "type": "Feature", "properties": { "OBJECTID": 297073, "Shape": null, "id": "AT_920071", "name": "WIEN-BRIGITTENAU", "lat": 48.2431271, "lon": 16.3776153, "city": "WIEN", "public_private": "PUBLIC" }, "geometry": { "type": "Point", "coordinates": [ 16.377615300000059, 48.243127100000038 ] } },
{ "type": "Feature", "properties": { "OBJECTID": 297074, "Shape": null, "id": "AT_920111", "name": "WIEN-BRIGITTENAU", "lat": 48.2406386, "lon": 16.3679446, "city": "WIEN", "public_private": "PUBLIC" }, "geometry": { "type": "Point", "coordinates": [ 16.367944600000044, 48.240638600000068 ] } },
{ "type": "Feature", "properties": { "OBJECTID": 297075, "Shape": null, "id": "AT_920161", "name": "WIEN-BRIGITTENAU", "lat": 48.2349701, "lon": 16.39031658, "city": "WIEN", "public_private": "PUBLIC" }, "geometry": { "type": "Point", "coordinates": [ 16.390316580000047, 48.234970100000055 ] } },
{ "type": "Feature", "properties": { "OBJECTID": 297076, "Shape": null, "id": "AT_921015", "name": "WIEN-FLORIDSDORF", "lat": 48.2837663, "lon": 16.3745433, "city": "WIEN", "public_private": "PUBLIC" }, "geometry": { "type": "Point", "coordinates": [ 16.374543300000028, 48.283766300000082 ] } },
{ "type": "Feature", "properties": { "OBJECTID": 297077, "Shape": null, "id": "AT_921036", "name": "WIEN-FLORIDSDORF", "lat": 48.2965154, "lon": 16.38905144, "city": "WIEN", "public_private": "PRIVATE" }, "geometry": { "type": "Point", "coordinates": [ 16.38905144000006, 48.296515400000033 ] } },
{ "type": "Feature", "properties": { "OBJECTID": 297078, "Shape": null, "id": "AT_921045", "name": "WIEN-FLORIDSDORF", "lat": 48.2837663, "lon": 16.3745433, "city": "WIEN", "public_private": "PUBLIC" }, "geometry": { "type": "Point", "coordinates": [ 16.374543300000028, 48.283766300000082 ] } },
{ "type": "Feature", "properties": { "OBJECTID": 297079, "Shape": null, "id": "AT_921053", "name": "WIEN-FLORIDSDORF", "lat": 48.2734702, "lon": 16.4509113, "city": "WIEN", "public_private": "PUBLIC" }, "geometry": { "type": "Point", "coordinates": [ 16.45091130000003, 48.273470200000077 ] } },
{ "type": "Feature", "properties": { "OBJECTID": 297080, "Shape": null, "id": "AT_921072", "name": "WIEN-FLORIDSDORF", "lat": 48.2719585, "lon": 16.4444854, "city": "WIEN", "public_private": "PUBLIC" }, "geometry": { "type": "Point", "coordinates": [ 16.444485400000076, 48.271958500000039 ] } },
{ "type": "Feature", "properties": { "OBJECTID": 297081, "Shape": null, "id": "AT_921076", "name": "WIEN-FLORIDSDORF", "lat": 48.2858764, "lon": 16.4246504, "city": "WIEN", "public_private": "PUBLIC" }, "geometry": { "type": "Point", "coordinates": [ 16.424650400000075, 48.285876400000063 ] } },
{ "type": "Feature", "properties": { "OBJECTID": 297082, "Shape": null, "id": "AT_921092", "name": "WIEN-FLORIDSDORF", "lat": 48.2902309, "lon": 16.3834078, "city": "WIEN", "public_private": "PUBLIC" }, "geometry": { "type": "Point", "coordinates": [ 16.383407800000043, 48.29023090000004 ] } },
{ "type": "Feature", "properties": { "OBJECTID": 297083, "Shape": null, "id": "AT_921112", "name": "WIEN-FLORIDSDORF", "lat": 48.2938919, "lon": 16.3812429, "city": "WIEN", "public_private": "PRIVATE" }, "geometry": { "type": "Point", "coordinates": [ 16.381242900000075, 48.293891900000062 ] } },
{ "type": "Feature", "properties": { "OBJECTID": 297084, "Shape": null, "id": "AT_921126", "name": "WIEN-FLORIDSDORF", "lat": 48.2758727, "lon": 16.3890568, "city": "WIEN", "public_private": "PRIVATE" }, "geometry": { "type": "Point", "coordinates": [ 16.389056800000048, 48.275872700000036 ] } },
{ "type": "Feature", "properties": { "OBJECTID": 297085, "Shape": null, "id": "AT_921161", "name": "WIEN-FLORIDSDORF", "lat": 48.2521717, "lon": 16.4014145, "city": "WIEN", "public_private": "PUBLIC" }, "geometry": { "type": "Point", "coordinates": [ 16.401414500000044, 48.252171700000076 ] } },
{ "type": "Feature", "properties": { "OBJECTID": 297086, "Shape": null, "id": "AT_921191", "name": "WIEN-FLORIDSDORF", "lat": 48.2521717, "lon": 16.4014145, "city": "WIEN", "public_private": "PUBLIC" }, "geometry": { "type": "Point", "coordinates": [ 16.401414500000044, 48.252171700000076 ] } },
{ "type": "Feature", "properties": { "OBJECTID": 297087, "Shape": null, "id": "AT_921281", "name": "WIEN-FLORIDSDORF", "lat": 48.2779936, "lon": 16.4197687, "city": "WIEN", "public_private": "PUBLIC" }, "geometry": { "type": "Point", "coordinates": [ 16.419768700000077, 48.277993600000059 ] } },
{ "type": "Feature", "properties": { "OBJECTID": 297088, "Shape": null, "id": "AT_921401", "name": "WIEN-FLORIDSDORF", "lat": 48.26392475, "lon": 16.39320649, "city": "WIEN", "public_private": "PRIVATE" }, "geometry": { "type": "Point", "coordinates": [ 16.393206490000068, 48.263924750000058 ] } },
{ "type": "Feature", "properties": { "OBJECTID": 297089, "Shape": null, "id": "AT_921411", "name": "WIEN-FLORIDSDORF", "lat": 48.2758727, "lon": 16.3890568, "city": "WIEN", "public_private": "PRIVATE" }, "geometry": { "type": "Point", "coordinates": [ 16.389056800000048, 48.275872700000036 ] } },
{ "type": "Feature", "properties": { "OBJECTID": 297090, "Shape": null, "id": "AT_921830", "name": "WIEN-FLORIDSDORF", "lat": 48.2565733, "lon": 16.4050971, "city": "WIEN", "public_private": "PRIVATE" }, "geometry": { "type": "Point", "coordinates": [ 16.405097100000035, 48.256573300000071 ] } },
{ "type": "Feature", "properties": { "OBJECTID": 297091, "Shape": null, "id": "AT_922013", "name": "WIEN-DONAUSTADT", "lat": 48.2337075, "lon": 16.4397431, "city": "WIEN", "public_private": "PUBLIC" }, "geometry": { "type": "Point", "coordinates": [ 16.439743100000044, 48.233707500000037 ] } },
{ "type": "Feature", "properties": { "OBJECTID": 297092, "Shape": null, "id": "AT_922016", "name": "WIEN-DONAUSTADT", "lat": 48.2415838, "lon": 16.43970939, "city": "WIEN", "public_private": "PUBLIC" }, "geometry": { "type": "Point", "coordinates": [ 16.439709390000075, 48.241583800000058 ] } },
{ "type": "Feature", "properties": { "OBJECTID": 297093, "Shape": null, "id": "AT_922026", "name": "WIEN-DONAUSTADT", "lat": 48.2322513, "lon": 16.4514603, "city": "WIEN", "public_private": "PUBLIC" }, "geometry": { "type": "Point", "coordinates": [ 16.451460300000065, 48.23225130000003 ] } },
{ "type": "Feature", "properties": { "OBJECTID": 297094, "Shape": null, "id": "AT_922036", "name": "WIEN-DONAUSTADT", "lat": 48.2446521, "lon": 16.4326898, "city": "WIEN", "public_private": "PRIVATE" }, "geometry": { "type": "Point", "coordinates": [ 16.432689800000048, 48.244652100000053 ] } },
{ "type": "Feature", "properties": { "OBJECTID": 297095, "Shape": null, "id": "AT_922053", "name": "WIEN-DONAUSTADT", "lat": 48.23492725, "lon": 16.46082421, "city": "WIEN", "public_private": "PUBLIC" }, "geometry": { "type": "Point", "coordinates": [ 16.460824210000055, 48.234927250000055 ] } },
{ "type": "Feature", "properties": { "OBJECTID": 297096, "Shape": null, "id": "AT_922056", "name": "WIEN-DONAUSTADT", "lat": 48.2149567, "lon": 16.4835934, "city": "WIEN", "public_private": "PUBLIC" }, "geometry": { "type": "Point", "coordinates": [ 16.483593400000075, 48.214956700000073 ] } },
{ "type": "Feature", "properties": { "OBJECTID": 297097, "Shape": null, "id": "AT_922076", "name": "WIEN-DONAUSTADT", "lat": 48.2611749, "lon": 16.4527264, "city": "WIEN", "public_private": "PRIVATE" }, "geometry": { "type": "Point", "coordinates": [ 16.452726400000074, 48.261174900000071 ] } },
{ "type": "Feature", "properties": { "OBJECTID": 297098, "Shape": null, "id": "AT_922102", "name": "WIEN-DONAUSTADT", "lat": 48.2458928, "lon": 16.4506725, "city": "WIEN", "public_private": "PUBLIC" }, "geometry": { "type": "Point", "coordinates": [ 16.450672500000053, 48.245892800000036 ] } },
{ "type": "Feature", "properties": { "OBJECTID": 297099, "Shape": null, "id": "AT_922141", "name": "WIEN-DONAUSTADT", "lat": 48.2279424, "lon": 16.42000639, "city": "WIEN", "public_private": "PUBLIC" }, "geometry": { "type": "Point", "coordinates": [ 16.420006390000026, 48.227942400000074 ] } },
{ "type": "Feature", "properties": { "OBJECTID": 297100, "Shape": null, "id": "AT_922172", "name": "WIEN-DONAUSTADT", "lat": 48.25613735, "lon": 16.44190068, "city": "WIEN", "public_private": "PRIVATE" }, "geometry": { "type": "Point", "coordinates": [ 16.44190068000006, 48.256137350000074 ] } },
{ "type": "Feature", "properties": { "OBJECTID": 297101, "Shape": null, "id": "AT_922251", "name": "WIEN-DONAUSTADT", "lat": 48.2446521, "lon": 16.4326898, "city": "WIEN", "public_private": "PRIVATE" }, "geometry": { "type": "Point", "coordinates": [ 16.432689800000048, 48.244652100000053 ] } },
{ "type": "Feature", "properties": { "OBJECTID": 297102, "Shape": null, "id": "AT_922301", "name": "WIEN-DONAUSTADT", "lat": 48.216529, "lon": 16.4717232, "city": "WIEN", "public_private": "PUBLIC" }, "geometry": { "type": "Point", "coordinates": [ 16.471723200000042, 48.216529 ] } },
{ "type": "Feature", "properties": { "OBJECTID": 297103, "Shape": null, "id": "AT_922331", "name": "WIEN-DONAUSTADT", "lat": 48.2339444, "lon": 16.40863465, "city": "WIEN", "public_private": "PUBLIC" }, "geometry": { "type": "Point", "coordinates": [ 16.408634650000067, 48.233944400000041 ] } },
{ "type": "Feature", "properties": { "OBJECTID": 297104, "Shape": null, "id": "AT_922341", "name": "WIEN-DONAUSTADT", "lat": 48.25613735, "lon": 16.44190068, "city": "WIEN", "public_private": "PRIVATE" }, "geometry": { "type": "Point", "coordinates": [ 16.44190068000006, 48.256137350000074 ] } },
{ "type": "Feature", "properties": { "OBJECTID": 297105, "Shape": null, "id": "AT_922401", "name": "WIEN-DONAUSTADT", "lat": 48.2414321, "lon": 16.4895718, "city": "WIEN", "public_private": "PUBLIC" }, "geometry": { "type": "Point", "coordinates": [ 16.489571800000022, 48.241432100000054 ] } },
{ "type": "Feature", "properties": { "OBJECTID": 297106, "Shape": null, "id": "AT_922419", "name": "WIEN-DONAUSTADT", "lat": 48.24175405, "lon": 16.44132286, "city": "WIEN", "public_private": "PUBLIC" }, "geometry": { "type": "Point", "coordinates": [ 16.441322860000071, 48.241754050000054 ] } },
{ "type": "Feature", "properties": { "OBJECTID": 297107, "Shape": null, "id": "AT_923013", "name": "WIEN-LIESING", "lat": 48.14517255, "lon": 16.29113426, "city": "WIEN", "public_private": "PUBLIC" }, "geometry": { "type": "Point", "coordinates": [ 16.291134260000035, 48.145172550000041 ] } },
{ "type": "Feature", "properties": { "OBJECTID": 297108, "Shape": null, "id": "AT_923026", "name": "WIEN-LIESING", "lat": 48.1347379, "lon": 16.2457816, "city": "WIEN", "public_private": "PRIVATE" }, "geometry": { "type": "Point", "coordinates": [ 16.245781600000043, 48.134737900000061 ] } },
{ "type": "Feature", "properties": { "OBJECTID": 297109, "Shape": null, "id": "AT_923042", "name": "WIEN-LIESING", "lat": 48.13656905, "lon": 16.28249874, "city": "WIEN", "public_private": "PUBLIC" }, "geometry": { "type": "Point", "coordinates": [ 16.282498740000051, 48.136569050000048 ] } },
{ "type": "Feature", "properties": { "OBJECTID": 297110, "Shape": null, "id": "AT_923062", "name": "WIEN-LIESING", "lat": 48.1316978, "lon": 16.2556995, "city": "WIEN", "public_private": "PRIVATE" }, "geometry": { "type": "Point", "coordinates": [ 16.255699500000048, 48.13169780000004 ] } },
{ "type": "Feature", "properties": { "OBJECTID": 297111, "Shape": null, "id": "AT_923066", "name": "WIEN-LIESING", "lat": 48.14985695, "lon": 16.31481538, "city": "WIEN", "public_private": "PUBLIC" }, "geometry": { "type": "Point", "coordinates": [ 16.314815380000027, 48.149856950000071 ] } },
{ "type": "Feature", "properties": { "OBJECTID": 297112, "Shape": null, "id": "AT_923092", "name": "WIEN-LIESING", "lat": 48.13988755, "lon": 16.31457959, "city": "WIEN", "public_private": "PUBLIC" }, "geometry": { "type": "Point", "coordinates": [ 16.314579590000051, 48.139887550000026 ] } },
{ "type": "Feature", "properties": { "OBJECTID": 297113, "Shape": null, "id": "AT_923141", "name": "WIEN-LIESING", "lat": 48.1505359, "lon": 16.2697975, "city": "WIEN", "public_private": "PRIVATE" }, "geometry": { "type": "Point", "coordinates": [ 16.269797500000038, 48.150535900000079 ] } },
{ "type": "Feature", "properties": { "OBJECTID": 297114, "Shape": null, "id": "AT_923181", "name": "WIEN-LIESING", "lat": 48.1510539, "lon": 16.3147296, "city": "WIEN", "public_private": "PUBLIC" }, "geometry": { "type": "Point", "coordinates": [ 16.314729600000078, 48.151053900000079 ] } },
{ "type": "Feature", "properties": { "OBJECTID": 297115, "Shape": null, "id": "AT_923211", "name": "WIEN-LIESING", "lat": 48.13656905, "lon": 16.28249874, "city": "WIEN", "public_private": "PRIVATE" }, "geometry": { "type": "Point", "coordinates": [ 16.282498740000051, 48.136569050000048 ] } },
{ "type": "Feature", "properties": { "OBJECTID": 297116, "Shape": null, "id": "AT_923419", "name": "WIEN-LIESING", "lat": 48.1316978, "lon": 16.2556995, "city": "WIEN", "public_private": "PRIVATE" }, "geometry": { "type": "Point", "coordinates": [ 16.255699500000048, 48.13169780000004 ] } },
{ "type": "Feature", "properties": { "OBJECTID": 297117, "Shape": null, "id": "AT_504032", "name": "BAD HOFGASTEIN", "lat": 47.17058245, "lon": 13.09930994, "city": "BAD HOFGASTEIN", "public_private": "PUBLIC" }, "geometry": { "type": "Point", "coordinates": [ 13.099309940000069, 47.17058245000004 ] } },
{ "type": "Feature", "properties": { "OBJECTID": 297118, "Shape": null, "id": "AT_504459", "name": "BAD HOFGASTEIN", "lat": 47.1716674, "lon": 13.10057885, "city": "BAD HOFGASTEIN", "public_private": "PRIVATE" }, "geometry": { "type": "Point", "coordinates": [ 13.100578850000034, 47.171667400000047 ] } },