{
"type": "FeatureCollection",
"name": "EU_education27",
"crs": { "type": "name", "properties": { "name": "urn:ogc:def:crs:OGC:1.3:CRS84" } },
"features": [
{ "type": "Feature", "properties": { "OBJECTID": 321517, "Shape": null, "id": "FR_0760624R", "name": "ECOLE PRIMAIRE DU CHEMIN DES FÉES", "lat": 49.6226895, "lon": 1.1371292, "city": "FRICHEMESNIL", "public_private": "PUBLIC" }, "geometry": { "type": "Point", "coordinates": [ 1.137129200000061, 49.622689500000035 ] } },
{ "type": "Feature", "properties": { "OBJECTID": 321518, "Shape": null, "id": "FR_0760628V", "name": "ECOLE MATERNELLE HECTOR BERLIOZ", "lat": 49.5415434, "lon": 1.0681469, "city": "MONTVILLE", "public_private": "PUBLIC" }, "geometry": { "type": "Point", "coordinates": [ 1.068146900000045, 49.54154340000008 ] } },
{ "type": "Feature", "properties": { "OBJECTID": 321519, "Shape": null, "id": "FR_0760660E", "name": "ECOLE ÉLÉMENTAIRE", "lat": 49.6826461, "lon": 0.20559, "city": "LE TILLEUL", "public_private": "PUBLIC" }, "geometry": { "type": "Point", "coordinates": [ 0.20559, 49.682646100000056 ] } },
{ "type": "Feature", "properties": { "OBJECTID": 321520, "Shape": null, "id": "FR_0760695T", "name": "ECOLE PRIMAIRE", "lat": 49.841916, "lon": 1.4764527, "city": "SMERMESNIL", "public_private": "PUBLIC" }, "geometry": { "type": "Point", "coordinates": [ 1.476452700000038, 49.841916 ] } },
{ "type": "Feature", "properties": { "OBJECTID": 321521, "Shape": null, "id": "FR_0760707F", "name": "ECOLE ÉLÉMENTAIRE", "lat": 49.830139, "lon": 1.08651114, "city": "ANNEVILLE SUR SCIE", "public_private": "PUBLIC" }, "geometry": { "type": "Point", "coordinates": [ 1.086511140000027, 49.830139 ] } },
{ "type": "Feature", "properties": { "OBJECTID": 321522, "Shape": null, "id": "FR_0760723Y", "name": "ECOLE PRIMAIRE", "lat": 49.8048994, "lon": 1.1438854, "city": "STE FOY", "public_private": "PUBLIC" }, "geometry": { "type": "Point", "coordinates": [ 1.143885400000045, 49.804899400000068 ] } },
{ "type": "Feature", "properties": { "OBJECTID": 321523, "Shape": null, "id": "FR_0760726B", "name": "ECOLE PRIMAIRE", "lat": 49.8127706, "lon": 1.1729918, "city": "TORCY LE PETIT", "public_private": "PUBLIC" }, "geometry": { "type": "Point", "coordinates": [ 1.172991800000034, 49.812770600000079 ] } },
{ "type": "Feature", "properties": { "OBJECTID": 321524, "Shape": null, "id": "FR_0760728D", "name": "ECOLE ÉLÉMENTAIRE DU CLAIRVAL", "lat": 49.5231133, "lon": 0.5402305, "city": "LILLEBONNE", "public_private": "PUBLIC" }, "geometry": { "type": "Point", "coordinates": [ 0.540230500000064, 49.523113300000034 ] } },
{ "type": "Feature", "properties": { "OBJECTID": 321525, "Shape": null, "id": "FR_0760736M", "name": "ECOLE ÉLÉMENTAIRE ANTOINE DE SAINT-EXUPÉRY", "lat": 49.5532097, "lon": 0.5979002, "city": "GRAND CAMP", "public_private": "PUBLIC" }, "geometry": { "type": "Point", "coordinates": [ 0.597900200000026, 49.553209700000082 ] } },
{ "type": "Feature", "properties": { "OBJECTID": 321526, "Shape": null, "id": "FR_0760744W", "name": "ECOLE MATERNELLE PETITE CAMPAGNE", "lat": 49.4949465, "lon": 0.5661775, "city": "PORT JEROME SUR SEINE", "public_private": "PUBLIC" }, "geometry": { "type": "Point", "coordinates": [ 0.566177500000038, 49.494946500000026 ] } },
{ "type": "Feature", "properties": { "OBJECTID": 321527, "Shape": null, "id": "FR_0760751D", "name": "ECOLE PRIMAIRE ANTOINE DE SAINT-EXUPÉRY", "lat": 49.4622019, "lon": 0.5866515, "city": "PETIVILLE", "public_private": "PUBLIC" }, "geometry": { "type": "Point", "coordinates": [ 0.586651500000073, 49.462201900000082 ] } },
{ "type": "Feature", "properties": { "OBJECTID": 321528, "Shape": null, "id": "FR_0760753F", "name": "ECOLE MATERNELLE ELSA TRIOLET", "lat": 49.5266805, "lon": 0.546587819, "city": "LILLEBONNE", "public_private": "PUBLIC" }, "geometry": { "type": "Point", "coordinates": [ 0.546587819000024, 49.526680500000055 ] } },
{ "type": "Feature", "properties": { "OBJECTID": 321529, "Shape": null, "id": "FR_0760756J", "name": "ECOLE MATERNELLE CHARLES PERRAULT", "lat": 49.7350784, "lon": 1.4405487, "city": "NEUFCHATEL EN BRAY", "public_private": "PUBLIC" }, "geometry": { "type": "Point", "coordinates": [ 1.440548700000022, 49.735078400000077 ] } },
{ "type": "Feature", "properties": { "OBJECTID": 321530, "Shape": null, "id": "FR_0760763S", "name": "ECOLE MATERNELLE", "lat": 49.7898887, "lon": 1.478389955, "city": "FESQUES", "public_private": "PUBLIC" }, "geometry": { "type": "Point", "coordinates": [ 1.478389955000068, 49.789888700000063 ] } },
{ "type": "Feature", "properties": { "OBJECTID": 321531, "Shape": null, "id": "FR_0760769Y", "name": "ECOLE ÉLÉMENTAIRE", "lat": 49.7721054, "lon": 1.49263, "city": "MENONVAL", "public_private": "PUBLIC" }, "geometry": { "type": "Point", "coordinates": [ 1.49263, 49.772105400000044 ] } },
{ "type": "Feature", "properties": { "OBJECTID": 321532, "Shape": null, "id": "FR_0760771A", "name": "ECOLE PRIMAIRE", "lat": 49.7648877, "lon": 1.3809581, "city": "MESNIERES EN BRAY", "public_private": "PUBLIC" }, "geometry": { "type": "Point", "coordinates": [ 1.380958100000043, 49.764887700000031 ] } },
{ "type": "Feature", "properties": { "OBJECTID": 321533, "Shape": null, "id": "FR_0772307P", "name": "ECOLE PRIMAIRE", "lat": 48.8518736, "lon": 3.4266878, "city": "MONTDAUPHIN", "public_private": "PUBLIC" }, "geometry": { "type": "Point", "coordinates": [ 3.426687800000025, 48.851873600000033 ] } },
{ "type": "Feature", "properties": { "OBJECTID": 321534, "Shape": null, "id": "FR_0760789V", "name": "ECOLE ÉLÉMENTAIRE PAUL BERT II", "lat": 49.5089445, "lon": 0.1666386, "city": "LE HAVRE", "public_private": "PUBLIC" }, "geometry": { "type": "Point", "coordinates": [ 0.166638600000056, 49.508944500000041 ] } },
{ "type": "Feature", "properties": { "OBJECTID": 321535, "Shape": null, "id": "FR_0760809S", "name": "ECOLE ÉLÉMENTAIRE MAXIMILIEN ROBESPIERRE", "lat": 49.5147654, "lon": 0.1707932, "city": "LE HAVRE", "public_private": "PUBLIC" }, "geometry": { "type": "Point", "coordinates": [ 0.170793200000048, 49.514765400000044 ] } },
{ "type": "Feature", "properties": { "OBJECTID": 321536, "Shape": null, "id": "FR_0760815Y", "name": "ECOLE PRIMAIRE LES ACACIAS", "lat": 49.5097606, "lon": 0.135767, "city": "LE HAVRE", "public_private": "PUBLIC" }, "geometry": { "type": "Point", "coordinates": [ 0.135767, 49.50976060000005 ] } },
{ "type": "Feature", "properties": { "OBJECTID": 321537, "Shape": null, "id": "FR_0760848J", "name": "ECOLE MATERNELLE", "lat": 49.8818902, "lon": 1.1266133, "city": "ARQUES LA BATAILLE", "public_private": "PUBLIC" }, "geometry": { "type": "Point", "coordinates": [ 1.126613300000031, 49.881890200000043 ] } },
{ "type": "Feature", "properties": { "OBJECTID": 321538, "Shape": null, "id": "FR_0760864B", "name": "ECOLE ÉLÉMENTAIRE", "lat": 49.8967069, "lon": 0.9176092, "city": "QUIBERVILLE", "public_private": "PUBLIC" }, "geometry": { "type": "Point", "coordinates": [ 0.917609200000072, 49.896706900000027 ] } },
{ "type": "Feature", "properties": { "OBJECTID": 321539, "Shape": null, "id": "FR_0760881V", "name": "GROUPE SCOLAIRE THOMAS PESQUET", "lat": 49.5579134, "lon": 0.1848074, "city": "FONTENAY", "public_private": "PUBLIC" }, "geometry": { "type": "Point", "coordinates": [ 0.184807400000068, 49.557913400000075 ] } },
{ "type": "Feature", "properties": { "OBJECTID": 321540, "Shape": null, "id": "FR_0760927V", "name": "ECOLE ÉLÉMENTAIRE PIERRE ET MARIE CURIE", "lat": 49.5655547, "lon": 0.9461514, "city": "PAVILLY", "public_private": "PUBLIC" }, "geometry": { "type": "Point", "coordinates": [ 0.946151400000076, 49.565554700000064 ] } },
{ "type": "Feature", "properties": { "OBJECTID": 321541, "Shape": null, "id": "FR_0760939H", "name": "ECOLE MATERNELLE FERDINAND BUISSON", "lat": 49.4020229, "lon": 1.085492, "city": "SOTTEVILLE LES ROUEN", "public_private": "PUBLIC" }, "geometry": { "type": "Point", "coordinates": [ 1.085492, 49.402022900000077 ] } },
{ "type": "Feature", "properties": { "OBJECTID": 321542, "Shape": null, "id": "FR_0760987K", "name": "ECOLE ÉLÉMENTAIRE JEAN QUESNAY", "lat": 49.7178234, "lon": 1.1026441, "city": "VAL DE SCIE", "public_private": "PUBLIC" }, "geometry": { "type": "Point", "coordinates": [ 1.10264410000002, 49.717823400000043 ] } },
{ "type": "Feature", "properties": { "OBJECTID": 321543, "Shape": null, "id": "FR_0761035M", "name": "ECOLE MATERNELLE", "lat": 49.6958788, "lon": 0.5316708, "city": "YPREVILLE BIVILLE", "public_private": "PUBLIC" }, "geometry": { "type": "Point", "coordinates": [ 0.531670800000029, 49.69587880000006 ] } },
{ "type": "Feature", "properties": { "OBJECTID": 321544, "Shape": null, "id": "FR_0761044X", "name": "ECOLE ÉLÉMENTAIRE", "lat": 49.6406221, "lon": 0.8055046, "city": "ECTOT LES BAONS", "public_private": "PUBLIC" }, "geometry": { "type": "Point", "coordinates": [ 0.805504600000063, 49.64062210000003 ] } },
{ "type": "Feature", "properties": { "OBJECTID": 321545, "Shape": null, "id": "FR_0761063T", "name": "ECOLE PRIMAIRE JEAN DE LA FONTAINE", "lat": 49.6412488, "lon": 0.7744758, "city": "BAONS LE COMTE", "public_private": "PUBLIC" }, "geometry": { "type": "Point", "coordinates": [ 0.774475800000062, 49.641248800000028 ] } },
{ "type": "Feature", "properties": { "OBJECTID": 321546, "Shape": null, "id": "FR_0761071B", "name": "ECOLE MATERNELLE LÉOPOLDINE HUGO", "lat": 49.612812, "lon": 0.7545818, "city": "YVETOT", "public_private": "PUBLIC" }, "geometry": { "type": "Point", "coordinates": [ 0.754581800000039, 49.612812 ] } },
{ "type": "Feature", "properties": { "OBJECTID": 321547, "Shape": null, "id": "FR_0761074E", "name": "ECOLE MATERNELLE THÉRÈSE DELBOS", "lat": 49.4771221, "lon": 1.0428329, "city": "MAROMME", "public_private": "PUBLIC" }, "geometry": { "type": "Point", "coordinates": [ 1.042832900000064, 49.477122100000031 ] } },
{ "type": "Feature", "properties": { "OBJECTID": 321548, "Shape": null, "id": "FR_0761105N", "name": "ECOLE MATERNELLE ANTOINE DE SAINT-EXUPÉRY", "lat": 49.45977695, "lon": 1.071774876, "city": "MONT ST AIGNAN", "public_private": "PUBLIC" }, "geometry": { "type": "Point", "coordinates": [ 1.071774876000063, 49.459776950000048 ] } },
{ "type": "Feature", "properties": { "OBJECTID": 321549, "Shape": null, "id": "FR_0761109T", "name": "ECOLE MATERNELLE LOUIS DUTEURTRE", "lat": 49.4862839, "lon": 1.0477511, "city": "NOTRE DAME DE BONDEVILLE", "public_private": "PUBLIC" }, "geometry": { "type": "Point", "coordinates": [ 1.047751100000028, 49.486283900000046 ] } },
{ "type": "Feature", "properties": { "OBJECTID": 321550, "Shape": null, "id": "FR_0761118C", "name": "ECOLE MATERNELLE LUCIE DELARUE MARDRUS", "lat": 49.483553, "lon": 1.039351, "city": "MAROMME", "public_private": "PUBLIC" }, "geometry": { "type": "Point", "coordinates": [ 1.039351, 49.483553 ] } },
{ "type": "Feature", "properties": { "OBJECTID": 321551, "Shape": null, "id": "FR_0761133U", "name": "ECOLE ÉLÉMENTAIRE JEHAN DE GROUCHY II", "lat": 49.5071987, "lon": 0.1793012, "city": "LE HAVRE", "public_private": "PUBLIC" }, "geometry": { "type": "Point", "coordinates": [ 0.179301200000054, 49.50719870000006 ] } },
{ "type": "Feature", "properties": { "OBJECTID": 321552, "Shape": null, "id": "FR_0761150M", "name": "ECOLE PRIMAIRE ASPIRANT LEMONNIER", "lat": 49.5324898, "lon": 0.2419205, "city": "ST MARTIN DU MANOIR", "public_private": "PUBLIC" }, "geometry": { "type": "Point", "coordinates": [ 0.241920500000049, 49.532489800000064 ] } },
{ "type": "Feature", "properties": { "OBJECTID": 321553, "Shape": null, "id": "FR_0761152P", "name": "ECOLE MATERNELLE GERMAINE COTY", "lat": 49.5051291, "lon": 0.2010071, "city": "HARFLEUR", "public_private": "PUBLIC" }, "geometry": { "type": "Point", "coordinates": [ 0.201007100000027, 49.505129100000033 ] } },
{ "type": "Feature", "properties": { "OBJECTID": 321554, "Shape": null, "id": "FR_0761186B", "name": "ECOLE PRIMAIRE MAURICE GENEVOIX", "lat": 49.3592528, "lon": 0.9724432, "city": "HAUTOT SUR SEINE", "public_private": "PUBLIC" }, "geometry": { "type": "Point", "coordinates": [ 0.972443200000043, 49.359252800000036 ] } },
{ "type": "Feature", "properties": { "OBJECTID": 321555, "Shape": null, "id": "FR_0761187C", "name": "ECOLE ÉLÉMENTAIRE PIERRE LE TRIVIDIC", "lat": 49.3422712, "lon": 0.9555635, "city": "MOULINEAUX", "public_private": "PUBLIC" }, "geometry": { "type": "Point", "coordinates": [ 0.955563500000039, 49.342271200000027 ] } },
{ "type": "Feature", "properties": { "OBJECTID": 321556, "Shape": null, "id": "FR_0761194K", "name": "ECOLE ÉLÉMENTAIRE LOUIS PASTEUR", "lat": 49.430772, "lon": 1.062396, "city": "LE PETIT QUEVILLY", "public_private": "PUBLIC" }, "geometry": { "type": "Point", "coordinates": [ 1.062396, 49.430772 ] } },
{ "type": "Feature", "properties": { "OBJECTID": 321557, "Shape": null, "id": "FR_0761206Y", "name": "ECOLE MATERNELLE JEAN-BAPTISTE CLÉMENT", "lat": 49.430865, "lon": 1.05528, "city": "LE PETIT QUEVILLY", "public_private": "PUBLIC" }, "geometry": { "type": "Point", "coordinates": [ 1.05528, 49.430865 ] } },
{ "type": "Feature", "properties": { "OBJECTID": 321558, "Shape": null, "id": "FR_0761230Z", "name": "ECOLE MATERNELLE PAUL BERT", "lat": 49.5088711, "lon": 0.1674271, "city": "LE HAVRE", "public_private": "PUBLIC" }, "geometry": { "type": "Point", "coordinates": [ 0.167427100000054, 49.508871100000079 ] } },
{ "type": "Feature", "properties": { "OBJECTID": 321559, "Shape": null, "id": "FR_0761247T", "name": "ECOLE MATERNELLE GUSTAVE FLAUBERT", "lat": 49.4969573, "lon": 0.1076992, "city": "LE HAVRE", "public_private": "PUBLIC" }, "geometry": { "type": "Point", "coordinates": [ 0.10769920000007, 49.496957300000076 ] } },
{ "type": "Feature", "properties": { "OBJECTID": 321560, "Shape": null, "id": "FR_0761252Y", "name": "ECOLE MATERNELLE JULES GUESDE", "lat": 49.5178163, "lon": 0.1230999, "city": "LE HAVRE", "public_private": "PUBLIC" }, "geometry": { "type": "Point", "coordinates": [ 0.123099900000057, 49.51781630000005 ] } },
{ "type": "Feature", "properties": { "OBJECTID": 321561, "Shape": null, "id": "FR_0761261H", "name": "ECOLE MATERNELLE VICTOR HUGO", "lat": 49.5059623, "lon": 0.1057481, "city": "LE HAVRE", "public_private": "PUBLIC" }, "geometry": { "type": "Point", "coordinates": [ 0.105748100000028, 49.505962300000078 ] } },
{ "type": "Feature", "properties": { "OBJECTID": 321562, "Shape": null, "id": "FR_0761263K", "name": "ECOLE MATERNELLE RENAISSANCE", "lat": 49.5150363, "lon": 0.1113914, "city": "LE HAVRE", "public_private": "PUBLIC" }, "geometry": { "type": "Point", "coordinates": [ 0.111391400000059, 49.515036300000077 ] } },
{ "type": "Feature", "properties": { "OBJECTID": 321563, "Shape": null, "id": "FR_0761264L", "name": "ECOLE MATERNELLE COLETTE", "lat": 49.5084295, "lon": 0.0919079, "city": "LE HAVRE", "public_private": "PUBLIC" }, "geometry": { "type": "Point", "coordinates": [ 0.091907900000024, 49.508429500000034 ] } },
{ "type": "Feature", "properties": { "OBJECTID": 321564, "Shape": null, "id": "FR_0761266N", "name": "ECOLE MATERNELLE VALMY", "lat": 49.4884284, "lon": 0.1445769, "city": "LE HAVRE", "public_private": "PUBLIC" }, "geometry": { "type": "Point", "coordinates": [ 0.144576900000061, 49.488428400000032 ] } },
{ "type": "Feature", "properties": { "OBJECTID": 321565, "Shape": null, "id": "FR_0761267P", "name": "ECOLE MATERNELLE JACQUES PRÉVERT", "lat": 49.4839778, "lon": 1.7239556, "city": "GOURNAY EN BRAY", "public_private": "PUBLIC" }, "geometry": { "type": "Point", "coordinates": [ 1.723955600000068, 49.483977800000048 ] } },
{ "type": "Feature", "properties": { "OBJECTID": 321566, "Shape": null, "id": "FR_0761271U", "name": "ECOLE ÉLÉMENTAIRE", "lat": 49.4416289, "lon": 1.6223703, "city": "BEZANCOURT", "public_private": "PUBLIC" }, "geometry": { "type": "Point", "coordinates": [ 1.622370300000057, 49.441628900000069 ] } },
{ "type": "Feature", "properties": { "OBJECTID": 321567, "Shape": null, "id": "FR_0761275Y", "name": "ECOLE ÉLÉMENTAIRE", "lat": 49.532405, "lon": 1.6585764, "city": "DAMPIERRE EN BRAY", "public_private": "PUBLIC" }, "geometry": { "type": "Point", "coordinates": [ 1.658576400000072, 49.532405 ] } },
{ "type": "Feature", "properties": { "OBJECTID": 321568, "Shape": null, "id": "FR_0761296W", "name": "ECOLE MATERNELLE JEAN MACÉ", "lat": 49.7524027, "lon": 0.3939701, "city": "FECAMP", "public_private": "PUBLIC" }, "geometry": { "type": "Point", "coordinates": [ 0.393970100000047, 49.752402700000061 ] } },
{ "type": "Feature", "properties": { "OBJECTID": 321569, "Shape": null, "id": "FR_0761307H", "name": "ECOLE ÉLÉMENTAIRE GUSTAVE FLAUBERT", "lat": 49.3909414, "lon": 1.0275326, "city": "PETIT COURONNE", "public_private": "PUBLIC" }, "geometry": { "type": "Point", "coordinates": [ 1.027532600000029, 49.390941400000031 ] } },
{ "type": "Feature", "properties": { "OBJECTID": 321570, "Shape": null, "id": "FR_0761322Z", "name": "LYCÉE PROFESSIONNEL CLAUDE MONET", "lat": 49.5007739, "lon": 0.1098039, "city": "LE HAVRE CEDEX", "public_private": "PUBLIC" }, "geometry": { "type": "Point", "coordinates": [ 0.109803900000031, 49.50077390000007 ] } },
{ "type": "Feature", "properties": { "OBJECTID": 321571, "Shape": null, "id": "FR_0761338S", "name": "COLLÈGE PRIVÉ BOBÉE", "lat": 49.6152114, "lon": 0.7553847, "city": "YVETOT", "public_private": "PRIVATE" }, "geometry": { "type": "Point", "coordinates": [ 0.755384700000036, 49.615211400000078 ] } },
{ "type": "Feature", "properties": { "OBJECTID": 321572, "Shape": null, "id": "FR_0761343X", "name": "LYCÉE POLYVALENT PRIVÉ LA CHÂTAIGNERAIE", "lat": 49.4137494, "lon": 1.1460289, "city": "LE MESNIL ESNARD", "public_private": "PRIVATE" }, "geometry": { "type": "Point", "coordinates": [ 1.146028900000033, 49.413749400000029 ] } },
{ "type": "Feature", "properties": { "OBJECTID": 321573, "Shape": null, "id": "FR_0761347B", "name": "LYCÉE PROFESSIONNEL PRIVÉ NOTRE-DAME", "lat": 49.28886365, "lon": 1.001248258, "city": "ELBEUF", "public_private": "PRIVATE" }, "geometry": { "type": "Point", "coordinates": [ 1.001248258000032, 49.288863650000053 ] } },
{ "type": "Feature", "properties": { "OBJECTID": 321574, "Shape": null, "id": "FR_0761402L", "name": "ECOLE ÉLÉMENTAIRE", "lat": 49.7952064, "lon": 0.8984393, "city": "VENESTANVILLE", "public_private": "PUBLIC" }, "geometry": { "type": "Point", "coordinates": [ 0.898439300000064, 49.795206400000041 ] } },
{ "type": "Feature", "properties": { "OBJECTID": 321575, "Shape": null, "id": "FR_0761429R", "name": "ECOLE ÉLÉMENTAIRE", "lat": 49.6709721, "lon": 1.5168455, "city": "MESNIL MAUGER", "public_private": "PUBLIC" }, "geometry": { "type": "Point", "coordinates": [ 1.516845500000045, 49.670972100000029 ] } },
{ "type": "Feature", "properties": { "OBJECTID": 321576, "Shape": null, "id": "FR_0761430S", "name": "ECOLE ÉLÉMENTAIRE", "lat": 49.6156469, "lon": 1.462964376, "city": "RONCHEROLLES EN BRAY", "public_private": "PUBLIC" }, "geometry": { "type": "Point", "coordinates": [ 1.462964376000059, 49.615646900000058 ] } },
{ "type": "Feature", "properties": { "OBJECTID": 321577, "Shape": null, "id": "FR_0761440C", "name": "ECOLE ÉLÉMENTAIRE", "lat": 49.6773984, "lon": 0.4330032, "city": "ANNOUVILLE VILMESNIL", "public_private": "PUBLIC" }, "geometry": { "type": "Point", "coordinates": [ 0.43300320000003, 49.677398400000072 ] } },
{ "type": "Feature", "properties": { "OBJECTID": 321578, "Shape": null, "id": "FR_0761451P", "name": "ECOLE MATERNELLE", "lat": 49.6953132, "lon": 0.4765353, "city": "DAUBEUF SERVILLE", "public_private": "PUBLIC" }, "geometry": { "type": "Point", "coordinates": [ 0.476535300000023, 49.695313200000044 ] } },
{ "type": "Feature", "properties": { "OBJECTID": 321579, "Shape": null, "id": "FR_0761463C", "name": "ECOLE PRIMAIRE", "lat": 49.6690967, "lon": 0.499015, "city": "TOCQUEVILLE LES MURS", "public_private": "PUBLIC" }, "geometry": { "type": "Point", "coordinates": [ 0.499015, 49.669096700000068 ] } },
{ "type": "Feature", "properties": { "OBJECTID": 321580, "Shape": null, "id": "FR_0761471L", "name": "ECOLE MATERNELLE FRANÇOIS HULIN", "lat": 49.472659, "lon": 0.9004324, "city": "BERVILLE SUR SEINE", "public_private": "PUBLIC" }, "geometry": { "type": "Point", "coordinates": [ 0.900432400000057, 49.472659 ] } },
{ "type": "Feature", "properties": { "OBJECTID": 321581, "Shape": null, "id": "FR_0761473N", "name": "ECOLE PRIMAIRE JEAN FERRAT", "lat": 49.4794422, "lon": 0.9596507, "city": "HENOUVILLE", "public_private": "PUBLIC" }, "geometry": { "type": "Point", "coordinates": [ 0.959650700000054, 49.479442200000051 ] } },
{ "type": "Feature", "properties": { "OBJECTID": 321582, "Shape": null, "id": "FR_0761479V", "name": "ECOLE PRIMAIRE LES ABEILLES", "lat": 49.4118529, "lon": 0.8586054, "city": "LE MESNIL SOUS JUMIEGES", "public_private": "PUBLIC" }, "geometry": { "type": "Point", "coordinates": [ 0.858605400000044, 49.411852900000042 ] } },
{ "type": "Feature", "properties": { "OBJECTID": 321583, "Shape": null, "id": "FR_0761487D", "name": "ECOLE ÉLÉMENTAIRE GERMAINE COTY", "lat": 49.4998601, "lon": 0.9323231, "city": "ST PIERRE DE VARENGEVILLE", "public_private": "PUBLIC" }, "geometry": { "type": "Point", "coordinates": [ 0.932323100000076, 49.499860100000035 ] } },
{ "type": "Feature", "properties": { "OBJECTID": 321584, "Shape": null, "id": "FR_0761502V", "name": "ECOLE ÉLÉMENTAIRE ANTOINE DE CONDORCET", "lat": 49.2856951, "lon": 1.0045068, "city": "ELBEUF", "public_private": "PUBLIC" }, "geometry": { "type": "Point", "coordinates": [ 1.004506800000058, 49.285695100000055 ] } },
{ "type": "Feature", "properties": { "OBJECTID": 321585, "Shape": null, "id": "FR_0761503W", "name": "ECOLE MATERNELLE JACQUES PRÉVERT", "lat": 49.2867478, "lon": 1.0043671, "city": "ELBEUF", "public_private": "PUBLIC" }, "geometry": { "type": "Point", "coordinates": [ 1.004367100000024, 49.286747800000057 ] } },
{ "type": "Feature", "properties": { "OBJECTID": 321586, "Shape": null, "id": "FR_0761512F", "name": "ECOLE ÉLÉMENTAIRE PAUL BERT", "lat": 49.2849783, "lon": 1.0223352, "city": "CAUDEBEC LES ELBEUF", "public_private": "PUBLIC" }, "geometry": { "type": "Point", "coordinates": [ 1.022335200000043, 49.284978300000034 ] } },
{ "type": "Feature", "properties": { "OBJECTID": 321587, "Shape": null, "id": "FR_0761513G", "name": "ECOLE ÉLÉMENTAIRE VICTOR HUGO", "lat": 49.2822325, "lon": 1.0155608, "city": "CAUDEBEC LES ELBEUF", "public_private": "PUBLIC" }, "geometry": { "type": "Point", "coordinates": [ 1.01556080000006, 49.282232500000077 ] } },
{ "type": "Feature", "properties": { "OBJECTID": 321588, "Shape": null, "id": "FR_0761515J", "name": "ECOLE MATERNELLE M.P. PREVEL", "lat": 49.2827334, "lon": 1.0212166, "city": "CAUDEBEC LES ELBEUF", "public_private": "PUBLIC" }, "geometry": { "type": "Point", "coordinates": [ 1.021216600000059, 49.282733400000041 ] } },
{ "type": "Feature", "properties": { "OBJECTID": 321589, "Shape": null, "id": "FR_0761545S", "name": "ECOLE PRIMAIRE FRANÇOISE DOLTO", "lat": 50.0301354, "lon": 1.3852756, "city": "ETALONDES", "public_private": "PUBLIC" }, "geometry": { "type": "Point", "coordinates": [ 1.385275600000057, 50.030135400000063 ] } },
{ "type": "Feature", "properties": { "OBJECTID": 321590, "Shape": null, "id": "FR_0761555C", "name": "ECOLE PRIMAIRE", "lat": 49.9950828, "lon": 1.4507586, "city": "MONCHY SUR EU", "public_private": "PUBLIC" }, "geometry": { "type": "Point", "coordinates": [ 1.450758600000029, 49.995082800000034 ] } },
{ "type": "Feature", "properties": { "OBJECTID": 321591, "Shape": null, "id": "FR_0761566P", "name": "ECOLE PRIMAIRE LEDRÉ DELMET MOREAU", "lat": 50.0594394, "lon": 1.3725065, "city": "LE TREPORT", "public_private": "PUBLIC" }, "geometry": { "type": "Point", "coordinates": [ 1.372506500000043, 50.059439400000031 ] } },
{ "type": "Feature", "properties": { "OBJECTID": 321592, "Shape": null, "id": "FR_0761618W", "name": "ECOLE PRIMAIRE GEORGES BRASSENS", "lat": 49.9564705, "lon": 1.219806, "city": "PETIT CAUX", "public_private": "PUBLIC" }, "geometry": { "type": "Point", "coordinates": [ 1.219806, 49.95647050000008 ] } },
{ "type": "Feature", "properties": { "OBJECTID": 321593, "Shape": null, "id": "FR_0761627F", "name": "ECOLE PRIMAIRE LA PREUVE PAR NEUF", "lat": 49.9447602, "lon": 1.2637007, "city": "PETIT CAUX", "public_private": "PUBLIC" }, "geometry": { "type": "Point", "coordinates": [ 1.263700700000072, 49.944760200000076 ] } },
{ "type": "Feature", "properties": { "OBJECTID": 321594, "Shape": null, "id": "FR_0761707T", "name": "LYCÉE GÉNÉRAL PRIVÉ LA PROVIDENCE", "lat": 49.905134, "lon": 1.074669714, "city": "DIEPPE", "public_private": "PRIVATE" }, "geometry": { "type": "Point", "coordinates": [ 1.074669714000038, 49.905134 ] } },
{ "type": "Feature", "properties": { "OBJECTID": 321595, "Shape": null, "id": "FR_0761713Z", "name": "LYCÉE GÉNÉRAL ET TECHNOLOGIQUE PRIVÉ LA PROVIDENCE", "lat": 49.4068732, "lon": 1.1397324, "city": "LE MESNIL ESNARD", "public_private": "PRIVATE" }, "geometry": { "type": "Point", "coordinates": [ 1.139732400000071, 49.406873200000064 ] } },
{ "type": "Feature", "properties": { "OBJECTID": 321596, "Shape": null, "id": "FR_0761744H", "name": "LYCÉE PROFESSIONNEL AGRICOLE DU PAYS-DE-BRAY - SITE DE NEUFCHÂTEL", "lat": 49.7369268, "lon": 1.4376422, "city": "NEUFCHATEL EN BRAY", "public_private": "PUBLIC" }, "geometry": { "type": "Point", "coordinates": [ 1.437642200000028, 49.736926800000049 ] } },
{ "type": "Feature", "properties": { "OBJECTID": 321597, "Shape": null, "id": "FR_0761761B", "name": "ECOLE MATERNELLE ANDRÉ MALRAUX", "lat": 49.4840197, "lon": 0.8776553, "city": "DUCLAIR", "public_private": "PUBLIC" }, "geometry": { "type": "Point", "coordinates": [ 0.877655300000072, 49.484019700000033 ] } },
{ "type": "Feature", "properties": { "OBJECTID": 321598, "Shape": null, "id": "FR_0770212M", "name": "ECOLE MATERNELLE GEORGES FOURNIER", "lat": 48.8815035, "lon": 2.5786764, "city": "CHELLES", "public_private": "PUBLIC" }, "geometry": { "type": "Point", "coordinates": [ 2.578676400000063, 48.881503500000065 ] } },
{ "type": "Feature", "properties": { "OBJECTID": 321599, "Shape": null, "id": "FR_0761779W", "name": "SECTION D'ENSEIGNEMENT GÉNÉRAL ET PROFESSIONNEL ADAPTÉ JEAN-JACQUES ROUSSEAU", "lat": 49.4421161, "lon": 1.1720954, "city": "DARNETAL", "public_private": "PUBLIC" }, "geometry": { "type": "Point", "coordinates": [ 1.172095400000046, 49.442116100000078 ] } },
{ "type": "Feature", "properties": { "OBJECTID": 321600, "Shape": null, "id": "FR_0761879E", "name": "ECOLE PRIMAIRE LUCIE AUBRAC", "lat": 49.772582, "lon": 1.7490718, "city": "AUMALE", "public_private": "PUBLIC" }, "geometry": { "type": "Point", "coordinates": [ 1.749071800000024, 49.772582 ] } },
{ "type": "Feature", "properties": { "OBJECTID": 321601, "Shape": null, "id": "FR_0761899B", "name": "ECOLE ÉLÉMENTAIRE MARCEL TOUCHARD", "lat": 49.3016602, "lon": 1.0199171, "city": "ST AUBIN LES ELBEUF", "public_private": "PUBLIC" }, "geometry": { "type": "Point", "coordinates": [ 1.019917100000043, 49.301660200000072 ] } },
{ "type": "Feature", "properties": { "OBJECTID": 321602, "Shape": null, "id": "FR_0761900C", "name": "ECOLE PRIMAIRE LE PÉLICAN", "lat": 49.6425427, "lon": 0.1647355, "city": "ST JOUIN BRUNEVAL", "public_private": "PUBLIC" }, "geometry": { "type": "Point", "coordinates": [ 0.164735500000063, 49.642542700000035 ] } },
{ "type": "Feature", "properties": { "OBJECTID": 321603, "Shape": null, "id": "FR_0761912R", "name": "SECTION D'ENSEIGNEMENT GÉNÉRAL ET PROFESSIONNEL ADAPTÉ JEAN MOULIN", "lat": 49.5131953, "lon": 0.1224035, "city": "LE HAVRE", "public_private": "PUBLIC" }, "geometry": { "type": "Point", "coordinates": [ 0.122403500000075, 49.513195300000064 ] } },
{ "type": "Feature", "properties": { "OBJECTID": 321604, "Shape": null, "id": "FR_0761937T", "name": "ECOLE ÉLÉMENTAIRE EUGÈNE VARLIN II", "lat": 49.5173069, "lon": 0.1705946, "city": "LE HAVRE", "public_private": "PUBLIC" }, "geometry": { "type": "Point", "coordinates": [ 0.170594600000072, 49.517306900000051 ] } },
{ "type": "Feature", "properties": { "OBJECTID": 321605, "Shape": null, "id": "FR_0761963W", "name": "ECOLE PRIMAIRE PRIVÉE SAINT JACQUES", "lat": 49.7357603, "lon": 1.4340548, "city": "NEUFCHATEL EN BRAY", "public_private": "PRIVATE" }, "geometry": { "type": "Point", "coordinates": [ 1.434054800000069, 49.735760300000038 ] } },
{ "type": "Feature", "properties": { "OBJECTID": 321606, "Shape": null, "id": "FR_0761968B", "name": "ECOLE PRIMAIRE PRIVÉE INSTITUTION SAINT FRANÇOIS D'ASSISE", "lat": 49.4498769, "lon": 1.1012379, "city": "ROUEN", "public_private": "PRIVATE" }, "geometry": { "type": "Point", "coordinates": [ 1.101237900000058, 49.449876900000049 ] } },
{ "type": "Feature", "properties": { "OBJECTID": 321607, "Shape": null, "id": "FR_0761979N", "name": "ECOLE PRIMAIRE PRIVÉE SAINT SEVER - SAINT CLÉMENT", "lat": 49.426894, "lon": 1.079166, "city": "ROUEN", "public_private": "PRIVATE" }, "geometry": { "type": "Point", "coordinates": [ 1.079166, 49.426894 ] } },
{ "type": "Feature", "properties": { "OBJECTID": 321608, "Shape": null, "id": "FR_0761980P", "name": "ECOLE PRIMAIRE PRIVÉE SAINT VIVIEN", "lat": 49.4422181, "lon": 1.1034943, "city": "ROUEN", "public_private": "PRIVATE" }, "geometry": { "type": "Point", "coordinates": [ 1.103494300000023, 49.442218100000048 ] } },
{ "type": "Feature", "properties": { "OBJECTID": 321609, "Shape": null, "id": "FR_0761989Z", "name": "ECOLE PRIMAIRE PRIVÉE NOTRE-DAME DE BON PORT", "lat": 49.8663627, "lon": 0.7107622, "city": "ST VALERY EN CAUX", "public_private": "PRIVATE" }, "geometry": { "type": "Point", "coordinates": [ 0.710762200000033, 49.866362700000082 ] } },
{ "type": "Feature", "properties": { "OBJECTID": 321610, "Shape": null, "id": "FR_0761992C", "name": "ECOLE PRIMAIRE PRIVÉE SAINT MICHEL", "lat": 49.6205914, "lon": 0.7540888, "city": "YVETOT", "public_private": "PRIVATE" }, "geometry": { "type": "Point", "coordinates": [ 0.754088800000034, 49.62059140000008 ] } },
{ "type": "Feature", "properties": { "OBJECTID": 321611, "Shape": null, "id": "FR_0762010X", "name": "ECOLE PRIMAIRE PRIVÉE LA PROVIDENCE", "lat": 49.905134, "lon": 1.074669714, "city": "DIEPPE", "public_private": "PRIVATE" }, "geometry": { "type": "Point", "coordinates": [ 1.074669714000038, 49.905134 ] } },
{ "type": "Feature", "properties": { "OBJECTID": 321612, "Shape": null, "id": "FR_0762018F", "name": "ECOLE PRIMAIRE PRIVÉE LA PROVIDENCE", "lat": 49.7547094, "lon": 0.3765527, "city": "FECAMP", "public_private": "PRIVATE" }, "geometry": { "type": "Point", "coordinates": [ 0.376552700000047, 49.754709400000081 ] } },
{ "type": "Feature", "properties": { "OBJECTID": 321613, "Shape": null, "id": "FR_0762023L", "name": "ECOLE PRIMAIRE PRIVÉE SAINTE ANNE", "lat": 49.4981181, "lon": 0.1214912, "city": "LE HAVRE", "public_private": "PRIVATE" }, "geometry": { "type": "Point", "coordinates": [ 0.121491200000037, 49.498118100000056 ] } },
{ "type": "Feature", "properties": { "OBJECTID": 321614, "Shape": null, "id": "FR_0762030U", "name": "ECOLE PRIMAIRE PRIVÉE SAINT LÉON", "lat": 49.4998785, "lon": 0.144798297, "city": "LE HAVRE", "public_private": "PRIVATE" }, "geometry": { "type": "Point", "coordinates": [ 0.144798297000023, 49.499878500000079 ] } },
{ "type": "Feature", "properties": { "OBJECTID": 321615, "Shape": null, "id": "FR_0762032W", "name": "ECOLE PRIMAIRE PRIVÉE SAINT NICOLAS", "lat": 49.4841498, "lon": 0.1341772, "city": "LE HAVRE", "public_private": "PRIVATE" }, "geometry": { "type": "Point", "coordinates": [ 0.134177200000067, 49.484149800000068 ] } },
{ "type": "Feature", "properties": { "OBJECTID": 321616, "Shape": null, "id": "FR_0762037B", "name": "ECOLE PRIMAIRE PRIVÉE DESGENETAIS - NOTRE-DAME", "lat": 49.5167209, "lon": 0.5358757, "city": "LILLEBONNE", "public_private": "PRIVATE" }, "geometry": { "type": "Point", "coordinates": [ 0.53587570000002, 49.516720900000053 ] } },
{ "type": "Feature", "properties": { "OBJECTID": 321617, "Shape": null, "id": "FR_0762070M", "name": "ECOLE ÉLÉMENTAIRE", "lat": 49.6809382, "lon": 0.7422835, "city": "HAUTOT ST SULPICE", "public_private": "PUBLIC" }, "geometry": { "type": "Point", "coordinates": [ 0.742283500000042, 49.680938200000071 ] } },
{ "type": "Feature", "properties": { "OBJECTID": 321618, "Shape": null, "id": "FR_0762081Z", "name": "ETABLISSEMENT RÉGIONAL D'ENSEIGNEMENT ADAPTÉ MAURICE GENEVOIX", "lat": 49.5141887, "lon": 0.1007416, "city": "LE HAVRE CEDEX", "public_private": "PUBLIC" }, "geometry": { "type": "Point", "coordinates": [ 0.100741600000049, 49.514188700000034 ] } },
{ "type": "Feature", "properties": { "OBJECTID": 321619, "Shape": null, "id": "FR_0762106B", "name": "ECOLE ÉLÉMENTAIRE HENRI WALLON", "lat": 49.4192697, "lon": 1.0603496, "city": "LE PETIT QUEVILLY", "public_private": "PUBLIC" }, "geometry": { "type": "Point", "coordinates": [ 1.060349600000052, 49.419269700000029 ] } },
{ "type": "Feature", "properties": { "OBJECTID": 321620, "Shape": null, "id": "FR_0762107C", "name": "COLLÈGE HENRY DUNANT", "lat": 49.7733943, "lon": 1.7510982, "city": "AUMALE", "public_private": "PUBLIC" }, "geometry": { "type": "Point", "coordinates": [ 1.751098200000058, 49.773394300000064 ] } },
{ "type": "Feature", "properties": { "OBJECTID": 321621, "Shape": null, "id": "FR_0762109E", "name": "ECOLE PRIMAIRE", "lat": 49.7644031, "lon": 1.5920153, "city": "LE CAULE STE BEUVE", "public_private": "PUBLIC" }, "geometry": { "type": "Point", "coordinates": [ 1.592015300000071, 49.764403100000038 ] } },
{ "type": "Feature", "properties": { "OBJECTID": 321622, "Shape": null, "id": "FR_0762112H", "name": "ECOLE ÉLÉMENTAIRE MARCEL PAGNOL", "lat": 49.5277484, "lon": 0.5675919, "city": "LA FRENAYE", "public_private": "PUBLIC" }, "geometry": { "type": "Point", "coordinates": [ 0.567591900000025, 49.527748400000064 ] } },
{ "type": "Feature", "properties": { "OBJECTID": 321623, "Shape": null, "id": "FR_0762118P", "name": "ECOLE PRIMAIRE", "lat": 49.5319749, "lon": 0.2571745, "city": "ST LAURENT DE BREVEDENT", "public_private": "PUBLIC" }, "geometry": { "type": "Point", "coordinates": [ 0.257174500000076, 49.53197490000008 ] } },
{ "type": "Feature", "properties": { "OBJECTID": 321624, "Shape": null, "id": "FR_0762128A", "name": "COLLÈGE LÉO LAGRANGE", "lat": 49.5017241, "lon": 0.1654011, "city": "LE HAVRE", "public_private": "PUBLIC" }, "geometry": { "type": "Point", "coordinates": [ 0.165401100000054, 49.501724100000047 ] } },
{ "type": "Feature", "properties": { "OBJECTID": 321625, "Shape": null, "id": "FR_0762149Y", "name": "ECOLE MATERNELLE AUGUSTE RODIN", "lat": 49.6142091, "lon": 0.7649391, "city": "YVETOT", "public_private": "PUBLIC" }, "geometry": { "type": "Point", "coordinates": [ 0.764939100000049, 49.614209100000039 ] } },
{ "type": "Feature", "properties": { "OBJECTID": 321626, "Shape": null, "id": "FR_0762169V", "name": "LYCÉE GÉNÉRAL ET TECHNOLOGIQUE PABLO NERUDA", "lat": 49.90651685, "lon": 1.067379246, "city": "DIEPPE CEDEX", "public_private": "PUBLIC" }, "geometry": { "type": "Point", "coordinates": [ 1.06737924600003, 49.90651685000006 ] } },
{ "type": "Feature", "properties": { "OBJECTID": 321627, "Shape": null, "id": "FR_0762201E", "name": "SECTION D'ENSEIGNEMENT GÉNÉRAL ET PROFESSIONNEL ADAPTÉ LE CÈDRE", "lat": 49.4435546, "lon": 1.0279004, "city": "CANTELEU", "public_private": "PUBLIC" }, "geometry": { "type": "Point", "coordinates": [ 1.027900400000021, 49.443554600000027 ] } },
{ "type": "Feature", "properties": { "OBJECTID": 321628, "Shape": null, "id": "FR_0762238V", "name": "ECOLE MATERNELLE HECTOR MALOT", "lat": 49.2715935, "lon": 1.0484867, "city": "ST PIERRE LES ELBEUF", "public_private": "PUBLIC" }, "geometry": { "type": "Point", "coordinates": [ 1.048486700000069, 49.271593500000051 ] } },
{ "type": "Feature", "properties": { "OBJECTID": 321629, "Shape": null, "id": "FR_0762245C", "name": "ECOLE ÉLÉMENTAIRE JACQUES PRÉVERT", "lat": 49.9196133, "lon": 1.1020255, "city": "DIEPPE", "public_private": "PUBLIC" }, "geometry": { "type": "Point", "coordinates": [ 1.102025500000025, 49.919613300000037 ] } },
{ "type": "Feature", "properties": { "OBJECTID": 321630, "Shape": null, "id": "FR_0762284V", "name": "LYCÉE AGRICOLE PRIVÉ SAINT-JOSEPH DE MESNIERES-EN-BRAY", "lat": 49.7678987, "lon": 1.3737904, "city": "MESNIERES EN BRAY", "public_private": "PRIVATE" }, "geometry": { "type": "Point", "coordinates": [ 1.373790400000075, 49.767898700000046 ] } },
{ "type": "Feature", "properties": { "OBJECTID": 321631, "Shape": null, "id": "FR_0762306U", "name": "MAISON FAMILIALE RURALE DE LA CERLANGUE", "lat": 49.497365, "lon": 0.43264, "city": "LA CERLANGUE", "public_private": "PRIVATE" }, "geometry": { "type": "Point", "coordinates": [ 0.43264, 49.497365 ] } },
{ "type": "Feature", "properties": { "OBJECTID": 321632, "Shape": null, "id": "FR_0762315D", "name": "SECTION D'ENSEIGNEMENT GÉNÉRAL ET PROFESSIONNEL ADAPTÉ CLAUDE DELVINCOURT", "lat": 49.90709088, "lon": 1.067651073, "city": "DIEPPE", "public_private": "PUBLIC" }, "geometry": { "type": "Point", "coordinates": [ 1.067651073000036, 49.907090880000055 ] } },
{ "type": "Feature", "properties": { "OBJECTID": 321633, "Shape": null, "id": "FR_0762317F", "name": "SECTION D'ENSEIGNEMENT GÉNÉRAL ET PROFESSIONNEL ADAPTÉ PAUL BERT", "lat": 49.7553126, "lon": 0.3823682, "city": "FECAMP", "public_private": "PUBLIC" }, "geometry": { "type": "Point", "coordinates": [ 0.38236820000003, 49.755312600000082 ] } },
{ "type": "Feature", "properties": { "OBJECTID": 321634, "Shape": null, "id": "FR_0762319H", "name": "SECTION D'ENSEIGNEMENT GÉNÉRAL ET PROFESSIONNEL ADAPTÉ SAINT-EXUPÉRY", "lat": 49.6176821, "lon": 1.537466, "city": "FORGES LES EAUX", "public_private": "PUBLIC" }, "geometry": { "type": "Point", "coordinates": [ 1.537466, 49.617682100000081 ] } },
{ "type": "Feature", "properties": { "OBJECTID": 321635, "Shape": null, "id": "FR_0762349R", "name": "ECOLE MATERNELLE ANDRÉ MARIE", "lat": 49.5344004, "lon": 0.9582656, "city": "BARENTIN", "public_private": "PUBLIC" }, "geometry": { "type": "Point", "coordinates": [ 0.958265600000061, 49.534400400000038 ] } },
{ "type": "Feature", "properties": { "OBJECTID": 321636, "Shape": null, "id": "FR_0762362E", "name": "ECOLE MATERNELLE JEAN DE LA FONTAINE", "lat": 49.4496236, "lon": 1.1059037, "city": "ROUEN", "public_private": "PUBLIC" }, "geometry": { "type": "Point", "coordinates": [ 1.105903700000056, 49.449623600000052 ] } },
{ "type": "Feature", "properties": { "OBJECTID": 321637, "Shape": null, "id": "FR_0762366J", "name": "ECOLE ÉLÉMENTAIRE JEAN MONNET", "lat": 49.53326695, "lon": 0.146398271, "city": "FONTAINE LA MALLET", "public_private": "PUBLIC" }, "geometry": { "type": "Point", "coordinates": [ 0.146398271000066, 49.533266950000041 ] } },
{ "type": "Feature", "properties": { "OBJECTID": 321638, "Shape": null, "id": "FR_0762370N", "name": "ECOLE PRIMAIRE", "lat": 49.5854275, "lon": 0.5264997, "city": "LANQUETOT", "public_private": "PUBLIC" }, "geometry": { "type": "Point", "coordinates": [ 0.526499700000045, 49.585427500000037 ] } },
{ "type": "Feature", "properties": { "OBJECTID": 321639, "Shape": null, "id": "FR_0762381A", "name": "ECOLE ÉLÉMENTAIRE GUY DE MAUPASSANT", "lat": 49.3895598, "lon": 1.0319139, "city": "PETIT COURONNE", "public_private": "PUBLIC" }, "geometry": { "type": "Point", "coordinates": [ 1.031913900000063, 49.389559800000029 ] } },
{ "type": "Feature", "properties": { "OBJECTID": 321640, "Shape": null, "id": "FR_0762390K", "name": "ECOLE MATERNELLE JACQUES PRÉVERT", "lat": 49.3465773, "lon": 0.9926889, "city": "GRAND COURONNE", "public_private": "PUBLIC" }, "geometry": { "type": "Point", "coordinates": [ 0.992688900000076, 49.346577300000035 ] } },
{ "type": "Feature", "properties": { "OBJECTID": 321641, "Shape": null, "id": "FR_0762416N", "name": "ECOLE PRIMAIRE CHARLES FRECHON", "lat": 49.9315525, "lon": 1.6217858, "city": "BLANGY SUR BRESLE", "public_private": "PUBLIC" }, "geometry": { "type": "Point", "coordinates": [ 1.621785800000055, 49.931552500000066 ] } },
{ "type": "Feature", "properties": { "OBJECTID": 321642, "Shape": null, "id": "FR_0762432F", "name": "ECOLE MATERNELLE LES LUTINS", "lat": 49.5575615, "lon": 0.1181272, "city": "OCTEVILLE SUR MER", "public_private": "PUBLIC" }, "geometry": { "type": "Point", "coordinates": [ 0.11812720000006, 49.557561500000077 ] } },
{ "type": "Feature", "properties": { "OBJECTID": 321643, "Shape": null, "id": "FR_0762444U", "name": "ECOLE MATERNELLE ROBERT DESNOS", "lat": 49.4761904, "lon": 1.040044, "city": "MAROMME", "public_private": "PUBLIC" }, "geometry": { "type": "Point", "coordinates": [ 1.040044, 49.476190400000064 ] } },
{ "type": "Feature", "properties": { "OBJECTID": 321644, "Shape": null, "id": "FR_0762446W", "name": "ECOLE PRIMAIRE CHARLES TRENET", "lat": 49.4828112, "lon": 1.745018, "city": "FERRIERES EN BRAY", "public_private": "PUBLIC" }, "geometry": { "type": "Point", "coordinates": [ 1.745018, 49.482811200000071 ] } },
{ "type": "Feature", "properties": { "OBJECTID": 321645, "Shape": null, "id": "FR_0762461M", "name": "COLLÈGE JEAN RENOIR", "lat": 49.3609166, "lon": 1.0129615, "city": "GRAND COURONNE", "public_private": "PUBLIC" }, "geometry": { "type": "Point", "coordinates": [ 1.012961500000074, 49.360916600000053 ] } },
{ "type": "Feature", "properties": { "OBJECTID": 321646, "Shape": null, "id": "FR_0762463P", "name": "ECOLE ÉLÉMENTAIRE GADEAU DE KERVILLE", "lat": 49.4004848, "lon": 1.1020848, "city": "SOTTEVILLE LES ROUEN", "public_private": "PUBLIC" }, "geometry": { "type": "Point", "coordinates": [ 1.102084800000057, 49.400484800000072 ] } },
{ "type": "Feature", "properties": { "OBJECTID": 321647, "Shape": null, "id": "FR_0762468V", "name": "ECOLE ÉLÉMENTAIRE LOUIS PASTEUR", "lat": 49.4518455, "lon": 1.0661556, "city": "ROUEN", "public_private": "PUBLIC" }, "geometry": { "type": "Point", "coordinates": [ 1.066155600000059, 49.451845500000047 ] } },
{ "type": "Feature", "properties": { "OBJECTID": 321648, "Shape": null, "id": "FR_0762488S", "name": "ECOLE MATERNELLE", "lat": 49.8695371, "lon": 1.3217996, "city": "DOUVREND", "public_private": "PUBLIC" }, "geometry": { "type": "Point", "coordinates": [ 1.32179960000002, 49.869537100000059 ] } },
{ "type": "Feature", "properties": { "OBJECTID": 321649, "Shape": null, "id": "FR_0762520B", "name": "ECOLE MATERNELLE LOUISE MICHEL", "lat": 49.4018039, "lon": 1.1314227, "city": "AMFREVILLE LA MI VOIE", "public_private": "PUBLIC" }, "geometry": { "type": "Point", "coordinates": [ 1.13142270000003, 49.401803900000061 ] } },
{ "type": "Feature", "properties": { "OBJECTID": 321650, "Shape": null, "id": "FR_0762521C", "name": "ECOLE PRIMAIRE PIERRE CORNEILLE - MADAME DE SÉVIGNÉ", "lat": 49.5391664, "lon": 0.9428775, "city": "BARENTIN", "public_private": "PUBLIC" }, "geometry": { "type": "Point", "coordinates": [ 0.942877500000066, 49.539166400000056 ] } },
{ "type": "Feature", "properties": { "OBJECTID": 321651, "Shape": null, "id": "FR_0762524F", "name": "ECOLE PRIMAIRE GUY DE MAUPASSANT", "lat": 49.6267441, "lon": 1.1780713, "city": "BOSC LE HARD", "public_private": "PUBLIC" }, "geometry": { "type": "Point", "coordinates": [ 1.178071300000056, 49.626744100000053 ] } },
{ "type": "Feature", "properties": { "OBJECTID": 321652, "Shape": null, "id": "FR_0762528K", "name": "ECOLE ÉLÉMENTAIRE DE GOURNAY EN CAUX", "lat": 49.5234412, "lon": 0.2224169, "city": "GONFREVILLE L ORCHER", "public_private": "PUBLIC" }, "geometry": { "type": "Point", "coordinates": [ 0.222416900000042, 49.523441200000036 ] } },
{ "type": "Feature", "properties": { "OBJECTID": 321653, "Shape": null, "id": "FR_0762530M", "name": "ECOLE PRIMAIRE GEORGES BRAQUE", "lat": 49.5662189, "lon": 0.2555014, "city": "MANEGLISE", "public_private": "PUBLIC" }, "geometry": { "type": "Point", "coordinates": [ 0.255501400000071, 49.566218900000081 ] } },
{ "type": "Feature", "properties": { "OBJECTID": 321654, "Shape": null, "id": "FR_0762549H", "name": "ECOLE ÉLÉMENTAIRE GEORGE SAND", "lat": 49.4956446, "lon": 1.1555941, "city": "ISNEAUVILLE", "public_private": "PUBLIC" }, "geometry": { "type": "Point", "coordinates": [ 1.15559410000003, 49.495644600000048 ] } },
{ "type": "Feature", "properties": { "OBJECTID": 321655, "Shape": null, "id": "FR_0762558T", "name": "ECOLE PRIMAIRE DAVID DOUILLET", "lat": 49.7104648, "lon": 1.2276438, "city": "BELLENCOMBRE", "public_private": "PUBLIC" }, "geometry": { "type": "Point", "coordinates": [ 1.227643800000067, 49.710464800000068 ] } },
{ "type": "Feature", "properties": { "OBJECTID": 321656, "Shape": null, "id": "FR_0762559U", "name": "ECOLE ÉLÉMENTAIRE PAUL LANGEVIN", "lat": 49.5100641, "lon": 0.1094884, "city": "LE HAVRE", "public_private": "PUBLIC" }, "geometry": { "type": "Point", "coordinates": [ 0.109488400000032, 49.510064100000079 ] } },
{ "type": "Feature", "properties": { "OBJECTID": 321657, "Shape": null, "id": "FR_0762563Y", "name": "COLLÈGE PRIVÉ FÉNELON", "lat": 49.289618, "lon": 1.014873166, "city": "ELBEUF CEDEX", "public_private": "PRIVATE" }, "geometry": { "type": "Point", "coordinates": [ 1.014873166000029, 49.289618 ] } },
{ "type": "Feature", "properties": { "OBJECTID": 321658, "Shape": null, "id": "FR_0762564Z", "name": "COLLÈGE PRIVÉ SAINT JOSEPH", "lat": 49.5004032, "lon": 0.1055704, "city": "LE HAVRE CEDEX", "public_private": "PRIVATE" }, "geometry": { "type": "Point", "coordinates": [ 0.105570400000033, 49.500403200000051 ] } },
{ "type": "Feature", "properties": { "OBJECTID": 321659, "Shape": null, "id": "FR_0762593F", "name": "ECOLE MATERNELLE MAURICE PRÉVERT", "lat": 49.4592505, "lon": 1.3931972, "city": "CROISY SUR ANDELLE", "public_private": "PUBLIC" }, "geometry": { "type": "Point", "coordinates": [ 1.393197200000031, 49.459250500000053 ] } },
{ "type": "Feature", "properties": { "OBJECTID": 321660, "Shape": null, "id": "FR_0762612B", "name": "ECOLE PRIMAIRE LES HIRONDELLES", "lat": 50.0177653, "lon": 1.4447212, "city": "ST PIERRE EN VAL", "public_private": "PUBLIC" }, "geometry": { "type": "Point", "coordinates": [ 1.44472120000006, 50.017765300000065 ] } },
{ "type": "Feature", "properties": { "OBJECTID": 321661, "Shape": null, "id": "FR_0762615E", "name": "ECOLE ÉLÉMENTAIRE JEAN MONNET", "lat": 49.6811643, "lon": 1.0484293, "city": "TOTES", "public_private": "PUBLIC" }, "geometry": { "type": "Point", "coordinates": [ 1.048429300000066, 49.681164300000034 ] } },
{ "type": "Feature", "properties": { "OBJECTID": 321662, "Shape": null, "id": "FR_0762618H", "name": "ECOLE ÉLÉMENTAIRE JEAN PRÉVOST", "lat": 49.6132145, "lon": 0.75461, "city": "YVETOT", "public_private": "PUBLIC" }, "geometry": { "type": "Point", "coordinates": [ 0.75461, 49.613214500000026 ] } },
{ "type": "Feature", "properties": { "OBJECTID": 321663, "Shape": null, "id": "FR_0762658B", "name": "ECOLE MATERNELLE PIERREVILLE", "lat": 49.7883308, "lon": 1.0046526, "city": "BACQUEVILLE EN CAUX", "public_private": "PUBLIC" }, "geometry": { "type": "Point", "coordinates": [ 1.004652600000043, 49.78833080000004 ] } },
{ "type": "Feature", "properties": { "OBJECTID": 321664, "Shape": null, "id": "FR_0762666K", "name": "ECOLE MATERNELLE PIERRE TOUTAIN", "lat": 49.362671, "lon": 1.1012751, "city": "OISSEL", "public_private": "PUBLIC" }, "geometry": { "type": "Point", "coordinates": [ 1.101275100000066, 49.362671 ] } },
{ "type": "Feature", "properties": { "OBJECTID": 321665, "Shape": null, "id": "FR_0762668M", "name": "ECOLE MATERNELLE LES EMOUQUETS", "lat": 49.4674114, "lon": 1.1830172, "city": "RONCHEROLLES SUR LE VIVIER", "public_private": "PUBLIC" }, "geometry": { "type": "Point", "coordinates": [ 1.183017200000052, 49.46741140000006 ] } },
{ "type": "Feature", "properties": { "OBJECTID": 321666, "Shape": null, "id": "FR_0762678Y", "name": "ECOLE MATERNELLE", "lat": 49.7813309, "lon": 0.9075208, "city": "TOCQUEVILLE EN CAUX", "public_private": "PUBLIC" }, "geometry": { "type": "Point", "coordinates": [ 0.907520800000043, 49.781330900000057 ] } },
{ "type": "Feature", "properties": { "OBJECTID": 321667, "Shape": null, "id": "FR_0762701Y", "name": "SECTION D'ENSEIGNEMENT GÉNÉRAL ET PROFESSIONNEL ADAPTÉ CLAUDE MONET", "lat": 49.8775262, "lon": 1.2106244, "city": "ST NICOLAS D ALIERMONT", "public_private": "PUBLIC" }, "geometry": { "type": "Point", "coordinates": [ 1.210624400000029, 49.877526200000034 ] } },
{ "type": "Feature", "properties": { "OBJECTID": 321668, "Shape": null, "id": "FR_0762709G", "name": "ECOLE MATERNELLE LE PETIT PRINCE", "lat": 49.3847545, "lon": 1.1967171, "city": "BOOS", "public_private": "PUBLIC" }, "geometry": { "type": "Point", "coordinates": [ 1.196717100000058, 49.384754500000042 ] } },
{ "type": "Feature", "properties": { "OBJECTID": 321669, "Shape": null, "id": "FR_0762711J", "name": "ECOLE MATERNELLE CLAUDINE GUÉRIN", "lat": 49.546819, "lon": 1.0521434, "city": "ESLETTES", "public_private": "PUBLIC" }, "geometry": { "type": "Point", "coordinates": [ 1.052143400000034, 49.546819 ] } },
{ "type": "Feature", "properties": { "OBJECTID": 321670, "Shape": null, "id": "FR_0762716P", "name": "ECOLE ÉLÉMENTAIRE ANTOINE DE SAINT-EXUPÉRY", "lat": 49.45977695, "lon": 1.071774876, "city": "MONT ST AIGNAN", "public_private": "PUBLIC" }, "geometry": { "type": "Point", "coordinates": [ 1.071774876000063, 49.459776950000048 ] } },
{ "type": "Feature", "properties": { "OBJECTID": 321671, "Shape": null, "id": "FR_0762739P", "name": "SECTION D'ENSEIGNEMENT GÉNÉRAL ET PROFESSIONNEL ADAPTÉ PIERRE MENDÈS FRANCE", "lat": 49.5230454, "lon": 0.5336742, "city": "LILLEBONNE", "public_private": "PUBLIC" }, "geometry": { "type": "Point", "coordinates": [ 0.533674200000064, 49.523045400000058 ] } },
{ "type": "Feature", "properties": { "OBJECTID": 321672, "Shape": null, "id": "FR_0762781K", "name": "ECOLE MATERNELLE FRANÇOISE DOLTO", "lat": 49.7046508, "lon": 0.9656722, "city": "VAL DE SAANE", "public_private": "PUBLIC" }, "geometry": { "type": "Point", "coordinates": [ 0.965672200000029, 49.704650800000081 ] } },
{ "type": "Feature", "properties": { "OBJECTID": 321673, "Shape": null, "id": "FR_0762818A", "name": "ECOLE MATERNELLE GEORGES POMPIDOU", "lat": 49.4572948, "lon": 1.1040333, "city": "BOIS GUILLAUME", "public_private": "PUBLIC" }, "geometry": { "type": "Point", "coordinates": [ 1.104033300000026, 49.457294800000057 ] } },
{ "type": "Feature", "properties": { "OBJECTID": 321674, "Shape": null, "id": "FR_0762825H", "name": "ECOLE MATERNELLE MARIA MONTESSORI", "lat": 49.276635, "lon": 1.045666, "city": "ST PIERRE LES ELBEUF", "public_private": "PUBLIC" }, "geometry": { "type": "Point", "coordinates": [ 1.045666, 49.276635 ] } },
{ "type": "Feature", "properties": { "OBJECTID": 321675, "Shape": null, "id": "FR_0762852M", "name": "ECOLE PRIMAIRE", "lat": 49.8963512, "lon": 1.2648113, "city": "ENVERMEU", "public_private": "PUBLIC" }, "geometry": { "type": "Point", "coordinates": [ 1.264811300000076, 49.896351200000026 ] } },
{ "type": "Feature", "properties": { "OBJECTID": 321676, "Shape": null, "id": "FR_0762882V", "name": "ECOLE PRIMAIRE LE PRÉ VERT", "lat": 49.524278, "lon": 0.328261, "city": "ST AUBIN ROUTOT", "public_private": "PUBLIC" }, "geometry": { "type": "Point", "coordinates": [ 0.328261, 49.524278 ] } },
{ "type": "Feature", "properties": { "OBJECTID": 321677, "Shape": null, "id": "FR_0762905V", "name": "ECOLE MATERNELLE LE PETIT POUCET", "lat": 49.3989858, "lon": 1.1812587, "city": "FRANQUEVILLE ST PIERRE", "public_private": "PUBLIC" }, "geometry": { "type": "Point", "coordinates": [ 1.181258700000058, 49.398985800000048 ] } },
{ "type": "Feature", "properties": { "OBJECTID": 321678, "Shape": null, "id": "FR_0762907X", "name": "ECOLE MATERNELLE DU VILLAGE", "lat": 49.4732916, "lon": 1.086936094, "city": "MONT ST AIGNAN", "public_private": "PUBLIC" }, "geometry": { "type": "Point", "coordinates": [ 1.086936094000066, 49.473291600000039 ] } },
{ "type": "Feature", "properties": { "OBJECTID": 321679, "Shape": null, "id": "FR_0762923P", "name": "ECOLE PRIMAIRE", "lat": 49.6391931, "lon": 0.2227593, "city": "GONNEVILLE LA MALLET", "public_private": "PUBLIC" }, "geometry": { "type": "Point", "coordinates": [ 0.222759300000064, 49.639193100000057 ] } },
{ "type": "Feature", "properties": { "OBJECTID": 321680, "Shape": null, "id": "FR_0762980B", "name": "ECOLE PRIMAIRE LA VARENNE", "lat": 49.6723515, "lon": 1.284596, "city": "ST SAENS", "public_private": "PUBLIC" }, "geometry": { "type": "Point", "coordinates": [ 1.284596, 49.672351500000048 ] } },
{ "type": "Feature", "properties": { "OBJECTID": 321681, "Shape": null, "id": "FR_0762982D", "name": "ECOLE ÉLÉMENTAIRE PAUL BERT", "lat": 49.9302811, "lon": 1.0951933, "city": "DIEPPE", "public_private": "PUBLIC" }, "geometry": { "type": "Point", "coordinates": [ 1.095193300000062, 49.930281100000059 ] } },
{ "type": "Feature", "properties": { "OBJECTID": 321682, "Shape": null, "id": "FR_0762988K", "name": "ECOLE ÉLÉMENTAIRE FRANKLIN - RASPAIL", "lat": 49.4156299, "lon": 1.0947679, "city": "SOTTEVILLE LES ROUEN", "public_private": "PUBLIC" }, "geometry": { "type": "Point", "coordinates": [ 1.094767900000022, 49.415629900000056 ] } },
{ "type": "Feature", "properties": { "OBJECTID": 321683, "Shape": null, "id": "FR_0762995T", "name": "ECOLE MATERNELLE ANNE SYLVESTRE", "lat": 49.5278943, "lon": 0.5685861, "city": "LA FRENAYE", "public_private": "PUBLIC" }, "geometry": { "type": "Point", "coordinates": [ 0.568586100000061, 49.527894300000071 ] } },
{ "type": "Feature", "properties": { "OBJECTID": 321684, "Shape": null, "id": "FR_0763004C", "name": "LYCÉE PROFESSIONNEL AGRICOLE D'ENVERMEU", "lat": 49.8925865, "lon": 1.2715745, "city": "ENVERMEU", "public_private": "PUBLIC" }, "geometry": { "type": "Point", "coordinates": [ 1.271574500000042, 49.89258650000005 ] } },
{ "type": "Feature", "properties": { "OBJECTID": 321685, "Shape": null, "id": "FR_0763006E", "name": "ECOLE PRIMAIRE ALBERT FERT", "lat": 49.6329642, "lon": 0.535369, "city": "YEBLERON", "public_private": "PUBLIC" }, "geometry": { "type": "Point", "coordinates": [ 0.535369, 49.63296420000006 ] } },
{ "type": "Feature", "properties": { "OBJECTID": 321686, "Shape": null, "id": "FR_0763007F", "name": "ECOLE ÉLÉMENTAIRE JEAN MOULIN", "lat": 49.4068405, "lon": 1.0464101, "city": "LE GRAND QUEVILLY", "public_private": "PUBLIC" }, "geometry": { "type": "Point", "coordinates": [ 1.04641010000006, 49.406840500000044 ] } },
{ "type": "Feature", "properties": { "OBJECTID": 321687, "Shape": null, "id": "FR_0763008G", "name": "ECOLE ÉLÉMENTAIRE FERDINAND BUISSON", "lat": 49.358115, "lon": 1.007655, "city": "GRAND COURONNE", "public_private": "PUBLIC" }, "geometry": { "type": "Point", "coordinates": [ 1.007655, 49.358115 ] } },
{ "type": "Feature", "properties": { "OBJECTID": 321688, "Shape": null, "id": "FR_0763019U", "name": "ECOLE PRIMAIRE BROCÉLIANDE", "lat": 50.0496171, "lon": 1.4227649, "city": "EU", "public_private": "PUBLIC" }, "geometry": { "type": "Point", "coordinates": [ 1.422764900000061, 50.049617100000034 ] } },
{ "type": "Feature", "properties": { "OBJECTID": 321689, "Shape": null, "id": "FR_0763074D", "name": "ECOLE ÉLÉMENTAIRE PAULINE KERGOMARD", "lat": 49.5280507, "lon": 0.1154488, "city": "LE HAVRE", "public_private": "PUBLIC" }, "geometry": { "type": "Point", "coordinates": [ 0.115448800000024, 49.528050700000051 ] } },
{ "type": "Feature", "properties": { "OBJECTID": 321690, "Shape": null, "id": "FR_0763077G", "name": "ECOLE ÉLÉMENTAIRE OLIVIER MIANNAY", "lat": 49.5248318, "lon": 1.0367756, "city": "MALAUNAY", "public_private": "PUBLIC" }, "geometry": { "type": "Point", "coordinates": [ 1.036775600000055, 49.524831800000072 ] } },
{ "type": "Feature", "properties": { "OBJECTID": 321691, "Shape": null, "id": "FR_0763131R", "name": "ECOLE MATERNELLE", "lat": 49.6412463, "lon": 1.1595193, "city": "ETAIMPUIS", "public_private": "PUBLIC" }, "geometry": { "type": "Point", "coordinates": [ 1.159519300000056, 49.641246300000034 ] } },
{ "type": "Feature", "properties": { "OBJECTID": 321692, "Shape": null, "id": "FR_0763132S", "name": "ECOLE MATERNELLE LA CAILLOTINE", "lat": 49.6515387, "lon": 0.4343011, "city": "GONFREVILLE CAILLOT", "public_private": "PUBLIC" }, "geometry": { "type": "Point", "coordinates": [ 0.434301100000027, 49.65153870000006 ] } },
{ "type": "Feature", "properties": { "OBJECTID": 321693, "Shape": null, "id": "FR_0763158V", "name": "ECOLE ÉLÉMENTAIRE ANTOINE LAGARDE", "lat": 49.5158193, "lon": 0.082165961, "city": "STE ADRESSE", "public_private": "PUBLIC" }, "geometry": { "type": "Point", "coordinates": [ 0.082165961000044, 49.515819300000032 ] } },
{ "type": "Feature", "properties": { "OBJECTID": 321694, "Shape": null, "id": "FR_0763187B", "name": "ECOLE MATERNELLE SONIA DELAUNAY - MARIE LAURENCIN", "lat": 49.9056535, "lon": 1.081918, "city": "DIEPPE", "public_private": "PUBLIC" }, "geometry": { "type": "Point", "coordinates": [ 1.081918, 49.905653500000028 ] } },
{ "type": "Feature", "properties": { "OBJECTID": 321695, "Shape": null, "id": "FR_0763215G", "name": "ECOLE ÉLÉMENTAIRE CLAUDE DEBUSSY", "lat": 49.4452943, "lon": 1.138753, "city": "ROUEN", "public_private": "PUBLIC" }, "geometry": { "type": "Point", "coordinates": [ 1.138753, 49.445294300000057 ] } },
{ "type": "Feature", "properties": { "OBJECTID": 321696, "Shape": null, "id": "FR_0763219L", "name": "ECOLE MATERNELLE LOUIS BLANC", "lat": 49.5071278, "lon": 0.1223635, "city": "LE HAVRE", "public_private": "PUBLIC" }, "geometry": { "type": "Point", "coordinates": [ 0.122363500000063, 49.507127800000035 ] } },
{ "type": "Feature", "properties": { "OBJECTID": 321697, "Shape": null, "id": "FR_0763221N", "name": "ECOLE PRIMAIRE", "lat": 49.6719502, "lon": 0.189085, "city": "LA POTERIE CAP D ANTIFER", "public_private": "PUBLIC" }, "geometry": { "type": "Point", "coordinates": [ 0.189085, 49.671950200000026 ] } },
{ "type": "Feature", "properties": { "OBJECTID": 321698, "Shape": null, "id": "FR_0763225T", "name": "ECOLE PRIMAIRE JEANNE D'ARC", "lat": 49.505311, "lon": 1.009102, "city": "ST JEAN DU CARDONNAY", "public_private": "PUBLIC" }, "geometry": { "type": "Point", "coordinates": [ 1.009102, 49.505311 ] } },
{ "type": "Feature", "properties": { "OBJECTID": 321699, "Shape": null, "id": "FR_0763243M", "name": "ECOLE MATERNELLE JULES MICHELET", "lat": 49.4215813, "lon": 1.0906396, "city": "SOTTEVILLE LES ROUEN", "public_private": "PUBLIC" }, "geometry": { "type": "Point", "coordinates": [ 1.090639600000031, 49.421581300000071 ] } },
{ "type": "Feature", "properties": { "OBJECTID": 321700, "Shape": null, "id": "FR_0763247S", "name": "ECOLE MATERNELLE", "lat": 49.8335606, "lon": 1.6108821, "city": "ST LEGER AUX BOIS", "public_private": "PUBLIC" }, "geometry": { "type": "Point", "coordinates": [ 1.610882100000026, 49.833560600000055 ] } },
{ "type": "Feature", "properties": { "OBJECTID": 321701, "Shape": null, "id": "FR_0763310K", "name": "ECOLE MATERNELLE", "lat": 49.6494492, "lon": 0.9295024, "city": "ECTOT L AUBER", "public_private": "PUBLIC" }, "geometry": { "type": "Point", "coordinates": [ 0.929502400000047, 49.649449200000049 ] } },
{ "type": "Feature", "properties": { "OBJECTID": 321702, "Shape": null, "id": "FR_0763329F", "name": "ECOLE ÉLÉMENTAIRE LOUISE MICHEL", "lat": 49.5087137, "lon": 0.1839702, "city": "LE HAVRE", "public_private": "PUBLIC" }, "geometry": { "type": "Point", "coordinates": [ 0.183970200000033, 49.508713700000044 ] } },
{ "type": "Feature", "properties": { "OBJECTID": 321703, "Shape": null, "id": "FR_0763334L", "name": "ECOLE PRIMAIRE", "lat": 49.6813665, "lon": 0.3676053, "city": "AUBERVILLE LA RENAULT", "public_private": "PUBLIC" }, "geometry": { "type": "Point", "coordinates": [ 0.367605300000037, 49.681366500000081 ] } },
{ "type": "Feature", "properties": { "OBJECTID": 321704, "Shape": null, "id": "FR_0763336N", "name": "ECOLE MATERNELLE", "lat": 49.7107501, "lon": 1.4570161, "city": "NEUVILLE FERRIERES", "public_private": "PUBLIC" }, "geometry": { "type": "Point", "coordinates": [ 1.457016100000033, 49.710750100000041 ] } },
{ "type": "Feature", "properties": { "OBJECTID": 321705, "Shape": null, "id": "FR_0763359N", "name": "ECOLE MATERNELLE", "lat": 49.8412707, "lon": 1.227552, "city": "MEULERS", "public_private": "PUBLIC" }, "geometry": { "type": "Point", "coordinates": [ 1.227552, 49.841270700000052 ] } },
{ "type": "Feature", "properties": { "OBJECTID": 321706, "Shape": null, "id": "FR_0763374E", "name": "ECOLE ÉLÉMENTAIRE PRIVÉE SAINT FRANÇOIS DE SALES", "lat": 49.4526475, "lon": 1.059233229, "city": "ROUEN", "public_private": "PRIVATE" }, "geometry": { "type": "Point", "coordinates": [ 1.059233229000029, 49.452647500000069 ] } },
{ "type": "Feature", "properties": { "OBJECTID": 321707, "Shape": null, "id": "FR_0763462A", "name": "ECOLE PRIMAIRE MOLIÈRE", "lat": 49.4867263, "lon": 0.1323248, "city": "LE HAVRE", "public_private": "PUBLIC" }, "geometry": { "type": "Point", "coordinates": [ 0.132324800000049, 49.486726300000043 ] } },
{ "type": "Feature", "properties": { "OBJECTID": 321708, "Shape": null, "id": "FR_0763471K", "name": "ECOLE PRIMAIRE ROSA PARKS", "lat": 49.4284464, "lon": 1.0783079, "city": "ROUEN", "public_private": "PUBLIC" }, "geometry": { "type": "Point", "coordinates": [ 1.078307900000027, 49.428446400000041 ] } },
{ "type": "Feature", "properties": { "OBJECTID": 321709, "Shape": null, "id": "FR_0770071J", "name": "ECOLE ÉLÉMENTAIRE", "lat": 48.4176423, "lon": 3.2707071, "city": "JAULNES", "public_private": "PUBLIC" }, "geometry": { "type": "Point", "coordinates": [ 3.270707100000038, 48.417642300000068 ] } },
{ "type": "Feature", "properties": { "OBJECTID": 321710, "Shape": null, "id": "FR_0770082W", "name": "ECOLE ÉLÉMENTAIRE JULES FERRY", "lat": 48.688363, "lon": 2.611162, "city": "BRIE COMTE ROBERT", "public_private": "PUBLIC" }, "geometry": { "type": "Point", "coordinates": [ 2.611162, 48.688363 ] } },
{ "type": "Feature", "properties": { "OBJECTID": 321711, "Shape": null, "id": "FR_0770098N", "name": "ECOLE ÉLÉMENTAIRE CHAMP FLEURI", "lat": 48.68593115, "lon": 2.6709495, "city": "GRISY SUISNES", "public_private": "PUBLIC" }, "geometry": { "type": "Point", "coordinates": [ 2.670949500000063, 48.685931150000044 ] } },
{ "type": "Feature", "properties": { "OBJECTID": 321712, "Shape": null, "id": "FR_0770105W", "name": "ECOLE ÉLÉMENTAIRE LES 4 CHEMINS", "lat": 48.6271622, "lon": 2.6985695, "city": "LISSY", "public_private": "PUBLIC" }, "geometry": { "type": "Point", "coordinates": [ 2.698569500000076, 48.627162200000043 ] } },
{ "type": "Feature", "properties": { "OBJECTID": 321713, "Shape": null, "id": "FR_0770108Z", "name": "ECOLE PRIMAIRE LA COLOMBE", "lat": 48.610231, "lon": 2.6235754, "city": "REAU", "public_private": "PUBLIC" }, "geometry": { "type": "Point", "coordinates": [ 2.62357540000005, 48.610231 ] } },
{ "type": "Feature", "properties": { "OBJECTID": 321714, "Shape": null, "id": "FR_0770112D", "name": "ECOLE PRIMAIRE VAUBLAS", "lat": 48.3478928, "lon": 2.5641276, "city": "ACHERES LA FORET", "public_private": "PUBLIC" }, "geometry": { "type": "Point", "coordinates": [ 2.564127600000063, 48.347892800000068 ] } },
{ "type": "Feature", "properties": { "OBJECTID": 321715, "Shape": null, "id": "FR_0770123R", "name": "ECOLE ÉLÉMENTAIRE", "lat": 48.2840582, "lon": 2.5975553, "city": "LARCHANT", "public_private": "PUBLIC" }, "geometry": { "type": "Point", "coordinates": [ 2.597555300000067, 48.284058200000061 ] } },
{ "type": "Feature", "properties": { "OBJECTID": 321716, "Shape": null, "id": "FR_0770126U", "name": "ECOLE ÉLÉMENTAIRE", "lat": 48.347644, "lon": 2.6424688, "city": "RECLOSES", "public_private": "PUBLIC" }, "geometry": { "type": "Point", "coordinates": [ 2.642468800000074, 48.347644 ] } },
{ "type": "Feature", "properties": { "OBJECTID": 321717, "Shape": null, "id": "FR_0770128W", "name": "ECOLE PRIMAIRE", "lat": 48.3442826, "lon": 2.6035748, "city": "URY", "public_private": "PUBLIC" }, "geometry": { "type": "Point", "coordinates": [ 2.603574800000047, 48.344282600000042 ] } },
{ "type": "Feature", "properties": { "OBJECTID": 321718, "Shape": null, "id": "FR_0770133B", "name": "ECOLE PRIMAIRE", "lat": 48.1367446, "lon": 2.4764327, "city": "BEAUMONT DU GATINAIS", "public_private": "PUBLIC" }, "geometry": { "type": "Point", "coordinates": [ 2.476432700000032, 48.136744600000043 ] } },
{ "type": "Feature", "properties": { "OBJECTID": 321719, "Shape": null, "id": "FR_0770138G", "name": "ECOLE PRIMAIRE", "lat": 48.1992356, "lon": 2.8199663, "city": "CHAINTREAUX", "public_private": "PUBLIC" }, "geometry": { "type": "Point", "coordinates": [ 2.819966300000033, 48.199235600000065 ] } },
{ "type": "Feature", "properties": { "OBJECTID": 321720, "Shape": null, "id": "FR_0770141K", "name": "ECOLE ÉLÉMENTAIRE", "lat": 48.146838, "lon": 2.6946066, "city": "CHATEAU LANDON", "public_private": "PUBLIC" }, "geometry": { "type": "Point", "coordinates": [ 2.694606600000043, 48.146838 ] } },
{ "type": "Feature", "properties": { "OBJECTID": 321721, "Shape": null, "id": "FR_0770142L", "name": "ECOLE MATERNELLE ANDRÉ ROBIN", "lat": 48.14819545, "lon": 2.6942501, "city": "CHATEAU LANDON", "public_private": "PUBLIC" }, "geometry": { "type": "Point", "coordinates": [ 2.694250100000033, 48.14819545000006 ] } },
{ "type": "Feature", "properties": { "OBJECTID": 321722, "Shape": null, "id": "FR_0770163J", "name": "ECOLE PRIMAIRE", "lat": 48.48620165, "lon": 2.758411032, "city": "FONTAINE LE PORT", "public_private": "PUBLIC" }, "geometry": { "type": "Point", "coordinates": [ 2.758411032000026, 48.486201650000055 ] } },
{ "type": "Feature", "properties": { "OBJECTID": 321723, "Shape": null, "id": "FR_0770165L", "name": "ECOLE ÉLÉMENTAIRE JEAN CARCY", "lat": 48.4487226, "lon": 2.7643963, "city": "HERICY", "public_private": "PUBLIC" }, "geometry": { "type": "Point", "coordinates": [ 2.764396300000044, 48.448722600000053 ] } },
{ "type": "Feature", "properties": { "OBJECTID": 321724, "Shape": null, "id": "FR_0770196V", "name": "ECOLE MATERNELLE EMILE ZOLA", "lat": 48.9588905, "lon": 2.5943947, "city": "MITRY MORY", "public_private": "PUBLIC" }, "geometry": { "type": "Point", "coordinates": [ 2.594394700000066, 48.958890500000052 ] } },
{ "type": "Feature", "properties": { "OBJECTID": 321725, "Shape": null, "id": "FR_0770207G", "name": "ECOLE MATERNELLE ARISTIDE BRIAND", "lat": 48.9466844, "lon": 2.6095853, "city": "VILLEPARISIS", "public_private": "PUBLIC" }, "geometry": { "type": "Point", "coordinates": [ 2.609585300000049, 48.946684400000038 ] } },
{ "type": "Feature", "properties": { "OBJECTID": 321726, "Shape": null, "id": "FR_0770208H", "name": "ECOLE MATERNELLE RÉPUBLIQUE", "lat": 48.9380786, "lon": 2.6161147, "city": "VILLEPARISIS", "public_private": "PUBLIC" }, "geometry": { "type": "Point", "coordinates": [ 2.616114700000026, 48.93807860000004 ] } },
{ "type": "Feature", "properties": { "OBJECTID": 321727, "Shape": null, "id": "FR_0770220W", "name": "ECOLE PRIMAIRE GEOFFROY SAINT-HILAIRE", "lat": 48.7903561, "lon": 3.1239811, "city": "CHAILLY EN BRIE", "public_private": "PUBLIC" }, "geometry": { "type": "Point", "coordinates": [ 3.123981100000037, 48.790356100000054 ] } },
{ "type": "Feature", "properties": { "OBJECTID": 321728, "Shape": null, "id": "FR_0770222Y", "name": "ECOLE MATERNELLE PAULINE KERGOMARD", "lat": 48.8136437, "lon": 3.088553, "city": "COULOMMIERS", "public_private": "PUBLIC" }, "geometry": { "type": "Point", "coordinates": [ 3.088553, 48.813643700000057 ] } },
{ "type": "Feature", "properties": { "OBJECTID": 321729, "Shape": null, "id": "FR_0770232J", "name": "ECOLE ÉLÉMENTAIRE", "lat": 48.8444841, "lon": 3.0226947, "city": "GIREMOUTIERS", "public_private": "PUBLIC" }, "geometry": { "type": "Point", "coordinates": [ 3.022694700000045, 48.844484100000045 ] } },
{ "type": "Feature", "properties": { "OBJECTID": 321730, "Shape": null, "id": "FR_0770235M", "name": "ECOLE PRIMAIRE", "lat": 48.862791, "lon": 2.991009407, "city": "MAISONCELLES EN BRIE", "public_private": "PUBLIC" }, "geometry": { "type": "Point", "coordinates": [ 2.991009407000035, 48.862791 ] } },
{ "type": "Feature", "properties": { "OBJECTID": 321731, "Shape": null, "id": "FR_0770241U", "name": "ECOLE PRIMAIRE LE CHAMP DE SEIGLE", "lat": 48.8176559, "lon": 2.9904944, "city": "POMMEUSE", "public_private": "PUBLIC" }, "geometry": { "type": "Point", "coordinates": [ 2.990494400000046, 48.817655900000034 ] } },
{ "type": "Feature", "properties": { "OBJECTID": 321732, "Shape": null, "id": "FR_0770242V", "name": "ECOLE PRIMAIRE", "lat": 48.7869339, "lon": 3.030708976, "city": "ST AUGUSTIN", "public_private": "PUBLIC" }, "geometry": { "type": "Point", "coordinates": [ 3.030708976000028, 48.786933900000065 ] } },
{ "type": "Feature", "properties": { "OBJECTID": 321733, "Shape": null, "id": "FR_0770249C", "name": "ECOLE ÉLÉMENTAIRE DU GRAND MORIN", "lat": 48.8973389, "lon": 2.8305115, "city": "CONDE STE LIBIAIRE", "public_private": "PUBLIC" }, "geometry": { "type": "Point", "coordinates": [ 2.830511500000057, 48.897338900000079 ] } },
{ "type": "Feature", "properties": { "OBJECTID": 321734, "Shape": null, "id": "FR_0770271B", "name": "ECOLE ÉLÉMENTAIRE PATRICK THÉMEREAU", "lat": 48.8580248, "lon": 2.8801653, "city": "VILLIERS SUR MORIN", "public_private": "PUBLIC" }, "geometry": { "type": "Point", "coordinates": [ 2.880165300000044, 48.858024800000067 ] } },
{ "type": "Feature", "properties": { "OBJECTID": 321735, "Shape": null, "id": "FR_0770273D", "name": "ECOLE ÉLÉMENTAIRE", "lat": 49.009043, "lon": 2.735576489, "city": "VINANTES", "public_private": "PUBLIC" }, "geometry": { "type": "Point", "coordinates": [ 2.735576489000039, 49.009043 ] } },
{ "type": "Feature", "properties": { "OBJECTID": 321736, "Shape": null, "id": "FR_0770279K", "name": "ECOLE PRIMAIRE LE GRAND CHÊNE", "lat": 49.062263, "lon": 2.7158994, "city": "ROUVRES", "public_private": "PUBLIC" }, "geometry": { "type": "Point", "coordinates": [ 2.715899400000069, 49.062263 ] } },
{ "type": "Feature", "properties": { "OBJECTID": 321737, "Shape": null, "id": "FR_0770287U", "name": "ECOLE MATERNELLE", "lat": 49.0256846, "lon": 2.7439065, "city": "MONTGE EN GOELE", "public_private": "PUBLIC" }, "geometry": { "type": "Point", "coordinates": [ 2.743906500000037, 49.025684600000034 ] } },
{ "type": "Feature", "properties": { "OBJECTID": 321738, "Shape": null, "id": "FR_0770300H", "name": "ECOLE PRIMAIRE", "lat": 48.4214252, "lon": 3.1001197, "city": "CHATENAY SUR SEINE", "public_private": "PUBLIC" }, "geometry": { "type": "Point", "coordinates": [ 3.10011970000005, 48.421425200000044 ] } },
{ "type": "Feature", "properties": { "OBJECTID": 321739, "Shape": null, "id": "FR_0770304M", "name": "ECOLE ÉLÉMENTAIRE L'AUXENCE", "lat": 48.4773309, "lon": 3.1307846, "city": "DONNEMARIE DONTILLY", "public_private": "PUBLIC" }, "geometry": { "type": "Point", "coordinates": [ 3.130784600000027, 48.477330900000027 ] } },
{ "type": "Feature", "properties": { "OBJECTID": 321740, "Shape": null, "id": "FR_0770312W", "name": "ECOLE ÉLÉMENTAIRE JULES VERNE", "lat": 48.488504, "lon": 3.1465601, "city": "MONS EN MONTOIS", "public_private": "PUBLIC" }, "geometry": { "type": "Point", "coordinates": [ 3.146560100000045, 48.488504 ] } },
{ "type": "Feature", "properties": { "OBJECTID": 321741, "Shape": null, "id": "FR_0770318C", "name": "ECOLE ÉLÉMENTAIRE", "lat": 48.4864757, "lon": 3.0460521, "city": "VILLENEUVE LES BORDES", "public_private": "PUBLIC" }, "geometry": { "type": "Point", "coordinates": [ 3.046052100000054, 48.486475700000028 ] } },
{ "type": "Feature", "properties": { "OBJECTID": 321742, "Shape": null, "id": "FR_0770324J", "name": "ECOLE PRIMAIRE", "lat": 48.94874, "lon": 3.0867379, "city": "SAMMERON", "public_private": "PUBLIC" }, "geometry": { "type": "Point", "coordinates": [ 3.08673790000006, 48.94874 ] } },
{ "type": "Feature", "properties": { "OBJECTID": 321743, "Shape": null, "id": "FR_0770330R", "name": "ECOLE MATERNELLE LA SARMENTINE", "lat": 48.9791515, "lon": 3.2225389, "city": "NANTEUIL SUR MARNE", "public_private": "PUBLIC" }, "geometry": { "type": "Point", "coordinates": [ 3.222538900000075, 48.979151500000057 ] } },
{ "type": "Feature", "properties": { "OBJECTID": 321744, "Shape": null, "id": "FR_0770332T", "name": "ECOLE PRIMAIRE", "lat": 48.972606, "lon": 3.187565, "city": "LUZANCY", "public_private": "PUBLIC" }, "geometry": { "type": "Point", "coordinates": [ 3.187565, 48.972606 ] } },
{ "type": "Feature", "properties": { "OBJECTID": 321745, "Shape": null, "id": "FR_0770343E", "name": "ECOLE PRIMAIRE JOSEPH-PAUL MESLÉ", "lat": 48.9740471, "lon": 3.1518384, "city": "CHAMIGNY", "public_private": "PUBLIC" }, "geometry": { "type": "Point", "coordinates": [ 3.151838400000031, 48.974047100000064 ] } },
{ "type": "Feature", "properties": { "OBJECTID": 321746, "Shape": null, "id": "FR_0770357V", "name": "ECOLE PRIMAIRE LE CHAMPLAT", "lat": 48.7976715, "lon": 3.2678077, "city": "JOUY SUR MORIN", "public_private": "PUBLIC" }, "geometry": { "type": "Point", "coordinates": [ 3.267807700000048, 48.797671500000035 ] } },
{ "type": "Feature", "properties": { "OBJECTID": 321747, "Shape": null, "id": "FR_0770361Z", "name": "ECOLE PRIMAIRE", "lat": 48.7761002, "lon": 3.1623614, "city": "MAROLLES EN BRIE", "public_private": "PUBLIC" }, "geometry": { "type": "Point", "coordinates": [ 3.162361400000066, 48.77610020000003 ] } },
{ "type": "Feature", "properties": { "OBJECTID": 321748, "Shape": null, "id": "FR_0770364C", "name": "ECOLE ÉLÉMENTAIRE", "lat": 48.8166113, "lon": 3.3606905, "city": "ST BARTHELEMY", "public_private": "PUBLIC" }, "geometry": { "type": "Point", "coordinates": [ 3.360690500000032, 48.816611300000034 ] } },
{ "type": "Feature", "properties": { "OBJECTID": 321749, "Shape": null, "id": "FR_0770371K", "name": "ECOLE ÉLÉMENTAIRE LE PARC", "lat": 48.7399269, "lon": 2.60321648, "city": "LESIGNY", "public_private": "PUBLIC" }, "geometry": { "type": "Point", "coordinates": [ 2.603216480000071, 48.739926900000057 ] } },
{ "type": "Feature", "properties": { "OBJECTID": 321750, "Shape": null, "id": "FR_0770376R", "name": "ECOLE MATERNELLE LES TERRASSES", "lat": 48.4225546, "lon": 2.7314299, "city": "AVON", "public_private": "PUBLIC" }, "geometry": { "type": "Point", "coordinates": [ 2.731429900000023, 48.422554600000069 ] } },
{ "type": "Feature", "properties": { "OBJECTID": 321751, "Shape": null, "id": "FR_0770392H", "name": "ECOLE ÉLÉMENTAIRE", "lat": 48.4231428, "lon": 2.7542625, "city": "SAMOREAU", "public_private": "PUBLIC" }, "geometry": { "type": "Point", "coordinates": [ 2.754262500000038, 48.423142800000051 ] } },
{ "type": "Feature", "properties": { "OBJECTID": 321752, "Shape": null, "id": "FR_0770394K", "name": "ECOLE ÉLÉMENTAIRE JEAN JAURÈS", "lat": 48.8807445, "lon": 2.6289588, "city": "BROU SUR CHANTEREINE", "public_private": "PUBLIC" }, "geometry": { "type": "Point", "coordinates": [ 2.628958800000021, 48.880744500000048 ] } },
{ "type": "Feature", "properties": { "OBJECTID": 321753, "Shape": null, "id": "FR_0770414G", "name": "ECOLE ÉLÉMENTAIRE GEORGES FOURNIER", "lat": 48.8815035, "lon": 2.5786764, "city": "CHELLES", "public_private": "PUBLIC" }, "geometry": { "type": "Point", "coordinates": [ 2.578676400000063, 48.881503500000065 ] } },
{ "type": "Feature", "properties": { "OBJECTID": 321754, "Shape": null, "id": "FR_0770415H", "name": "ECOLE MATERNELLE GRANDE PRAIRIE", "lat": 48.8682315, "lon": 2.5793163, "city": "CHELLES", "public_private": "PUBLIC" }, "geometry": { "type": "Point", "coordinates": [ 2.579316300000073, 48.868231500000036 ] } },
{ "type": "Feature", "properties": { "OBJECTID": 321755, "Shape": null, "id": "FR_0770422R", "name": "ECOLE ÉLÉMENTAIRE DOCTEUR CALMETTE", "lat": 48.9006089, "lon": 2.5910968, "city": "CHELLES", "public_private": "PUBLIC" }, "geometry": { "type": "Point", "coordinates": [ 2.591096800000059, 48.900608900000066 ] } },
{ "type": "Feature", "properties": { "OBJECTID": 321756, "Shape": null, "id": "FR_0770425U", "name": "ECOLE ÉLÉMENTAIRE LES SAULES", "lat": 48.8390166, "lon": 2.6715766, "city": "COLLEGIEN", "public_private": "PUBLIC" }, "geometry": { "type": "Point", "coordinates": [ 2.671576600000037, 48.839016600000036 ] } },
{ "type": "Feature", "properties": { "OBJECTID": 321757, "Shape": null, "id": "FR_0770433C", "name": "ECOLE PRIMAIRE", "lat": 48.8618141, "lon": 2.6951514, "city": "GOUVERNES", "public_private": "PUBLIC" }, "geometry": { "type": "Point", "coordinates": [ 2.695151400000043, 48.861814100000061 ] } },
{ "type": "Feature", "properties": { "OBJECTID": 321758, "Shape": null, "id": "FR_0770435E", "name": "ECOLE ÉLÉMENTAIRE JACQUES-YVES COUSTEAU", "lat": 48.918302, "lon": 2.764495656, "city": "JABLINES", "public_private": "PUBLIC" }, "geometry": { "type": "Point", "coordinates": [ 2.764495656000065, 48.918302 ] } },
{ "type": "Feature", "properties": { "OBJECTID": 321759, "Shape": null, "id": "FR_0770437G", "name": "ECOLE PRIMAIRE FORT DU BOIS", "lat": 48.873201, "lon": 2.722836, "city": "LAGNY SUR MARNE", "public_private": "PUBLIC" }, "geometry": { "type": "Point", "coordinates": [ 2.722836, 48.873201 ] } },
{ "type": "Feature", "properties": { "OBJECTID": 321760, "Shape": null, "id": "FR_0770445R", "name": "ECOLE MATERNELLE LECLERC", "lat": 48.872988, "lon": 2.6952125, "city": "LAGNY SUR MARNE", "public_private": "PUBLIC" }, "geometry": { "type": "Point", "coordinates": [ 2.695212500000025, 48.872988 ] } },
{ "type": "Feature", "properties": { "OBJECTID": 321761, "Shape": null, "id": "FR_0770479C", "name": "ECOLE PRIMAIRE", "lat": 49.0341914, "lon": 2.9304433, "city": "ETREPILLY", "public_private": "PUBLIC" }, "geometry": { "type": "Point", "coordinates": [ 2.930443300000036, 49.034191400000054 ] } },
{ "type": "Feature", "properties": { "OBJECTID": 321762, "Shape": null, "id": "FR_0770487L", "name": "ECOLE PRIMAIRE", "lat": 49.074036, "lon": 3.0282703, "city": "MAY EN MULTIEN", "public_private": "PUBLIC" }, "geometry": { "type": "Point", "coordinates": [ 3.028270300000031, 49.074036 ] } },
{ "type": "Feature", "properties": { "OBJECTID": 321763, "Shape": null, "id": "FR_0770490P", "name": "ECOLE MATERNELLE", "lat": 49.0656259, "lon": 2.9169578, "city": "PUISIEUX", "public_private": "PUBLIC" }, "geometry": { "type": "Point", "coordinates": [ 2.916957800000034, 49.065625900000043 ] } },
{ "type": "Feature", "properties": { "OBJECTID": 321764, "Shape": null, "id": "FR_0770503D", "name": "ECOLE PRIMAIRE", "lat": 48.3110267, "lon": 2.9231116, "city": "FLAGY", "public_private": "PUBLIC" }, "geometry": { "type": "Point", "coordinates": [ 2.923111600000027, 48.31102670000007 ] } },
{ "type": "Feature", "properties": { "OBJECTID": 321765, "Shape": null, "id": "FR_0770504E", "name": "ECOLE ÉLÉMENTAIRE LES CHENEVIÈRES", "lat": 48.2396099, "lon": 2.9013862, "city": "LORREZ LE BOCAGE PREAUX", "public_private": "PUBLIC" }, "geometry": { "type": "Point", "coordinates": [ 2.901386200000047, 48.239609900000062 ] } },
{ "type": "Feature", "properties": { "OBJECTID": 321766, "Shape": null, "id": "FR_0770528F", "name": "ECOLE MATERNELLE ANTOINE DE SAINT-EXUPÉRY", "lat": 48.9494039, "lon": 2.8942973, "city": "MEAUX", "public_private": "PUBLIC" }, "geometry": { "type": "Point", "coordinates": [ 2.894297300000062, 48.94940390000005 ] } },
{ "type": "Feature", "properties": { "OBJECTID": 321767, "Shape": null, "id": "FR_0770532K", "name": "ECOLE MATERNELLE GEORGES GUYNEMER", "lat": 48.9494039, "lon": 2.8942973, "city": "MEAUX", "public_private": "PUBLIC" }, "geometry": { "type": "Point", "coordinates": [ 2.894297300000062, 48.94940390000005 ] } },
{ "type": "Feature", "properties": { "OBJECTID": 321768, "Shape": null, "id": "FR_0770534M", "name": "ECOLE PRIMAIRE VAL FLEURI", "lat": 48.955314, "lon": 2.9226864, "city": "MEAUX", "public_private": "PUBLIC" }, "geometry": { "type": "Point", "coordinates": [ 2.922686400000032, 48.955314 ] } },
{ "type": "Feature", "properties": { "OBJECTID": 321769, "Shape": null, "id": "FR_0770544Y", "name": "ECOLE ÉLÉMENTAIRE COMPAYRE GROUPE 1", "lat": 48.94966623, "lon": 2.9033086, "city": "MEAUX", "public_private": "PUBLIC" }, "geometry": { "type": "Point", "coordinates": [ 2.903308600000059, 48.949666230000048 ] } },
{ "type": "Feature", "properties": { "OBJECTID": 321770, "Shape": null, "id": "FR_0770545Z", "name": "ECOLE MATERNELLE PINTEVILLE", "lat": 48.962295, "lon": 2.872349, "city": "MEAUX", "public_private": "PUBLIC" }, "geometry": { "type": "Point", "coordinates": [ 2.872349, 48.962295 ] } },
{ "type": "Feature", "properties": { "OBJECTID": 321771, "Shape": null, "id": "FR_0770555K", "name": "ECOLE PRIMAIRE", "lat": 48.9686303, "lon": 2.9346419, "city": "POINCY", "public_private": "PUBLIC" }, "geometry": { "type": "Point", "coordinates": [ 2.934641900000031, 48.968630300000029 ] } },
{ "type": "Feature", "properties": { "OBJECTID": 321772, "Shape": null, "id": "FR_0770573E", "name": "ECOLE MATERNELLE PUBLIQUE GABRIEL LEROY", "lat": 48.5335274, "lon": 2.6586913, "city": "MELUN", "public_private": "PUBLIC" }, "geometry": { "type": "Point", "coordinates": [ 2.658691300000044, 48.533527400000025 ] } },
{ "type": "Feature", "properties": { "OBJECTID": 321773, "Shape": null, "id": "FR_0770600J", "name": "ECOLE MATERNELLE ROUCHON", "lat": 48.5295405, "lon": 2.682426184, "city": "VAUX LE PENIL", "public_private": "PUBLIC" }, "geometry": { "type": "Point", "coordinates": [ 2.682426184000064, 48.529540500000053 ] } },
{ "type": "Feature", "properties": { "OBJECTID": 321774, "Shape": null, "id": "FR_0770624K", "name": "ECOLE ÉLÉMENTAIRE DES TILLEULS", "lat": 48.4774564, "lon": 2.5574202, "city": "PERTHES", "public_private": "PUBLIC" }, "geometry": { "type": "Point", "coordinates": [ 2.557420200000024, 48.477456400000051 ] } },
{ "type": "Feature", "properties": { "OBJECTID": 321775, "Shape": null, "id": "FR_0770634W", "name": "ECOLE MATERNELLE FENEZ GROUPE 1", "lat": 48.5413806, "lon": 2.6362091, "city": "LE MEE SUR SEINE", "public_private": "PUBLIC" }, "geometry": { "type": "Point", "coordinates": [ 2.636209100000031, 48.541380600000082 ] } },
{ "type": "Feature", "properties": { "OBJECTID": 321776, "Shape": null, "id": "FR_0770638A", "name": "ECOLE ÉLÉMENTAIRE DU MENHIR", "lat": 48.4371332, "lon": 2.5673102, "city": "ST MARTIN EN BIERE", "public_private": "PUBLIC" }, "geometry": { "type": "Point", "coordinates": [ 2.567310200000065, 48.437133200000062 ] } },
{ "type": "Feature", "properties": { "OBJECTID": 321777, "Shape": null, "id": "FR_0770642E", "name": "ECOLE ÉLÉMENTAIRE LES TOURNESOLS", "lat": 48.360334, "lon": 2.983083196, "city": "CANNES ECLUSE", "public_private": "PUBLIC" }, "geometry": { "type": "Point", "coordinates": [ 2.983083196000052, 48.360334 ] } },
{ "type": "Feature", "properties": { "OBJECTID": 321778, "Shape": null, "id": "FR_0770647K", "name": "ECOLE ÉLÉMENTAIRE ACHILLE PIERRE", "lat": 48.3842639, "lon": 2.8987728, "city": "LA GRANDE PAROISSE", "public_private": "PUBLIC" }, "geometry": { "type": "Point", "coordinates": [ 2.898772800000074, 48.384263900000064 ] } },
{ "type": "Feature", "properties": { "OBJECTID": 321779, "Shape": null, "id": "FR_0770652R", "name": "ECOLE PRIMAIRE VILLA MARIE-LOUISE", "lat": 48.3921804, "lon": 2.9539467, "city": "MONTEREAU FAULT YONNE", "public_private": "PUBLIC" }, "geometry": { "type": "Point", "coordinates": [ 2.953946700000074, 48.392180400000029 ] } },
{ "type": "Feature", "properties": { "OBJECTID": 321780, "Shape": null, "id": "FR_0770659Y", "name": "ECOLE ÉLÉMENTAIRE CLOS DION", "lat": 48.3950421, "lon": 2.9448365, "city": "MONTEREAU FAULT YONNE", "public_private": "PUBLIC" }, "geometry": { "type": "Point", "coordinates": [ 2.944836500000065, 48.395042100000069 ] } },
{ "type": "Feature", "properties": { "OBJECTID": 321781, "Shape": null, "id": "FR_0770663C", "name": "ECOLE MATERNELLE VICTOR HUGO", "lat": 48.3871193, "lon": 2.9534662, "city": "MONTEREAU FAULT YONNE", "public_private": "PUBLIC" }, "geometry": { "type": "Point", "coordinates": [ 2.953466200000037, 48.387119300000052 ] } },
{ "type": "Feature", "properties": { "OBJECTID": 321782, "Shape": null, "id": "FR_0770664D", "name": "ECOLE ÉLÉMENTAIRE LA POTERIE", "lat": 48.3877566, "lon": 2.9555303, "city": "MONTEREAU FAULT YONNE", "public_private": "PUBLIC" }, "geometry": { "type": "Point", "coordinates": [ 2.955530300000021, 48.387756600000046 ] } },
{ "type": "Feature", "properties": { "OBJECTID": 321783, "Shape": null, "id": "FR_0770666F", "name": "ECOLE ÉLÉMENTAIRE COURBETON", "lat": 48.4124546, "lon": 2.9870124, "city": "ST GERMAIN LAVAL", "public_private": "PUBLIC" }, "geometry": { "type": "Point", "coordinates": [ 2.987012400000026, 48.412454600000046 ] } },
{ "type": "Feature", "properties": { "OBJECTID": 321784, "Shape": null, "id": "FR_0770671L", "name": "ECOLE MATERNELLE LOUIS ARAGON", "lat": 48.3738949, "lon": 2.94089115, "city": "VARENNES SUR SEINE", "public_private": "PUBLIC" }, "geometry": { "type": "Point", "coordinates": [ 2.940891150000027, 48.373894900000039 ] } },
{ "type": "Feature", "properties": { "OBJECTID": 321785, "Shape": null, "id": "FR_0770674P", "name": "ECOLE ÉLÉMENTAIRE HENRI MAUGE", "lat": 48.3948577, "lon": 2.8028617, "city": "CHAMPAGNE SUR SEINE", "public_private": "PUBLIC" }, "geometry": { "type": "Point", "coordinates": [ 2.802861700000051, 48.394857700000045 ] } },
{ "type": "Feature", "properties": { "OBJECTID": 321786, "Shape": null, "id": "FR_0770685B", "name": "ECOLE MATERNELLE DONJON", "lat": 48.3706027, "lon": 2.8188574, "city": "MORET LOING ET ORVANNE", "public_private": "PUBLIC" }, "geometry": { "type": "Point", "coordinates": [ 2.81885740000007, 48.370602700000063 ] } },
{ "type": "Feature", "properties": { "OBJECTID": 321787, "Shape": null, "id": "FR_0770688E", "name": "ECOLE ÉLÉMENTAIRE BENOÎT PLASSARD", "lat": 48.3870788, "lon": 2.8118808, "city": "ST MAMMES", "public_private": "PUBLIC" }, "geometry": { "type": "Point", "coordinates": [ 2.81188080000004, 48.38707880000004 ] } },
{ "type": "Feature", "properties": { "OBJECTID": 321788, "Shape": null, "id": "FR_0770693K", "name": "ECOLE ÉLÉMENTAIRE ALEXANDRE CHEVRIER", "lat": 48.3795521, "lon": 2.7910041, "city": "MORET LOING ET ORVANNE", "public_private": "PUBLIC" }, "geometry": { "type": "Point", "coordinates": [ 2.791004100000066, 48.379552100000069 ] } },
{ "type": "Feature", "properties": { "OBJECTID": 321789, "Shape": null, "id": "FR_0770701U", "name": "ECOLE PRIMAIRE", "lat": 48.612041, "lon": 2.814236, "city": "ANDREZEL", "public_private": "PUBLIC" }, "geometry": { "type": "Point", "coordinates": [ 2.814236, 48.612041 ] } },
{ "type": "Feature", "properties": { "OBJECTID": 321790, "Shape": null, "id": "FR_0770703W", "name": "ECOLE ÉLÉMENTAIRE PETIT VAUGIRARD", "lat": 48.3870516, "lon": 2.9515647, "city": "MONTEREAU FAULT YONNE", "public_private": "PUBLIC" }, "geometry": { "type": "Point", "coordinates": [ 2.951564700000063, 48.387051600000063 ] } },
{ "type": "Feature", "properties": { "OBJECTID": 321791, "Shape": null, "id": "FR_0770735F", "name": "ECOLE PRIMAIRE", "lat": 48.5940254, "lon": 3.0748093, "city": "LA CROIX EN BRIE", "public_private": "PUBLIC" }, "geometry": { "type": "Point", "coordinates": [ 3.074809300000027, 48.594025400000078 ] } },
{ "type": "Feature", "properties": { "OBJECTID": 321792, "Shape": null, "id": "FR_0770749W", "name": "ECOLE ÉLÉMENTAIRE", "lat": 48.5791306, "lon": 3.1384834, "city": "VIEUX CHAMPAGNE", "public_private": "PUBLIC" }, "geometry": { "type": "Point", "coordinates": [ 3.138483400000041, 48.579130600000042 ] } },
{ "type": "Feature", "properties": { "OBJECTID": 321793, "Shape": null, "id": "FR_0770788N", "name": "ECOLE PRIMAIRE", "lat": 48.53956125, "lon": 3.28426159, "city": "POIGNY", "public_private": "PUBLIC" }, "geometry": { "type": "Point", "coordinates": [ 3.284261590000028, 48.539561250000077 ] } },
{ "type": "Feature", "properties": { "OBJECTID": 321794, "Shape": null, "id": "FR_0770790R", "name": "ECOLE ÉLÉMENTAIRE COUDOUX", "lat": 48.5684439, "lon": 3.2913349, "city": "PROVINS", "public_private": "PUBLIC" }, "geometry": { "type": "Point", "coordinates": [ 3.291334900000038, 48.568443900000034 ] } },
{ "type": "Feature", "properties": { "OBJECTID": 321795, "Shape": null, "id": "FR_0770791S", "name": "ECOLE MATERNELLE COUDOUX", "lat": 48.5684439, "lon": 3.2913349, "city": "PROVINS", "public_private": "PUBLIC" }, "geometry": { "type": "Point", "coordinates": [ 3.291334900000038, 48.568443900000034 ] } },
{ "type": "Feature", "properties": { "OBJECTID": 321796, "Shape": null, "id": "FR_0770803E", "name": "ECOLE ÉLÉMENTAIRE", "lat": 48.509863, "lon": 3.2899593, "city": "SOISY BOUY", "public_private": "PUBLIC" }, "geometry": { "type": "Point", "coordinates": [ 3.289959300000021, 48.509863 ] } },
{ "type": "Feature", "properties": { "OBJECTID": 321797, "Shape": null, "id": "FR_0770808K", "name": "ECOLE ÉLÉMENTAIRE", "lat": 48.8173719, "lon": 3.1840267, "city": "CHAUFFRY", "public_private": "PUBLIC" }, "geometry": { "type": "Point", "coordinates": [ 3.184026700000061, 48.817371900000069 ] } },
{ "type": "Feature", "properties": { "OBJECTID": 321798, "Shape": null, "id": "FR_0770814S", "name": "ECOLE ÉLÉMENTAIRE", "lat": 48.8484305, "lon": 3.2331336, "city": "REBAIS", "public_private": "PUBLIC" }, "geometry": { "type": "Point", "coordinates": [ 3.233133600000031, 48.848430500000063 ] } },
{ "type": "Feature", "properties": { "OBJECTID": 321799, "Shape": null, "id": "FR_0770826E", "name": "ECOLE ÉLÉMENTAIRE", "lat": 48.8747985, "lon": 3.3681419, "city": "VERDELOT", "public_private": "PUBLIC" }, "geometry": { "type": "Point", "coordinates": [ 3.368141900000069, 48.874798500000054 ] } },
{ "type": "Feature", "properties": { "OBJECTID": 321800, "Shape": null, "id": "FR_0770827F", "name": "ECOLE ÉLÉMENTAIRE", "lat": 48.8617448, "lon": 3.3390646, "city": "VILLENEUVE SUR BELLOT", "public_private": "PUBLIC" }, "geometry": { "type": "Point", "coordinates": [ 3.339064600000029, 48.861744800000054 ] } },
{ "type": "Feature", "properties": { "OBJECTID": 321801, "Shape": null, "id": "FR_0770831K", "name": "ECOLE ÉLÉMENTAIRE LA FAYETTE", "lat": 48.6478797, "lon": 2.9618845, "city": "COURPALAY", "public_private": "PUBLIC" }, "geometry": { "type": "Point", "coordinates": [ 2.961884500000053, 48.647879700000033 ] } },
{ "type": "Feature", "properties": { "OBJECTID": 321802, "Shape": null, "id": "FR_0770832L", "name": "ECOLE PRIMAIRE", "lat": 48.7546872, "lon": 2.9083464, "city": "CREVECOEUR EN BRIE", "public_private": "PUBLIC" }, "geometry": { "type": "Point", "coordinates": [ 2.908346400000028, 48.754687200000035 ] } },
{ "type": "Feature", "properties": { "OBJECTID": 321803, "Shape": null, "id": "FR_0770855L", "name": "ECOLE PRIMAIRE LES CHERELLES", "lat": 48.270957, "lon": 2.708501, "city": "NEMOURS", "public_private": "PUBLIC" }, "geometry": { "type": "Point", "coordinates": [ 2.708501, 48.270957 ] } },
{ "type": "Feature", "properties": { "OBJECTID": 321804, "Shape": null, "id": "FR_0770870C", "name": "ECOLE ÉLÉMENTAIRE GRUET", "lat": 48.7716535, "lon": 2.675454, "city": "OZOIR LA FERRIERE", "public_private": "PUBLIC" }, "geometry": { "type": "Point", "coordinates": [ 2.675454, 48.77165350000007 ] } },
{ "type": "Feature", "properties": { "OBJECTID": 321805, "Shape": null, "id": "FR_0770875H", "name": "ECOLE ÉLÉMENTAIRE LOUIS GRANET", "lat": 48.7917228, "lon": 2.6039851, "city": "PONTAULT COMBAULT", "public_private": "PUBLIC" }, "geometry": { "type": "Point", "coordinates": [ 2.603985100000045, 48.791722800000059 ] } },
{ "type": "Feature", "properties": { "OBJECTID": 321806, "Shape": null, "id": "FR_0770880N", "name": "ECOLE MATERNELLE EMILE PAJOT", "lat": 48.8022809, "lon": 2.6074465, "city": "PONTAULT COMBAULT", "public_private": "PUBLIC" }, "geometry": { "type": "Point", "coordinates": [ 2.607446500000037, 48.802280900000028 ] } },
{ "type": "Feature", "properties": { "OBJECTID": 321807, "Shape": null, "id": "FR_0770889Y", "name": "ECOLE ÉLÉMENTAIRE ODETTE MARTEAU", "lat": 48.7388142, "lon": 2.7671437, "city": "TOURNAN EN BRIE", "public_private": "PUBLIC" }, "geometry": { "type": "Point", "coordinates": [ 2.76714370000002, 48.738814200000036 ] } },
{ "type": "Feature", "properties": { "OBJECTID": 321808, "Shape": null, "id": "FR_0770891A", "name": "ECOLE MATERNELLE LA MADELEINE", "lat": 48.7383798, "lon": 2.7665341, "city": "TOURNAN EN BRIE", "public_private": "PUBLIC" }, "geometry": { "type": "Point", "coordinates": [ 2.766534100000058, 48.738379800000075 ] } },
{ "type": "Feature", "properties": { "OBJECTID": 321809, "Shape": null, "id": "FR_0770906S", "name": "ECOLE ÉLÉMENTAIRE", "lat": 48.5057873, "lon": 3.3868855, "city": "MELZ SUR SEINE", "public_private": "PUBLIC" }, "geometry": { "type": "Point", "coordinates": [ 3.386885500000062, 48.505787300000065 ] } },
{ "type": "Feature", "properties": { "OBJECTID": 321810, "Shape": null, "id": "FR_0770960A", "name": "ECOLE ÉLÉMENTAIRE PARC DE L'AULNAY", "lat": 48.8747504, "lon": 2.641349176, "city": "VAIRES SUR MARNE", "public_private": "PUBLIC" }, "geometry": { "type": "Point", "coordinates": [ 2.641349176000062, 48.874750400000039 ] } },
{ "type": "Feature", "properties": { "OBJECTID": 321811, "Shape": null, "id": "FR_0771001V", "name": "ECOLE PRIMAIRE", "lat": 48.4124308, "lon": 3.3949382, "city": "FONTAINE FOURCHES", "public_private": "PUBLIC" }, "geometry": { "type": "Point", "coordinates": [ 3.39493820000007, 48.412430800000038 ] } },
{ "type": "Feature", "properties": { "OBJECTID": 321812, "Shape": null, "id": "FR_0771028Z", "name": "SECTION D'ENSEIGNEMENT PROFESSIONNEL DU LYCÉE ETIENNE BEZOUT", "lat": 48.261981, "lon": 2.711974, "city": "NEMOURS CEDEX", "public_private": "PUBLIC" }, "geometry": { "type": "Point", "coordinates": [ 2.711974, 48.261981 ] } },
{ "type": "Feature", "properties": { "OBJECTID": 321813, "Shape": null, "id": "FR_0771050Y", "name": "ECOLE ÉLÉMENTAIRE LA BUTTE MONTCEAU", "lat": 48.411598, "lon": 2.7384628, "city": "AVON", "public_private": "PUBLIC" }, "geometry": { "type": "Point", "coordinates": [ 2.738462800000036, 48.411598 ] } },
{ "type": "Feature", "properties": { "OBJECTID": 321814, "Shape": null, "id": "FR_0771057F", "name": "ECOLE MATERNELLE JEAN MACÉ", "lat": 48.86953, "lon": 2.70347, "city": "LAGNY SUR MARNE", "public_private": "PUBLIC" }, "geometry": { "type": "Point", "coordinates": [ 2.70347, 48.86953 ] } },
{ "type": "Feature", "properties": { "OBJECTID": 321815, "Shape": null, "id": "FR_0771066R", "name": "ECOLE MATERNELLE FRANÇOISE DOLTO", "lat": 48.5492461, "lon": 2.6524144, "city": "MELUN", "public_private": "PUBLIC" }, "geometry": { "type": "Point", "coordinates": [ 2.652414400000055, 48.549246100000062 ] } },
{ "type": "Feature", "properties": { "OBJECTID": 321816, "Shape": null, "id": "FR_0771067S", "name": "ECOLE MATERNELLE CALMETTE", "lat": 48.9025836, "lon": 2.5940537, "city": "CHELLES", "public_private": "PUBLIC" }, "geometry": { "type": "Point", "coordinates": [ 2.594053700000075, 48.902583600000071 ] } },
{ "type": "Feature", "properties": { "OBJECTID": 321817, "Shape": null, "id": "FR_0771099B", "name": "ECOLE MATERNELLE MOQUESOURIS", "lat": 48.6804273, "lon": 2.9631043, "city": "ROZAY EN BRIE", "public_private": "PUBLIC" }, "geometry": { "type": "Point", "coordinates": [ 2.963104300000055, 48.680427300000076 ] } },
{ "type": "Feature", "properties": { "OBJECTID": 321818, "Shape": null, "id": "FR_0771109M", "name": "ECOLE MATERNELLE CHARLES MOREAU-VAUTHIER", "lat": 48.341227, "lon": 2.709234, "city": "BOURRON MARLOTTE", "public_private": "PUBLIC" }, "geometry": { "type": "Point", "coordinates": [ 2.709234, 48.341227 ] } },
{ "type": "Feature", "properties": { "OBJECTID": 321819, "Shape": null, "id": "FR_0771143Z", "name": "ECOLE MATERNELLE JULIETTE GEORGE", "lat": 48.508968, "lon": 2.614913016, "city": "DAMMARIE LES LYS", "public_private": "PUBLIC" }, "geometry": { "type": "Point", "coordinates": [ 2.61491301600006, 48.508968 ] } },
{ "type": "Feature", "properties": { "OBJECTID": 321820, "Shape": null, "id": "FR_0771145B", "name": "ECOLE ÉLÉMENTAIRE ROSE VALLAND", "lat": 48.5522942, "lon": 2.6472516, "city": "MELUN", "public_private": "PUBLIC" }, "geometry": { "type": "Point", "coordinates": [ 2.647251600000061, 48.552294200000063 ] } },
{ "type": "Feature", "properties": { "OBJECTID": 321821, "Shape": null, "id": "FR_0771160T", "name": "ECOLE MATERNELLE SUZANNE DEMETZ", "lat": 48.8816404, "lon": 2.6278482, "city": "BROU SUR CHANTEREINE", "public_private": "PUBLIC" }, "geometry": { "type": "Point", "coordinates": [ 2.627848200000074, 48.881640400000038 ] } },
{ "type": "Feature", "properties": { "OBJECTID": 321822, "Shape": null, "id": "FR_0771222K", "name": "COLLÈGE PRIVÉ SAINTE CÉLINE", "lat": 48.949335, "lon": 3.126839563, "city": "LA FERTE SOUS JOUARRE", "public_private": "PRIVATE" }, "geometry": { "type": "Point", "coordinates": [ 3.126839563000033, 48.949335 ] } },
{ "type": "Feature", "properties": { "OBJECTID": 321823, "Shape": null, "id": "FR_0771233X", "name": "COLLÈGE PRIVÉ SAINTE FOY", "lat": 48.8107141, "lon": 3.0835291, "city": "COULOMMIERS", "public_private": "PRIVATE" }, "geometry": { "type": "Point", "coordinates": [ 3.083529100000021, 48.810714100000041 ] } },
{ "type": "Feature", "properties": { "OBJECTID": 321824, "Shape": null, "id": "FR_0771264F", "name": "ECOLE PRIMAIRE PRIVÉE SAINTE-MARIE", "lat": 48.51500345, "lon": 2.640767491, "city": "DAMMARIE LES LYS", "public_private": "PRIVATE" }, "geometry": { "type": "Point", "coordinates": [ 2.64076749100002, 48.515003450000052 ] } },
{ "type": "Feature", "properties": { "OBJECTID": 321825, "Shape": null, "id": "FR_0771282A", "name": "ECOLE PRIMAIRE PRIVÉE SAINT-ALBERT", "lat": 49.0245551, "lon": 3.0230382, "city": "LIZY SUR OURCQ", "public_private": "PRIVATE" }, "geometry": { "type": "Point", "coordinates": [ 3.02303820000003, 49.024555100000043 ] } },
{ "type": "Feature", "properties": { "OBJECTID": 321826, "Shape": null, "id": "FR_0771287F", "name": "ECOLE PRIMAIRE PRIVÉE SAINT-PAUL", "lat": 48.57125145, "lon": 2.594666692, "city": "CESSON", "public_private": "PRIVATE" }, "geometry": { "type": "Point", "coordinates": [ 2.594666692000033, 48.571251450000034 ] } },
{ "type": "Feature", "properties": { "OBJECTID": 321827, "Shape": null, "id": "FR_0771288G", "name": "ECOLE PRIMAIRE PRIVÉE JEANNE D'ARC", "lat": 48.5422915, "lon": 2.6607548, "city": "MELUN", "public_private": "PRIVATE" }, "geometry": { "type": "Point", "coordinates": [ 2.660754800000063, 48.542291500000033 ] } },
{ "type": "Feature", "properties": { "OBJECTID": 321828, "Shape": null, "id": "FR_0771291K", "name": "ECOLE PRIMAIRE PRIVÉE NOTRE DAME D'ESPÉRANCE", "lat": 48.373787, "lon": 2.8141272, "city": "MORET LOING ET ORVANNE", "public_private": "PRIVATE" }, "geometry": { "type": "Point", "coordinates": [ 2.81412720000003, 48.373787 ] } },
{ "type": "Feature", "properties": { "OBJECTID": 321829, "Shape": null, "id": "FR_0771311G", "name": "ECOLE MATERNELLE JULES FERRY", "lat": 48.707588, "lon": 2.8673525, "city": "FONTENAY TRESIGNY", "public_private": "PUBLIC" }, "geometry": { "type": "Point", "coordinates": [ 2.867352500000038, 48.707588 ] } },
{ "type": "Feature", "properties": { "OBJECTID": 321830, "Shape": null, "id": "FR_0771317N", "name": "ECOLE ÉLÉMENTAIRE ALAIN GROUPE 1", "lat": 48.9530493, "lon": 2.9039982, "city": "MEAUX", "public_private": "PUBLIC" }, "geometry": { "type": "Point", "coordinates": [ 2.903998200000046, 48.953049300000032 ] } },
{ "type": "Feature", "properties": { "OBJECTID": 321831, "Shape": null, "id": "FR_0771328A", "name": "ECOLE ÉLÉMENTAIRE LA BRÈCHE AUX LOUPS", "lat": 48.763449, "lon": 2.6750646, "city": "OZOIR LA FERRIERE", "public_private": "PUBLIC" }, "geometry": { "type": "Point", "coordinates": [ 2.675064600000042, 48.763449 ] } },
{ "type": "Feature", "properties": { "OBJECTID": 321832, "Shape": null, "id": "FR_0771352B", "name": "ECOLE MATERNELLE ABEILARD", "lat": 48.5329589, "lon": 2.6501819, "city": "MELUN", "public_private": "PUBLIC" }, "geometry": { "type": "Point", "coordinates": [ 2.650181900000064, 48.53295890000004 ] } },