{
"type": "FeatureCollection",
"name": "EU_education14",
"crs": { "type": "name", "properties": { "name": "urn:ogc:def:crs:OGC:1.3:CRS84" } },
"features": [
{ "type": "Feature", "properties": { "OBJECTID": 160759, "Shape": null, "id": "IT_NAIC8G200V", "name": "I.C. 4' SULMONA -CATULLO-SAL", "lat": 40.90739, "lon": 14.38668, "city": "POMIGLIANO D'ARCO", "public_private": "PUBLIC" }, "geometry": { "type": "Point", "coordinates": [ 14.38668, 40.90739 ] } },
{ "type": "Feature", "properties": { "OBJECTID": 160760, "Shape": null, "id": "IT_VEEE826023", "name": "MARCO POLO", "lat": 45.6029666, "lon": 12.5427008, "city": "MUSILE DI PIAVE", "public_private": "PUBLIC" }, "geometry": { "type": "Point", "coordinates": [ 12.542700800000034, 45.602966600000059 ] } },
{ "type": "Feature", "properties": { "OBJECTID": 160761, "Shape": null, "id": "IT_CRAA811012", "name": "INFANZIA GENIVOLTA", "lat": 45.3358664, "lon": 9.8791939, "city": "GENIVOLTA", "public_private": "PUBLIC" }, "geometry": { "type": "Point", "coordinates": [ 9.879193900000075, 45.335866400000043 ] } },
{ "type": "Feature", "properties": { "OBJECTID": 160762, "Shape": null, "id": "IT_IMPS00701E", "name": "LICEO SCIENTIFICO", "lat": 43.8172537, "lon": 7.7747764, "city": "SANREMO", "public_private": "PUBLIC" }, "geometry": { "type": "Point", "coordinates": [ 7.774776400000064, 43.817253700000037 ] } },
{ "type": "Feature", "properties": { "OBJECTID": 160763, "Shape": null, "id": "IT_NUAA872032", "name": "MACOMER 1 - VIA ALDO MORO", "lat": 40.2570733, "lon": 8.7671593, "city": "MACOMER", "public_private": "PUBLIC" }, "geometry": { "type": "Point", "coordinates": [ 8.76715930000006, 40.257073300000059 ] } },
{ "type": "Feature", "properties": { "OBJECTID": 160764, "Shape": null, "id": "IT_FIIC85000T", "name": "LE CURE", "lat": 43.7885845, "lon": 11.2733783, "city": "FIRENZE", "public_private": "PUBLIC" }, "geometry": { "type": "Point", "coordinates": [ 11.273378300000047, 43.78858450000007 ] } },
{ "type": "Feature", "properties": { "OBJECTID": 160765, "Shape": null, "id": "IT_TSEE81501T", "name": "E. MORPURGO", "lat": 45.63945, "lon": 13.76554, "city": "TRIESTE", "public_private": "PUBLIC" }, "geometry": { "type": "Point", "coordinates": [ 13.76554, 45.63945 ] } },
{ "type": "Feature", "properties": { "OBJECTID": 160766, "Shape": null, "id": "IT_RCAA10003N", "name": "MELITO PORTO SALVO - LACCO", "lat": 37.95329, "lon": 15.79376, "city": "MELITO DI PORTO SALVO", "public_private": "PUBLIC" }, "geometry": { "type": "Point", "coordinates": [ 15.79376, 37.95329 ] } },
{ "type": "Feature", "properties": { "OBJECTID": 160767, "Shape": null, "id": "IT_CNEE812039", "name": "ROCCAFORTE M.VI' MAESTRA DHO", "lat": 44.31819, "lon": 7.74691, "city": "ROCCAFORTE MONDOVI'", "public_private": "PUBLIC" }, "geometry": { "type": "Point", "coordinates": [ 7.74691, 44.31819 ] } },
{ "type": "Feature", "properties": { "OBJECTID": 160768, "Shape": null, "id": "IT_RMEE8EA01V", "name": "BARTOLOMEI", "lat": 41.9269226, "lon": 12.5174041, "city": "ROMA", "public_private": "PUBLIC" }, "geometry": { "type": "Point", "coordinates": [ 12.517404100000022, 41.926922600000069 ] } },
{ "type": "Feature", "properties": { "OBJECTID": 160769, "Shape": null, "id": "IT_MTMM823014", "name": "\"C. SALINARI\"- MONTESCAGLIOSO", "lat": 40.5532751, "lon": 16.6644299, "city": "MONTESCAGLIOSO", "public_private": "PUBLIC" }, "geometry": { "type": "Point", "coordinates": [ 16.664429900000073, 40.553275100000064 ] } },
{ "type": "Feature", "properties": { "OBJECTID": 160770, "Shape": null, "id": "IT_TOAA86703R", "name": "IC GRUGLIASCO DI NANNI-DA VINCI", "lat": 45.0557047, "lon": 7.5866586, "city": "GRUGLIASCO", "public_private": "PUBLIC" }, "geometry": { "type": "Point", "coordinates": [ 7.586658600000021, 45.055704700000035 ] } },
{ "type": "Feature", "properties": { "OBJECTID": 160771, "Shape": null, "id": "IT_RMEE83601R", "name": "I.C.\"MARCO ULPIO TRAIANO\"", "lat": 41.794541, "lon": 12.3224619, "city": "ROMA", "public_private": "PUBLIC" }, "geometry": { "type": "Point", "coordinates": [ 12.322461900000064, 41.794541 ] } },
{ "type": "Feature", "properties": { "OBJECTID": 160772, "Shape": null, "id": "IT_TAEE80702A", "name": "GIOVANNI VIGESIMOTERZO", "lat": 40.3575397, "lon": 17.7262413, "city": "AVETRANA", "public_private": "PUBLIC" }, "geometry": { "type": "Point", "coordinates": [ 17.726241300000027, 40.357539700000075 ] } },
{ "type": "Feature", "properties": { "OBJECTID": 160773, "Shape": null, "id": "IT_BOAA84701R", "name": "PONTE SANTO", "lat": 44.3693786, "lon": 11.69911091, "city": "IMOLA", "public_private": "PUBLIC" }, "geometry": { "type": "Point", "coordinates": [ 11.699110910000059, 44.369378600000061 ] } },
{ "type": "Feature", "properties": { "OBJECTID": 160774, "Shape": null, "id": "IT_VIAA876026", "name": "G.RODARI", "lat": 45.5127761, "lon": 11.4004887, "city": "MONTECCHIO MAGGIORE", "public_private": "PUBLIC" }, "geometry": { "type": "Point", "coordinates": [ 11.400488700000039, 45.512776100000053 ] } },
{ "type": "Feature", "properties": { "OBJECTID": 160775, "Shape": null, "id": "IT_BSIC8AD007", "name": "IC \"A. BELLI\"-SABBIO CHIESE", "lat": 45.6542059, "lon": 10.4203172, "city": "SABBIO CHIESE", "public_private": "PUBLIC" }, "geometry": { "type": "Point", "coordinates": [ 10.420317200000056, 45.654205900000079 ] } },
{ "type": "Feature", "properties": { "OBJECTID": 160776, "Shape": null, "id": "IT_ANAA834059", "name": "CASTELL.\"BAMBINI DI S.GIULIANO\"", "lat": 43.6081934, "lon": 12.981193, "city": "CASTELLEONE DI SUASA", "public_private": "PUBLIC" }, "geometry": { "type": "Point", "coordinates": [ 12.981193, 43.608193400000062 ] } },
{ "type": "Feature", "properties": { "OBJECTID": 160777, "Shape": null, "id": "IT_MBIC8AE002", "name": "IC DON LORENZO MILANI/ MONZA", "lat": 45.58292275, "lon": 9.258180874000001, "city": "MONZA", "public_private": "PUBLIC" }, "geometry": { "type": "Point", "coordinates": [ 9.258180874000061, 45.58292275000008 ] } },
{ "type": "Feature", "properties": { "OBJECTID": 160778, "Shape": null, "id": "IT_RMEE8FF01L", "name": "M.POGGIALI - VIA LEONORI", "lat": 41.847638, "lon": 12.4901239, "city": "ROMA", "public_private": "PUBLIC" }, "geometry": { "type": "Point", "coordinates": [ 12.490123900000071, 41.847638 ] } },
{ "type": "Feature", "properties": { "OBJECTID": 160779, "Shape": null, "id": "IT_CEEE82301T", "name": "SCUOLA PRIMARIA G. FANCIULLI", "lat": 41.1617192, "lon": 14.2317897, "city": "BELLONA", "public_private": "PUBLIC" }, "geometry": { "type": "Point", "coordinates": [ 14.231789700000036, 41.16171920000005 ] } },
{ "type": "Feature", "properties": { "OBJECTID": 160780, "Shape": null, "id": "IT_TOMM8B701C", "name": "I.C.C.SO VERCELLI - G.B.VIOTTI", "lat": 45.1163309, "lon": 7.7015473, "city": "TORINO", "public_private": "PUBLIC" }, "geometry": { "type": "Point", "coordinates": [ 7.701547300000072, 45.116330900000037 ] } },
{ "type": "Feature", "properties": { "OBJECTID": 160781, "Shape": null, "id": "IT_CTEE828017", "name": "G.TOMASI DI LAMPEDUSA", "lat": 37.539987, "lon": 15.0664951, "city": "GRAVINA DI CATANIA", "public_private": "PUBLIC" }, "geometry": { "type": "Point", "coordinates": [ 15.066495100000054, 37.539987 ] } },
{ "type": "Feature", "properties": { "OBJECTID": 160782, "Shape": null, "id": "IT_GEAA85601E", "name": "S.MAT. DI SORI", "lat": 44.3788274, "lon": 9.0655539, "city": "SORI", "public_private": "PUBLIC" }, "geometry": { "type": "Point", "coordinates": [ 9.065553900000054, 44.378827400000034 ] } },
{ "type": "Feature", "properties": { "OBJECTID": 160783, "Shape": null, "id": "IT_APAA810028", "name": "FRAZ. TORRE DI PALME", "lat": 43.14128, "lon": 13.8095, "city": "FERMO", "public_private": "PUBLIC" }, "geometry": { "type": "Point", "coordinates": [ 13.8095, 43.14128 ] } },
{ "type": "Feature", "properties": { "OBJECTID": 160784, "Shape": null, "id": "IT_LTAA82203L", "name": "SC. MATERNA PIRANDELLO", "lat": 41.6009607, "lon": 12.6538311, "city": "APRILIA", "public_private": "PUBLIC" }, "geometry": { "type": "Point", "coordinates": [ 12.653831100000048, 41.60096070000003 ] } },
{ "type": "Feature", "properties": { "OBJECTID": 160785, "Shape": null, "id": "IT_NAAA892011", "name": "I.C. CAPUOZZO - SCUOLA INFANZIA", "lat": 40.8566658, "lon": 14.28454403, "city": "NAPOLI", "public_private": "PUBLIC" }, "geometry": { "type": "Point", "coordinates": [ 14.284544030000063, 40.85666580000003 ] } },
{ "type": "Feature", "properties": { "OBJECTID": 160786, "Shape": null, "id": "IT_MIEE8CR04B", "name": "PRIMARIA VIA GABBRO", "lat": 45.514725, "lon": 9.1613235, "city": "MILANO", "public_private": "PUBLIC" }, "geometry": { "type": "Point", "coordinates": [ 9.161323500000037, 45.514725 ] } },
{ "type": "Feature", "properties": { "OBJECTID": 160787, "Shape": null, "id": "IT_MSMM823011", "name": "SEC. I GR. I.C. \"STAFFETTI\"", "lat": 44.02600905, "lon": 10.13696625, "city": "MASSA", "public_private": "PUBLIC" }, "geometry": { "type": "Point", "coordinates": [ 10.136966250000057, 44.026009050000027 ] } },
{ "type": "Feature", "properties": { "OBJECTID": 160788, "Shape": null, "id": "IT_TOEE85002G", "name": "I.C.CASTIGLIONE - RIVALBA", "lat": 45.1204093, "lon": 7.888872, "city": "RIVALBA", "public_private": "PUBLIC" }, "geometry": { "type": "Point", "coordinates": [ 7.888872, 45.120409300000063 ] } },
{ "type": "Feature", "properties": { "OBJECTID": 160789, "Shape": null, "id": "IT_RMEE8BZ01E", "name": "VIA LIONE", "lat": 41.8210087, "lon": 12.4548751, "city": "ROMA", "public_private": "PUBLIC" }, "geometry": { "type": "Point", "coordinates": [ 12.454875100000038, 41.82100870000005 ] } },
{ "type": "Feature", "properties": { "OBJECTID": 160790, "Shape": null, "id": "IT_AGMM813013", "name": "F.CRISPI", "lat": 37.62742895, "lon": 13.48858301, "city": "SANTO STEFANO QUISQUINA", "public_private": "PUBLIC" }, "geometry": { "type": "Point", "coordinates": [ 13.48858301000007, 37.62742895000008 ] } },
{ "type": "Feature", "properties": { "OBJECTID": 160791, "Shape": null, "id": "IT_RCEE815147", "name": "PRIMARIA CARERI CENTRO", "lat": 38.1764863, "lon": 16.1140496, "city": "CARERI", "public_private": "PUBLIC" }, "geometry": { "type": "Point", "coordinates": [ 16.114049600000044, 38.176486300000079 ] } },
{ "type": "Feature", "properties": { "OBJECTID": 160792, "Shape": null, "id": "IT_SRAA85501E", "name": "4^I.C. \"PLESSO CENTRALE\"", "lat": 36.714213, "lon": 15.0796944, "city": "PACHINO", "public_private": "PUBLIC" }, "geometry": { "type": "Point", "coordinates": [ 15.079694400000051, 36.714213 ] } },
{ "type": "Feature", "properties": { "OBJECTID": 160793, "Shape": null, "id": "IT_PRAA81002C", "name": "SCUOLA MATERNA DI VARSI", "lat": 44.6645909, "lon": 9.8491195, "city": "VARSI", "public_private": "PUBLIC" }, "geometry": { "type": "Point", "coordinates": [ 9.849119500000029, 44.664590900000064 ] } },
{ "type": "Feature", "properties": { "OBJECTID": 160794, "Shape": null, "id": "IT_NAMM8F2019", "name": "GIOVANNI XXIII -SANT'ANTIMO-", "lat": 40.93757, "lon": 14.23575, "city": "SANT'ANTIMO", "public_private": "PUBLIC" }, "geometry": { "type": "Point", "coordinates": [ 14.23575, 40.93757 ] } },
{ "type": "Feature", "properties": { "OBJECTID": 160795, "Shape": null, "id": "IT_VIIC868009", "name": "IC VICENZA 7", "lat": 45.5643504, "lon": 11.5602023, "city": "VICENZA", "public_private": "PUBLIC" }, "geometry": { "type": "Point", "coordinates": [ 11.560202300000071, 45.56435040000008 ] } },
{ "type": "Feature", "properties": { "OBJECTID": 160796, "Shape": null, "id": "IT_RMEE8GN02C", "name": "IC CIVITAVECCHIA II - G. RODARI", "lat": 42.0959983, "lon": 11.7975719, "city": "CIVITAVECCHIA", "public_private": "PUBLIC" }, "geometry": { "type": "Point", "coordinates": [ 11.797571900000037, 42.095998300000076 ] } },
{ "type": "Feature", "properties": { "OBJECTID": 160797, "Shape": null, "id": "IT_TOEE8AB03T", "name": "I.C. IVREA II-OLIVETTI", "lat": 45.4515106, "lon": 7.877184, "city": "IVREA", "public_private": "PUBLIC" }, "geometry": { "type": "Point", "coordinates": [ 7.877184, 45.451510600000063 ] } },
{ "type": "Feature", "properties": { "OBJECTID": 160798, "Shape": null, "id": "IT_MNAA80103P", "name": "ACQUANEGRA S.C. SCUOLA MATERNA", "lat": 45.1640535, "lon": 10.4326951, "city": "ACQUANEGRA SUL CHIESE", "public_private": "PUBLIC" }, "geometry": { "type": "Point", "coordinates": [ 10.432695100000046, 45.16405350000008 ] } },
{ "type": "Feature", "properties": { "OBJECTID": 160799, "Shape": null, "id": "IT_PZPS12000V", "name": "L.S. \"PASOLINI\" POTENZA", "lat": 40.640135, "lon": 15.7906662, "city": "POTENZA", "public_private": "PUBLIC" }, "geometry": { "type": "Point", "coordinates": [ 15.790666200000032, 40.640135 ] } },
{ "type": "Feature", "properties": { "OBJECTID": 160800, "Shape": null, "id": "IT_LEMM81305T", "name": "PALMARIGGI", "lat": 40.1338053, "lon": 18.3779526, "city": "PALMARIGGI", "public_private": "PUBLIC" }, "geometry": { "type": "Point", "coordinates": [ 18.377952600000071, 40.133805300000063 ] } },
{ "type": "Feature", "properties": { "OBJECTID": 160801, "Shape": null, "id": "IT_VBEE81502R", "name": "SCUOLA PRIMARIA \"TOMASSETTI\"", "lat": 45.9425482, "lon": 8.5603745, "city": "VERBANIA", "public_private": "PUBLIC" }, "geometry": { "type": "Point", "coordinates": [ 8.560374500000023, 45.942548200000033 ] } },
{ "type": "Feature", "properties": { "OBJECTID": 160802, "Shape": null, "id": "IT_LCAA81501X", "name": "INFANZIA MONDO BAMBINO", "lat": 45.7654352, "lon": 9.2508617, "city": "COSTA MASNAGA", "public_private": "PUBLIC" }, "geometry": { "type": "Point", "coordinates": [ 9.25086170000003, 45.76543520000007 ] } },
{ "type": "Feature", "properties": { "OBJECTID": 160803, "Shape": null, "id": "IT_CRIC82300B", "name": "IC CREMONA CINQUE", "lat": 45.1435081, "lon": 10.028099, "city": "CREMONA", "public_private": "PUBLIC" }, "geometry": { "type": "Point", "coordinates": [ 10.028099, 45.143508100000076 ] } },
{ "type": "Feature", "properties": { "OBJECTID": 160804, "Shape": null, "id": "IT_PEEE829023", "name": "GIUSEPPE VERZELLA", "lat": 42.51615, "lon": 14.09212, "city": "CITTA' SANT'ANGELO", "public_private": "PUBLIC" }, "geometry": { "type": "Point", "coordinates": [ 14.09212, 42.51615 ] } },
{ "type": "Feature", "properties": { "OBJECTID": 160805, "Shape": null, "id": "IT_BAIC85700G", "name": "I.C. \"R.SCARDIGNO-SAN D. SAVIO\"", "lat": 41.1970605, "lon": 16.6035435, "city": "MOLFETTA", "public_private": "PUBLIC" }, "geometry": { "type": "Point", "coordinates": [ 16.603543500000058, 41.197060500000077 ] } },
{ "type": "Feature", "properties": { "OBJECTID": 160806, "Shape": null, "id": "IT_SRRH02901D", "name": "IIS \"LUIGI EINAUDI\" - IPC", "lat": 37.0873, "lon": 15.27744, "city": "SIRACUSA", "public_private": "PUBLIC" }, "geometry": { "type": "Point", "coordinates": [ 15.27744, 37.0873 ] } },
{ "type": "Feature", "properties": { "OBJECTID": 160807, "Shape": null, "id": "IT_TOAA8AL03C", "name": "I.C. CIRIE' II - P.ZZA SCUOLE", "lat": 45.23409, "lon": 7.6036, "city": "CIRIE'", "public_private": "PUBLIC" }, "geometry": { "type": "Point", "coordinates": [ 7.6036, 45.23409 ] } },
{ "type": "Feature", "properties": { "OBJECTID": 160808, "Shape": null, "id": "IT_BNAA862038", "name": "AIROLA \"S. DONATO\"", "lat": 41.0578898, "lon": 14.5543141, "city": "AIROLA", "public_private": "PUBLIC" }, "geometry": { "type": "Point", "coordinates": [ 14.554314100000056, 41.057889800000055 ] } },
{ "type": "Feature", "properties": { "OBJECTID": 160809, "Shape": null, "id": "IT_PIMM824026", "name": "E.FERMI", "lat": 43.2123708, "lon": 10.9028541, "city": "CASTELNUOVO DI VAL DI CECINA", "public_private": "PUBLIC" }, "geometry": { "type": "Point", "coordinates": [ 10.90285410000007, 43.212370800000031 ] } },
{ "type": "Feature", "properties": { "OBJECTID": 160810, "Shape": null, "id": "IT_ENPS00201V", "name": "\"GIOVANNI FALCONE\"", "lat": 37.3810357, "lon": 14.2082907, "city": "BARRAFRANCA", "public_private": "PUBLIC" }, "geometry": { "type": "Point", "coordinates": [ 14.208290700000077, 37.381035700000041 ] } },
{ "type": "Feature", "properties": { "OBJECTID": 160811, "Shape": null, "id": "IT_VAIC87600E", "name": "I.C. GALLARATE \"DE AMICIS\"", "lat": 45.6577257, "lon": 8.8053851, "city": "GALLARATE", "public_private": "PUBLIC" }, "geometry": { "type": "Point", "coordinates": [ 8.805385100000024, 45.657725700000071 ] } },
{ "type": "Feature", "properties": { "OBJECTID": 160812, "Shape": null, "id": "IT_CSEE887076", "name": "LATTARICO - REGINA", "lat": 39.4536664, "lon": 16.1604686, "city": "LATTARICO", "public_private": "PUBLIC" }, "geometry": { "type": "Point", "coordinates": [ 16.160468600000058, 39.453666400000031 ] } },
{ "type": "Feature", "properties": { "OBJECTID": 160813, "Shape": null, "id": "IT_PATD03701V", "name": "V.PARETO", "lat": 38.1429187, "lon": 13.3380852, "city": "PALERMO", "public_private": "PUBLIC" }, "geometry": { "type": "Point", "coordinates": [ 13.338085200000023, 38.142918700000052 ] } },
{ "type": "Feature", "properties": { "OBJECTID": 160814, "Shape": null, "id": "IT_VIAA856021", "name": "SAN GIORGIO", "lat": 45.4528572, "lon": 11.3490496, "city": "GAMBELLARA", "public_private": "PUBLIC" }, "geometry": { "type": "Point", "coordinates": [ 11.349049600000058, 45.452857200000039 ] } },
{ "type": "Feature", "properties": { "OBJECTID": 160815, "Shape": null, "id": "IT_LTEE847036", "name": "E. DE AMICIS", "lat": 41.4719625, "lon": 12.8987214, "city": "LATINA", "public_private": "PUBLIC" }, "geometry": { "type": "Point", "coordinates": [ 12.898721400000056, 41.471962500000075 ] } },
{ "type": "Feature", "properties": { "OBJECTID": 160816, "Shape": null, "id": "IT_UDIC84500N", "name": "TRASAGHIS", "lat": 46.31602, "lon": 13.0541, "city": "TRASAGHIS", "public_private": "PUBLIC" }, "geometry": { "type": "Point", "coordinates": [ 13.0541, 46.31602 ] } },
{ "type": "Feature", "properties": { "OBJECTID": 160817, "Shape": null, "id": "IT_TVEE883016", "name": "\"G. MARCONI\"-MONTEBELLUNA CAP.", "lat": 45.7747095, "lon": 12.0418299, "city": "MONTEBELLUNA", "public_private": "PUBLIC" }, "geometry": { "type": "Point", "coordinates": [ 12.041829900000039, 45.774709500000029 ] } },
{ "type": "Feature", "properties": { "OBJECTID": 160818, "Shape": null, "id": "IT_PEMM81001X", "name": "S.M. \"B.CROCE\" - SAN VALENTINO", "lat": 42.23327, "lon": 13.98782, "city": "SAN VALENTINO IN ABRUZZO CITER", "public_private": "PUBLIC" }, "geometry": { "type": "Point", "coordinates": [ 13.98782, 42.23327 ] } },
{ "type": "Feature", "properties": { "OBJECTID": 160819, "Shape": null, "id": "IT_COMM84101V", "name": "S.M.S. \"E.FERMI\"", "lat": 45.75257, "lon": 9.22042, "city": "LURAGO D'ERBA", "public_private": "PUBLIC" }, "geometry": { "type": "Point", "coordinates": [ 9.22042, 45.75257 ] } },
{ "type": "Feature", "properties": { "OBJECTID": 160820, "Shape": null, "id": "IT_BOEE81402Q", "name": "LAVINO DI MEZZO", "lat": 44.53395, "lon": 11.22912, "city": "ANZOLA DELL'EMILIA", "public_private": "PUBLIC" }, "geometry": { "type": "Point", "coordinates": [ 11.22912, 44.53395 ] } },
{ "type": "Feature", "properties": { "OBJECTID": 160821, "Shape": null, "id": "IT_LOAA81002G", "name": "INFANZIA G. DELEDDA - SAN ROCCO", "lat": 45.0838364, "lon": 9.6982714, "city": "SAN ROCCO AL PORTO", "public_private": "PUBLIC" }, "geometry": { "type": "Point", "coordinates": [ 9.698271400000067, 45.083836400000052 ] } },
{ "type": "Feature", "properties": { "OBJECTID": 160822, "Shape": null, "id": "IT_RMAA8BQ015", "name": "VIA APPIANO", "lat": 41.9135424, "lon": 12.4382798, "city": "ROMA", "public_private": "PUBLIC" }, "geometry": { "type": "Point", "coordinates": [ 12.438279800000032, 41.91354240000004 ] } },
{ "type": "Feature", "properties": { "OBJECTID": 160823, "Shape": null, "id": "IT_ALEE80603N", "name": "BOSIO - MAESTRO ELIGIO GHIO", "lat": 44.6487993, "lon": 8.791683, "city": "BOSIO", "public_private": "PUBLIC" }, "geometry": { "type": "Point", "coordinates": [ 8.791683, 44.648799300000064 ] } },
{ "type": "Feature", "properties": { "OBJECTID": 160824, "Shape": null, "id": "IT_VREE853012", "name": "BELFIORE \"D.ALIGHIERI\"", "lat": 45.3801451, "lon": 11.2088561, "city": "BELFIORE", "public_private": "PUBLIC" }, "geometry": { "type": "Point", "coordinates": [ 11.208856100000048, 45.38014510000005 ] } },
{ "type": "Feature", "properties": { "OBJECTID": 160825, "Shape": null, "id": "IT_CAAA81205X", "name": "SCUOLA MATERNA DI VIA CORSICA", "lat": 39.20969415, "lon": 9.137852012, "city": "CAGLIARI", "public_private": "PUBLIC" }, "geometry": { "type": "Point", "coordinates": [ 9.137852012000053, 39.209694150000075 ] } },
{ "type": "Feature", "properties": { "OBJECTID": 160826, "Shape": null, "id": "IT_RCEE83912N", "name": "NUNZIATA", "lat": 38.325887, "lon": 16.2988267, "city": "GIOIOSA IONICA", "public_private": "PUBLIC" }, "geometry": { "type": "Point", "coordinates": [ 16.298826700000063, 38.325887 ] } },
{ "type": "Feature", "properties": { "OBJECTID": 160827, "Shape": null, "id": "IT_TVEE876013", "name": "M. POLO", "lat": 45.7451416, "lon": 12.2101237, "city": "VILLORBA", "public_private": "PUBLIC" }, "geometry": { "type": "Point", "coordinates": [ 12.210123700000054, 45.745141600000068 ] } },
{ "type": "Feature", "properties": { "OBJECTID": 160828, "Shape": null, "id": "IT_RMAA8FG028", "name": "TOR DE' CENCI - FRATELLI GRIMM", "lat": 41.7741681, "lon": 12.4382684, "city": "ROMA", "public_private": "PUBLIC" }, "geometry": { "type": "Point", "coordinates": [ 12.438268400000027, 41.774168100000054 ] } },
{ "type": "Feature", "properties": { "OBJECTID": 160829, "Shape": null, "id": "IT_CEMM86701E", "name": "G.MAZZINI -S.NICOLA LA STRADA-", "lat": 41.0506576, "lon": 14.3319054, "city": "SAN NICOLA LA STRADA", "public_private": "PUBLIC" }, "geometry": { "type": "Point", "coordinates": [ 14.331905400000039, 41.050657600000079 ] } },
{ "type": "Feature", "properties": { "OBJECTID": 160830, "Shape": null, "id": "IT_APAA804065", "name": "CUPRAMARITTIMA", "lat": 43.0230239, "lon": 13.8595618, "city": "CUPRA MARITTIMA", "public_private": "PUBLIC" }, "geometry": { "type": "Point", "coordinates": [ 13.859561800000051, 43.023023900000055 ] } },
{ "type": "Feature", "properties": { "OBJECTID": 160831, "Shape": null, "id": "IT_RMAA8G902E", "name": "VIA DEI MARSI", "lat": 41.895701, "lon": 12.5145853, "city": "ROMA", "public_private": "PUBLIC" }, "geometry": { "type": "Point", "coordinates": [ 12.514585300000022, 41.895701 ] } },
{ "type": "Feature", "properties": { "OBJECTID": 160832, "Shape": null, "id": "IT_BAMM81601A", "name": "DUSE SECONDARIA PRIMO GRADO", "lat": 41.1363876, "lon": 16.81482692, "city": "BARI", "public_private": "PUBLIC" }, "geometry": { "type": "Point", "coordinates": [ 16.81482692000003, 41.136387600000035 ] } },
{ "type": "Feature", "properties": { "OBJECTID": 160833, "Shape": null, "id": "IT_MBTF062018", "name": "CESANO MADERNO", "lat": 45.62175, "lon": 9.14339, "city": "CESANO MADERNO", "public_private": "PUBLIC" }, "geometry": { "type": "Point", "coordinates": [ 9.14339, 45.62175 ] } },
{ "type": "Feature", "properties": { "OBJECTID": 160834, "Shape": null, "id": "IT_CTAA815021", "name": "F. GUGLIELMINO - ACICATENA", "lat": 37.5851, "lon": 15.14428, "city": "ACI CATENA", "public_private": "PUBLIC" }, "geometry": { "type": "Point", "coordinates": [ 15.14428, 37.5851 ] } },
{ "type": "Feature", "properties": { "OBJECTID": 160835, "Shape": null, "id": "IT_NUIS007004", "name": "ISTITUTO D'ISTRUZIONE SUPERIORE I.T.I.", "lat": 39.92657, "lon": 9.64995, "city": "TORTOLI'", "public_private": "PUBLIC" }, "geometry": { "type": "Point", "coordinates": [ 9.64995, 39.92657 ] } },
{ "type": "Feature", "properties": { "OBJECTID": 160836, "Shape": null, "id": "IT_TOAA823011", "name": "I.C.SANT'AMBROGIO-WALT DISNEY", "lat": 45.0981127, "lon": 7.3640894, "city": "SANT'AMBROGIO DI TORINO", "public_private": "PUBLIC" }, "geometry": { "type": "Point", "coordinates": [ 7.364089400000069, 45.098112700000058 ] } },
{ "type": "Feature", "properties": { "OBJECTID": 160837, "Shape": null, "id": "IT_SSEE02713N", "name": "ISTICADEDDU - OLBIA", "lat": 40.92251, "lon": 9.48685, "city": "OLBIA", "public_private": "PUBLIC" }, "geometry": { "type": "Point", "coordinates": [ 9.48685, 40.92251 ] } },
{ "type": "Feature", "properties": { "OBJECTID": 160838, "Shape": null, "id": "IT_VTMM819025", "name": "SCUOLA SEC. I GRADOLI", "lat": 42.643842, "lon": 11.8546958, "city": "GRADOLI", "public_private": "PUBLIC" }, "geometry": { "type": "Point", "coordinates": [ 11.854695800000059, 42.643842 ] } },
{ "type": "Feature", "properties": { "OBJECTID": 160839, "Shape": null, "id": "IT_MEMM851012", "name": "SALVO D'ACQUISTO", "lat": 38.1509387, "lon": 15.5322328, "city": "MESSINA", "public_private": "PUBLIC" }, "geometry": { "type": "Point", "coordinates": [ 15.532232800000031, 38.15093870000004 ] } },
{ "type": "Feature", "properties": { "OBJECTID": 160840, "Shape": null, "id": "IT_ARIC813003", "name": "I.C. VASARI", "lat": 43.47301015, "lon": 11.87619665, "city": "AREZZO", "public_private": "PUBLIC" }, "geometry": { "type": "Point", "coordinates": [ 11.876196650000054, 43.47301015000005 ] } },
{ "type": "Feature", "properties": { "OBJECTID": 160841, "Shape": null, "id": "IT_BAIC86600A", "name": "I.C. \"MUSTI - DIMICCOLI\"", "lat": 41.3181096, "lon": 16.2728804, "city": "BARLETTA", "public_private": "PUBLIC" }, "geometry": { "type": "Point", "coordinates": [ 16.272880400000076, 41.318109600000071 ] } },
{ "type": "Feature", "properties": { "OBJECTID": 160842, "Shape": null, "id": "IT_BOEE82901C", "name": "R.L. MONTALCINI I.C. RASTIGNANO", "lat": 44.4412401, "lon": 11.3567502, "city": "PIANORO", "public_private": "PUBLIC" }, "geometry": { "type": "Point", "coordinates": [ 11.356750200000022, 44.441240100000073 ] } },
{ "type": "Feature", "properties": { "OBJECTID": 160843, "Shape": null, "id": "IT_MBTD41000Q", "name": "ACHILLE MAPELLI", "lat": 45.5924497, "lon": 9.307333472, "city": "MONZA", "public_private": "PUBLIC" }, "geometry": { "type": "Point", "coordinates": [ 9.307333472000039, 45.592449700000031 ] } },
{ "type": "Feature", "properties": { "OBJECTID": 160844, "Shape": null, "id": "IT_ROPM01000Q", "name": "LICEO \"CELIO-ROCCATI\" ROVIGO", "lat": 45.0646337, "lon": 11.8502175, "city": "ROVIGO", "public_private": "PUBLIC" }, "geometry": { "type": "Point", "coordinates": [ 11.850217500000042, 45.064633700000059 ] } },
{ "type": "Feature", "properties": { "OBJECTID": 160845, "Shape": null, "id": "IT_SRAA836015", "name": "I I.C. \"V. VENETO\" LENTINI", "lat": 37.286874, "lon": 15.001659, "city": "LENTINI", "public_private": "PUBLIC" }, "geometry": { "type": "Point", "coordinates": [ 15.001659, 37.286874 ] } },
{ "type": "Feature", "properties": { "OBJECTID": 160846, "Shape": null, "id": "IT_NAEE8C4027", "name": "T. GRECO IC 3 - D'ASSISI", "lat": 40.7801324, "lon": 14.3798657, "city": "TORRE DEL GRECO", "public_private": "PUBLIC" }, "geometry": { "type": "Point", "coordinates": [ 14.379865700000039, 40.78013240000007 ] } },
{ "type": "Feature", "properties": { "OBJECTID": 160847, "Shape": null, "id": "IT_BOAA809023", "name": "SCUOLA INFANZIA CASALFIUMANESE", "lat": 44.2984637, "lon": 11.6214237, "city": "CASALFIUMANESE", "public_private": "PUBLIC" }, "geometry": { "type": "Point", "coordinates": [ 11.621423700000037, 44.29846370000007 ] } },
{ "type": "Feature", "properties": { "OBJECTID": 160848, "Shape": null, "id": "IT_RMEE8AK03A", "name": "PALOMBARA SABINA C.U.", "lat": 42.0698996, "lon": 12.7638065, "city": "PALOMBARA SABINA", "public_private": "PUBLIC" }, "geometry": { "type": "Point", "coordinates": [ 12.763806500000044, 42.069899600000042 ] } },
{ "type": "Feature", "properties": { "OBJECTID": 160849, "Shape": null, "id": "IT_BRTD010042", "name": "ISTITUTO TECNICO COMM.LE PER IL TURISMO", "lat": 40.5027462, "lon": 17.6403653, "city": "ORIA", "public_private": "PUBLIC" }, "geometry": { "type": "Point", "coordinates": [ 17.640365300000042, 40.502746200000047 ] } },
{ "type": "Feature", "properties": { "OBJECTID": 160850, "Shape": null, "id": "IT_SSIC84000B", "name": "I.C. PIAZZA DELLA LIBERTA'", "lat": 40.90005, "lon": 9.10416, "city": "TEMPIO PAUSANIA", "public_private": "PUBLIC" }, "geometry": { "type": "Point", "coordinates": [ 9.10416, 40.90005 ] } },
{ "type": "Feature", "properties": { "OBJECTID": 160851, "Shape": null, "id": "IT_ATAA81102X", "name": "SC.MATERNA STAT.SAN DAMIANO CAP", "lat": 44.8285, "lon": 8.06307, "city": "SAN DAMIANO D'ASTI", "public_private": "PUBLIC" }, "geometry": { "type": "Point", "coordinates": [ 8.06307, 44.8285 ] } },
{ "type": "Feature", "properties": { "OBJECTID": 160852, "Shape": null, "id": "IT_BAAA80604P", "name": "CHIAIA", "lat": 41.1214701, "lon": 16.7972897, "city": "BARI", "public_private": "PUBLIC" }, "geometry": { "type": "Point", "coordinates": [ 16.797289700000022, 41.121470100000067 ] } },
{ "type": "Feature", "properties": { "OBJECTID": 160853, "Shape": null, "id": "IT_PDMM87704V", "name": "MERLARA SEZ. DI CASALE DI SCOD.", "lat": 45.16530985, "lon": 11.44499767, "city": "MERLARA", "public_private": "PUBLIC" }, "geometry": { "type": "Point", "coordinates": [ 11.444997670000021, 45.165309850000028 ] } },
{ "type": "Feature", "properties": { "OBJECTID": 160854, "Shape": null, "id": "IT_PVMM80401D", "name": "MEDE -A. MASSAZZA", "lat": 45.0966435, "lon": 8.7393671, "city": "MEDE", "public_private": "PUBLIC" }, "geometry": { "type": "Point", "coordinates": [ 8.739367100000038, 45.096643500000027 ] } },
{ "type": "Feature", "properties": { "OBJECTID": 160855, "Shape": null, "id": "IT_BSIC82500N", "name": "I.C. VOBARNO", "lat": 45.6439503, "lon": 10.5038067, "city": "VOBARNO", "public_private": "PUBLIC" }, "geometry": { "type": "Point", "coordinates": [ 10.503806700000041, 45.643950300000029 ] } },
{ "type": "Feature", "properties": { "OBJECTID": 160856, "Shape": null, "id": "IT_CTMM82001G", "name": "ANTONIO BRUNO", "lat": 37.6503229, "lon": 14.8442831, "city": "BIANCAVILLA", "public_private": "PUBLIC" }, "geometry": { "type": "Point", "coordinates": [ 14.844283100000041, 37.650322900000049 ] } },
{ "type": "Feature", "properties": { "OBJECTID": 160857, "Shape": null, "id": "IT_PNAA83202D", "name": "PORDENONE-VIA BEATA DOMICILLA", "lat": 45.9612397, "lon": 12.668368, "city": "PORDENONE", "public_private": "PUBLIC" }, "geometry": { "type": "Point", "coordinates": [ 12.668368, 45.961239700000078 ] } },
{ "type": "Feature", "properties": { "OBJECTID": 160858, "Shape": null, "id": "IT_PAAA82804N", "name": "S.MATERNA UMBERTO= ROCCAPALUMBA", "lat": 37.8068073, "lon": 13.6375102, "city": "ROCCAPALUMBA", "public_private": "PUBLIC" }, "geometry": { "type": "Point", "coordinates": [ 13.637510200000065, 37.80680730000006 ] } },
{ "type": "Feature", "properties": { "OBJECTID": 160859, "Shape": null, "id": "IT_FGEE877039", "name": "VIA PETRUCCI", "lat": 41.4708739, "lon": 15.5359763, "city": "FOGGIA", "public_private": "PUBLIC" }, "geometry": { "type": "Point", "coordinates": [ 15.535976300000073, 41.470873900000072 ] } },
{ "type": "Feature", "properties": { "OBJECTID": 160860, "Shape": null, "id": "IT_FOEE818019", "name": "GATTEO DE AMICIS", "lat": 44.1083834, "lon": 12.3852836, "city": "GATTEO", "public_private": "PUBLIC" }, "geometry": { "type": "Point", "coordinates": [ 12.385283600000037, 44.108383400000037 ] } },
{ "type": "Feature", "properties": { "OBJECTID": 160861, "Shape": null, "id": "IT_LEAA8AF033", "name": "VIA DELLA PACE", "lat": 40.3237166, "lon": 17.9661278, "city": "VEGLIE", "public_private": "PUBLIC" }, "geometry": { "type": "Point", "coordinates": [ 17.966127800000038, 40.323716600000068 ] } },
{ "type": "Feature", "properties": { "OBJECTID": 160862, "Shape": null, "id": "IT_BSMM89302A", "name": "SCUOLA SEC. I GRADO ORZIVECCHI", "lat": 45.41868, "lon": 9.96289, "city": "ORZIVECCHI", "public_private": "PUBLIC" }, "geometry": { "type": "Point", "coordinates": [ 9.96289, 45.41868 ] } },
{ "type": "Feature", "properties": { "OBJECTID": 160863, "Shape": null, "id": "IT_CAEE890027", "name": "SANT'ISIDORO", "lat": 39.3068101, "lon": 9.2056233, "city": "SINNAI", "public_private": "PUBLIC" }, "geometry": { "type": "Point", "coordinates": [ 9.20562330000007, 39.306810100000064 ] } },
{ "type": "Feature", "properties": { "OBJECTID": 160864, "Shape": null, "id": "IT_MCMM81101A", "name": "E. MESTICA CINGOLI", "lat": 43.38387, "lon": 13.20664, "city": "CINGOLI", "public_private": "PUBLIC" }, "geometry": { "type": "Point", "coordinates": [ 13.20664, 43.38387 ] } },
{ "type": "Feature", "properties": { "OBJECTID": 160865, "Shape": null, "id": "IT_VREE84202L", "name": "BOSCHI S.ANNA\"CESARE BATTISTI\"", "lat": 45.21332, "lon": 11.36252, "city": "BOSCHI SANT'ANNA", "public_private": "PUBLIC" }, "geometry": { "type": "Point", "coordinates": [ 11.36252, 45.21332 ] } },
{ "type": "Feature", "properties": { "OBJECTID": 160866, "Shape": null, "id": "IT_CRPS01301B", "name": "L.SCIEN. \"L. DA VINCI\"", "lat": 45.3671107, "lon": 9.6848799, "city": "CREMA", "public_private": "PUBLIC" }, "geometry": { "type": "Point", "coordinates": [ 9.684879900000055, 45.367110700000069 ] } },
{ "type": "Feature", "properties": { "OBJECTID": 160867, "Shape": null, "id": "IT_RMEE8BR038", "name": "GALILEO GALILEI-LARIANO", "lat": 41.7186173, "lon": 12.8304717, "city": "LARIANO", "public_private": "PUBLIC" }, "geometry": { "type": "Point", "coordinates": [ 12.830471700000032, 41.718617300000062 ] } },
{ "type": "Feature", "properties": { "OBJECTID": 160868, "Shape": null, "id": "IT_RMEE8A4021", "name": "SC. PRIMARIA REPUBBLICA", "lat": 41.7752329, "lon": 12.6082325, "city": "MARINO", "public_private": "PUBLIC" }, "geometry": { "type": "Point", "coordinates": [ 12.608232500000042, 41.775232900000049 ] } },
{ "type": "Feature", "properties": { "OBJECTID": 160869, "Shape": null, "id": "IT_LTAA84301G", "name": "MEZZOMONTE", "lat": 41.3398651, "lon": 13.0185474, "city": "SABAUDIA", "public_private": "PUBLIC" }, "geometry": { "type": "Point", "coordinates": [ 13.018547400000045, 41.339865100000054 ] } },
{ "type": "Feature", "properties": { "OBJECTID": 160870, "Shape": null, "id": "IT_PAAA87102T", "name": "SC.MATERNA VIA CASTELLANA", "lat": 38.1258614, "lon": 13.3139317, "city": "PALERMO", "public_private": "PUBLIC" }, "geometry": { "type": "Point", "coordinates": [ 13.313931700000069, 38.125861400000076 ] } },
{ "type": "Feature", "properties": { "OBJECTID": 160871, "Shape": null, "id": "IT_BORI024013", "name": "IST.PROF.LE \"MALPIGHI\" - ODONTOTECNICO", "lat": 44.5180979, "lon": 11.32808758, "city": "BOLOGNA", "public_private": "PUBLIC" }, "geometry": { "type": "Point", "coordinates": [ 11.328087580000044, 44.518097900000043 ] } },
{ "type": "Feature", "properties": { "OBJECTID": 160872, "Shape": null, "id": "IT_MNEE81602L", "name": "C. TRIVULZIO DI BELGIOJOSO", "lat": 45.17859235, "lon": 10.89503751, "city": "SAN GIORGIO BIGARELLO", "public_private": "PUBLIC" }, "geometry": { "type": "Point", "coordinates": [ 10.895037510000066, 45.178592350000031 ] } },
{ "type": "Feature", "properties": { "OBJECTID": 160873, "Shape": null, "id": "IT_SOEE81301E", "name": "DELEBIOCAPOLUOGO", "lat": 46.1351956, "lon": 9.4591488, "city": "DELEBIO", "public_private": "PUBLIC" }, "geometry": { "type": "Point", "coordinates": [ 9.459148800000037, 46.135195600000031 ] } },
{ "type": "Feature", "properties": { "OBJECTID": 160874, "Shape": null, "id": "IT_LTAA85701D", "name": "SPERLONGA", "lat": 41.2592992, "lon": 13.4370252, "city": "SPERLONGA", "public_private": "PUBLIC" }, "geometry": { "type": "Point", "coordinates": [ 13.437025200000051, 41.259299200000044 ] } },
{ "type": "Feature", "properties": { "OBJECTID": 160875, "Shape": null, "id": "IT_CNAA85303A", "name": "GUARENE-CAPOLUOGO", "lat": 44.73914, "lon": 8.03458, "city": "GUARENE", "public_private": "PUBLIC" }, "geometry": { "type": "Point", "coordinates": [ 8.03458, 44.73914 ] } },
{ "type": "Feature", "properties": { "OBJECTID": 160876, "Shape": null, "id": "IT_FIEE841015", "name": "PETRARCA", "lat": 43.77305, "lon": 11.23504, "city": "FIRENZE", "public_private": "PUBLIC" }, "geometry": { "type": "Point", "coordinates": [ 11.23504, 43.77305 ] } },
{ "type": "Feature", "properties": { "OBJECTID": 160877, "Shape": null, "id": "IT_SAAA8AH03G", "name": "SERRA", "lat": 40.42641, "lon": 15.19298, "city": "ROCCADASPIDE", "public_private": "PUBLIC" }, "geometry": { "type": "Point", "coordinates": [ 15.19298, 40.42641 ] } },
{ "type": "Feature", "properties": { "OBJECTID": 160878, "Shape": null, "id": "IT_MORC08000G", "name": "CATTANEO DELEDDA- SOCIO COMM ARTIGIAN.", "lat": 44.6390695, "lon": 10.90165436, "city": "MODENA", "public_private": "PUBLIC" }, "geometry": { "type": "Point", "coordinates": [ 10.901654360000066, 44.639069500000062 ] } },
{ "type": "Feature", "properties": { "OBJECTID": 160879, "Shape": null, "id": "IT_PSAA03901G", "name": "FANO S.ORSO- CUCCURANO-F.SENECA", "lat": 43.8007037, "lon": 12.9747133, "city": "FANO", "public_private": "PUBLIC" }, "geometry": { "type": "Point", "coordinates": [ 12.974713300000076, 43.800703700000042 ] } },
{ "type": "Feature", "properties": { "OBJECTID": 160880, "Shape": null, "id": "IT_RMAA8EX01L", "name": "VIA DEI BERIO", "lat": 45.3380227, "lon": 11.5397473, "city": "ROMA", "public_private": "PUBLIC" }, "geometry": { "type": "Point", "coordinates": [ 11.539747300000045, 45.338022700000067 ] } },
{ "type": "Feature", "properties": { "OBJECTID": 160881, "Shape": null, "id": "IT_CBEE828059", "name": "MIRABELLO SANNITICO", "lat": 41.5145042, "lon": 14.6718521, "city": "MIRABELLO SANNITICO", "public_private": "PUBLIC" }, "geometry": { "type": "Point", "coordinates": [ 14.671852100000024, 41.514504200000033 ] } },
{ "type": "Feature", "properties": { "OBJECTID": 160882, "Shape": null, "id": "IT_TEEE84401P", "name": "SCUOLA PRIMARIA \"G. BRAGA\"", "lat": 42.7433349, "lon": 13.9756563, "city": "GIULIANOVA", "public_private": "PUBLIC" }, "geometry": { "type": "Point", "coordinates": [ 13.975656300000026, 42.743334900000036 ] } },
{ "type": "Feature", "properties": { "OBJECTID": 160883, "Shape": null, "id": "IT_SSRA01601P", "name": "I.P.A.A \"F.COCCO ORTU\"- BONO", "lat": 40.4082334, "lon": 9.0326189, "city": "BONO", "public_private": "PUBLIC" }, "geometry": { "type": "Point", "coordinates": [ 9.032618900000045, 40.408233400000029 ] } },
{ "type": "Feature", "properties": { "OBJECTID": 160884, "Shape": null, "id": "IT_MOMM81301Q", "name": "MARTIRI DELLA LIBERTA'", "lat": 44.3439595, "lon": 10.9948273, "city": "ZOCCA", "public_private": "PUBLIC" }, "geometry": { "type": "Point", "coordinates": [ 10.994827300000054, 44.343959500000039 ] } },
{ "type": "Feature", "properties": { "OBJECTID": 160885, "Shape": null, "id": "IT_COEE81502C", "name": "S.BARTOLOMEO V.C.", "lat": 46.0818086, "lon": 9.1468304, "city": "SAN BARTOLOMEO VAL CAVARGNA", "public_private": "PUBLIC" }, "geometry": { "type": "Point", "coordinates": [ 9.146830400000056, 46.081808600000045 ] } },
{ "type": "Feature", "properties": { "OBJECTID": 160886, "Shape": null, "id": "IT_MNAA80102N", "name": "CASALROMANO SCUOLA MATERNA", "lat": 45.1995545, "lon": 10.3671277, "city": "CASALROMANO", "public_private": "PUBLIC" }, "geometry": { "type": "Point", "coordinates": [ 10.367127700000026, 45.199554500000033 ] } },
{ "type": "Feature", "properties": { "OBJECTID": 160887, "Shape": null, "id": "IT_LCEE815026", "name": "\"DON L. MILANI\" BULCIAGO", "lat": 45.7488237, "lon": 9.2819802, "city": "BULCIAGO", "public_private": "PUBLIC" }, "geometry": { "type": "Point", "coordinates": [ 9.281980200000021, 45.748823700000059 ] } },
{ "type": "Feature", "properties": { "OBJECTID": 160888, "Shape": null, "id": "IT_RMIC8FY006", "name": "I.C. MARIO LODI", "lat": 41.85709365, "lon": 12.44372337, "city": "ROMA", "public_private": "PUBLIC" }, "geometry": { "type": "Point", "coordinates": [ 12.443723370000043, 41.857093650000024 ] } },
{ "type": "Feature", "properties": { "OBJECTID": 160889, "Shape": null, "id": "IT_BGEE84404Q", "name": "\"A.DE GASPERI\" FARA OLIV.C.SOLA", "lat": 45.4927165, "lon": 9.7400584, "city": "FARA OLIVANA CON SOLA", "public_private": "PUBLIC" }, "geometry": { "type": "Point", "coordinates": [ 9.740058400000066, 45.492716500000029 ] } },
{ "type": "Feature", "properties": { "OBJECTID": 160890, "Shape": null, "id": "IT_VVMM832015", "name": "S.M.S. GARIBALDI - BUCCARELLI", "lat": 38.6749479, "lon": 16.0990451, "city": "VIBO VALENTIA", "public_private": "PUBLIC" }, "geometry": { "type": "Point", "coordinates": [ 16.099045100000069, 38.674947900000063 ] } },
{ "type": "Feature", "properties": { "OBJECTID": 160891, "Shape": null, "id": "IT_TPIS00400R", "name": "I. S. \"V. ALMANZA\"", "lat": 36.8300412, "lon": 11.9423085, "city": "PANTELLERIA", "public_private": "PUBLIC" }, "geometry": { "type": "Point", "coordinates": [ 11.942308500000024, 36.830041200000039 ] } },
{ "type": "Feature", "properties": { "OBJECTID": 160892, "Shape": null, "id": "IT_BNAA841026", "name": "CASTELVENERE \"PARITO\"", "lat": 41.2386447, "lon": 14.5350454, "city": "CASTELVENERE", "public_private": "PUBLIC" }, "geometry": { "type": "Point", "coordinates": [ 14.535045400000058, 41.238644700000066 ] } },
{ "type": "Feature", "properties": { "OBJECTID": 160893, "Shape": null, "id": "IT_FGEE856016", "name": "GARIBALDI", "lat": 41.4613311, "lon": 15.5557555, "city": "FOGGIA", "public_private": "PUBLIC" }, "geometry": { "type": "Point", "coordinates": [ 15.555755500000032, 41.461331100000052 ] } },
{ "type": "Feature", "properties": { "OBJECTID": 160894, "Shape": null, "id": "IT_AGMM826015", "name": "A.G.RONCALLI", "lat": 37.5992747, "lon": 13.2874763, "city": "BURGIO", "public_private": "PUBLIC" }, "geometry": { "type": "Point", "coordinates": [ 13.287476300000037, 37.59927470000008 ] } },
{ "type": "Feature", "properties": { "OBJECTID": 160895, "Shape": null, "id": "IT_AQEE82706N", "name": "SCUOLA PRIMARIA L. DARD", "lat": 42.1411367, "lon": 13.5177856, "city": "OVINDOLI", "public_private": "PUBLIC" }, "geometry": { "type": "Point", "coordinates": [ 13.517785600000025, 42.141136700000061 ] } },
{ "type": "Feature", "properties": { "OBJECTID": 160896, "Shape": null, "id": "IT_CSPS020001", "name": "LS \"FERMI\" COSENZA", "lat": 39.3008145, "lon": 16.2545888, "city": "COSENZA", "public_private": "PUBLIC" }, "geometry": { "type": "Point", "coordinates": [ 16.254588800000022, 39.300814500000058 ] } },
{ "type": "Feature", "properties": { "OBJECTID": 160897, "Shape": null, "id": "IT_SAEE81901E", "name": "CIOFFI", "lat": 40.5483997, "lon": 14.9890342, "city": "EBOLI", "public_private": "PUBLIC" }, "geometry": { "type": "Point", "coordinates": [ 14.989034200000049, 40.548399700000061 ] } },
{ "type": "Feature", "properties": { "OBJECTID": 160898, "Shape": null, "id": "IT_CLEE025083", "name": "VIA S. FILIPPO NERI", "lat": 37.4825971, "lon": 13.985648, "city": "SAN CATALDO", "public_private": "PUBLIC" }, "geometry": { "type": "Point", "coordinates": [ 13.985648, 37.482597100000078 ] } },
{ "type": "Feature", "properties": { "OBJECTID": 160899, "Shape": null, "id": "IT_TOAA857058", "name": "I.C. POIRINO INFANZIA -", "lat": 44.9199017, "lon": 7.8602529, "city": "POIRINO", "public_private": "PUBLIC" }, "geometry": { "type": "Point", "coordinates": [ 7.860252900000035, 44.919901700000025 ] } },
{ "type": "Feature", "properties": { "OBJECTID": 160900, "Shape": null, "id": "IT_FRMM81203E", "name": "S.S. VILLA SANTO STEFANO", "lat": 44.487041, "lon": 11.3548508, "city": "VILLA SANTO STEFANO", "public_private": "PUBLIC" }, "geometry": { "type": "Point", "coordinates": [ 11.354850800000065, 44.487041 ] } },
{ "type": "Feature", "properties": { "OBJECTID": 160901, "Shape": null, "id": "IT_PGEE05800L", "name": "D.D.2 CIRC.UMBERTIDE DI VITTORI", "lat": 43.3115726, "lon": 12.3274267, "city": "UMBERTIDE", "public_private": "PUBLIC" }, "geometry": { "type": "Point", "coordinates": [ 12.327426700000046, 43.311572600000034 ] } },
{ "type": "Feature", "properties": { "OBJECTID": 160902, "Shape": null, "id": "IT_NAEE8BW028", "name": "PLESSO F.LLI BANDIERA", "lat": 40.9087595, "lon": 14.4016363, "city": "POMIGLIANO D'ARCO", "public_private": "PUBLIC" }, "geometry": { "type": "Point", "coordinates": [ 14.401636300000064, 40.908759500000031 ] } },
{ "type": "Feature", "properties": { "OBJECTID": 160903, "Shape": null, "id": "IT_UDRI013012", "name": "ARTURO MALIGNANI", "lat": 45.83144, "lon": 13.20652, "city": "SAN GIORGIO DI NOGARO", "public_private": "PUBLIC" }, "geometry": { "type": "Point", "coordinates": [ 13.20652, 45.83144 ] } },
{ "type": "Feature", "properties": { "OBJECTID": 160904, "Shape": null, "id": "IT_NATD05901V", "name": "ISTITUTO TECNICO ECONOMICO \" G. SIANI \"", "lat": 40.90632745, "lon": 14.35362915, "city": "CASALNUOVO DI NAPOLI", "public_private": "PUBLIC" }, "geometry": { "type": "Point", "coordinates": [ 14.353629150000074, 40.906327450000049 ] } },
{ "type": "Feature", "properties": { "OBJECTID": 160905, "Shape": null, "id": "IT_NAAA15102N", "name": "MUGNANO 1 - MURELLE", "lat": 40.90909125, "lon": 14.20090454, "city": "MUGNANO DI NAPOLI", "public_private": "PUBLIC" }, "geometry": { "type": "Point", "coordinates": [ 14.200904540000067, 40.909091250000074 ] } },
{ "type": "Feature", "properties": { "OBJECTID": 160906, "Shape": null, "id": "IT_UDEE84002N", "name": "TARVISIO CENTRALE", "lat": 46.5102606, "lon": 13.6016333, "city": "TARVISIO", "public_private": "PUBLIC" }, "geometry": { "type": "Point", "coordinates": [ 13.60163330000006, 46.510260600000038 ] } },
{ "type": "Feature", "properties": { "OBJECTID": 160907, "Shape": null, "id": "IT_BAEE120055", "name": "SAN G.BOSCO 1 CD MODUGNO", "lat": 41.0805937, "lon": 16.7877708, "city": "MODUGNO", "public_private": "PUBLIC" }, "geometry": { "type": "Point", "coordinates": [ 16.787770800000033, 41.080593700000065 ] } },
{ "type": "Feature", "properties": { "OBJECTID": 160908, "Shape": null, "id": "IT_MBEE89102P", "name": "ADA NEGRI", "lat": 45.5793446, "lon": 9.2309185, "city": "MUGGIO'", "public_private": "PUBLIC" }, "geometry": { "type": "Point", "coordinates": [ 9.23091850000003, 45.57934460000007 ] } },
{ "type": "Feature", "properties": { "OBJECTID": 160909, "Shape": null, "id": "IT_VREE89803N", "name": "S.PIETRO DI LEGNAGO \"D. TRECCA\"", "lat": 45.1836703, "lon": 11.2793217, "city": "LEGNAGO", "public_private": "PUBLIC" }, "geometry": { "type": "Point", "coordinates": [ 11.279321700000025, 45.183670300000074 ] } },
{ "type": "Feature", "properties": { "OBJECTID": 160910, "Shape": null, "id": "IT_CTEE83803X", "name": "ALCIDE DE GASPERI", "lat": 37.6033132, "lon": 15.0575493, "city": "PEDARA", "public_private": "PUBLIC" }, "geometry": { "type": "Point", "coordinates": [ 15.057549300000062, 37.603313200000059 ] } },
{ "type": "Feature", "properties": { "OBJECTID": 160911, "Shape": null, "id": "IT_NAEE8D104C", "name": "NA IC 19 - FONTANELLE", "lat": 40.8591151, "lon": 14.2420444, "city": "NAPOLI", "public_private": "PUBLIC" }, "geometry": { "type": "Point", "coordinates": [ 14.242044400000054, 40.859115100000054 ] } },
{ "type": "Feature", "properties": { "OBJECTID": 160912, "Shape": null, "id": "IT_RMAA8GE027", "name": "LORENZO CUNEO", "lat": 41.8810653, "lon": 12.5098382, "city": "ROMA", "public_private": "PUBLIC" }, "geometry": { "type": "Point", "coordinates": [ 12.509838200000047, 41.881065300000046 ] } },
{ "type": "Feature", "properties": { "OBJECTID": 160913, "Shape": null, "id": "IT_NAAA8E9019", "name": "NA I.C. 12 FOSCOLO - OBERDAN", "lat": 40.8458154, "lon": 14.25195143, "city": "NAPOLI", "public_private": "PUBLIC" }, "geometry": { "type": "Point", "coordinates": [ 14.251951430000076, 40.845815400000049 ] } },
{ "type": "Feature", "properties": { "OBJECTID": 160914, "Shape": null, "id": "IT_ROEE82302A", "name": "CARLO COLLODI - SALARA", "lat": 44.9834392, "lon": 11.4259527, "city": "SALARA", "public_private": "PUBLIC" }, "geometry": { "type": "Point", "coordinates": [ 11.425952700000039, 44.983439200000078 ] } },
{ "type": "Feature", "properties": { "OBJECTID": 160915, "Shape": null, "id": "IT_BLEE81904N", "name": "\"PRINCIPE DI PIEMONTE\" CESIOM.", "lat": 46.0835533, "lon": 11.9803814, "city": "CESIOMAGGIORE", "public_private": "PUBLIC" }, "geometry": { "type": "Point", "coordinates": [ 11.980381400000056, 46.083553300000062 ] } },
{ "type": "Feature", "properties": { "OBJECTID": 160916, "Shape": null, "id": "IT_NAEE864012", "name": "PIMONTE - FRANCHE", "lat": 40.6737318, "lon": 14.5218065, "city": "PIMONTE", "public_private": "PUBLIC" }, "geometry": { "type": "Point", "coordinates": [ 14.521806500000025, 40.673731800000041 ] } },
{ "type": "Feature", "properties": { "OBJECTID": 160917, "Shape": null, "id": "IT_NAEE8FX03G", "name": "ROCCARAINOLA IC - S.GIOVANNI 2", "lat": 40.9701903, "lon": 14.556347, "city": "ROCCARAINOLA", "public_private": "PUBLIC" }, "geometry": { "type": "Point", "coordinates": [ 14.556347, 40.97019030000007 ] } },
{ "type": "Feature", "properties": { "OBJECTID": 160918, "Shape": null, "id": "IT_PDAA837015", "name": "GALLIERA VENETA-SCUOLA INFANZIA", "lat": 45.6607028, "lon": 11.8200244, "city": "GALLIERA VENETA", "public_private": "PUBLIC" }, "geometry": { "type": "Point", "coordinates": [ 11.820024400000023, 45.660702800000081 ] } },
{ "type": "Feature", "properties": { "OBJECTID": 160919, "Shape": null, "id": "IT_PAEE89002C", "name": "LA MASA G.", "lat": 38.0759445, "lon": 13.4447877, "city": "PALERMO", "public_private": "PUBLIC" }, "geometry": { "type": "Point", "coordinates": [ 13.444787700000063, 38.075944500000048 ] } },
{ "type": "Feature", "properties": { "OBJECTID": 160920, "Shape": null, "id": "IT_CZPS03000B", "name": "LS \"L. SICILIANI\" CATANZARO", "lat": 38.9115763, "lon": 16.5857148, "city": "CATANZARO", "public_private": "PUBLIC" }, "geometry": { "type": "Point", "coordinates": [ 16.585714800000062, 38.911576300000036 ] } },
{ "type": "Feature", "properties": { "OBJECTID": 160921, "Shape": null, "id": "IT_BNEE80404E", "name": "FRAGNETO L'ABATE \"CAP\"", "lat": 41.25676, "lon": 14.78357, "city": "FRAGNETO L'ABATE", "public_private": "PUBLIC" }, "geometry": { "type": "Point", "coordinates": [ 14.78357, 41.25676 ] } },
{ "type": "Feature", "properties": { "OBJECTID": 160922, "Shape": null, "id": "IT_VVTN00201L", "name": "IST. TECNICO PER IL TURISMO", "lat": 38.6746914, "lon": 15.8943095, "city": "TROPEA", "public_private": "PUBLIC" }, "geometry": { "type": "Point", "coordinates": [ 15.894309500000077, 38.674691400000029 ] } },
{ "type": "Feature", "properties": { "OBJECTID": 160923, "Shape": null, "id": "IT_BOEE818023", "name": "VIA SCANDELLARA", "lat": 44.4973453, "lon": 11.3849937, "city": "BOLOGNA", "public_private": "PUBLIC" }, "geometry": { "type": "Point", "coordinates": [ 11.384993700000052, 44.497345300000063 ] } },
{ "type": "Feature", "properties": { "OBJECTID": 160924, "Shape": null, "id": "IT_MNIC83800A", "name": "IC VIADANA \"VANONI\"", "lat": 44.9333436, "lon": 10.5209583, "city": "VIADANA", "public_private": "PUBLIC" }, "geometry": { "type": "Point", "coordinates": [ 10.520958300000075, 44.933343600000057 ] } },
{ "type": "Feature", "properties": { "OBJECTID": 160925, "Shape": null, "id": "IT_SAPS18000P", "name": "\"B. RESCIGNO\" - ROCCAPIEMONTE", "lat": 40.75958345, "lon": 14.69177341, "city": "ROCCAPIEMONTE", "public_private": "PUBLIC" }, "geometry": { "type": "Point", "coordinates": [ 14.691773410000053, 40.759583450000036 ] } },
{ "type": "Feature", "properties": { "OBJECTID": 160926, "Shape": null, "id": "IT_PNEE827016", "name": "CORDENONS-CAPOL. \"DUCA D'AOSTA\"", "lat": 45.9881106, "lon": 12.7050169, "city": "CORDENONS", "public_private": "PUBLIC" }, "geometry": { "type": "Point", "coordinates": [ 12.705016900000032, 45.988110600000027 ] } },
{ "type": "Feature", "properties": { "OBJECTID": 160927, "Shape": null, "id": "IT_NAAA82202Q", "name": "CAVOUR", "lat": 40.8728432, "lon": 14.2363864, "city": "NAPOLI", "public_private": "PUBLIC" }, "geometry": { "type": "Point", "coordinates": [ 14.236386400000072, 40.872843200000034 ] } },
{ "type": "Feature", "properties": { "OBJECTID": 160928, "Shape": null, "id": "IT_SORH040004", "name": "ISTITUTO PROFESSIONALE CROTTO CAURGA", "lat": 46.321407, "lon": 9.4020009, "city": "CHIAVENNA", "public_private": "PUBLIC" }, "geometry": { "type": "Point", "coordinates": [ 9.402000900000075, 46.321407 ] } },
{ "type": "Feature", "properties": { "OBJECTID": 160929, "Shape": null, "id": "IT_TVCT70100X", "name": "CTP DI TREVISO (EX IC 1 MARTINI)", "lat": 45.7785011, "lon": 12.2569518, "city": "TREVISO", "public_private": "PUBLIC" }, "geometry": { "type": "Point", "coordinates": [ 12.256951800000024, 45.778501100000028 ] } },
{ "type": "Feature", "properties": { "OBJECTID": 160930, "Shape": null, "id": "IT_VEEE85702P", "name": "VITTORIO ALFIERI", "lat": 45.4999402, "lon": 12.0727918, "city": "MIRANO", "public_private": "PUBLIC" }, "geometry": { "type": "Point", "coordinates": [ 12.072791800000061, 45.499940200000026 ] } },
{ "type": "Feature", "properties": { "OBJECTID": 160931, "Shape": null, "id": "IT_SSMM83002V", "name": "S.M. TELTI", "lat": 40.8745778, "lon": 9.353081, "city": "TELTI", "public_private": "PUBLIC" }, "geometry": { "type": "Point", "coordinates": [ 9.353081, 40.874577800000054 ] } },
{ "type": "Feature", "properties": { "OBJECTID": 160932, "Shape": null, "id": "IT_PIAA83605B", "name": "SAN GIULIANO TERME", "lat": 43.7624073, "lon": 10.4286572, "city": "SAN GIULIANO TERME", "public_private": "PUBLIC" }, "geometry": { "type": "Point", "coordinates": [ 10.428657200000032, 43.762407300000064 ] } },
{ "type": "Feature", "properties": { "OBJECTID": 160933, "Shape": null, "id": "IT_NOAA80705Q", "name": "F. STOPPANI FARA NOVARESE", "lat": 45.55206, "lon": 8.46266, "city": "FARA NOVARESE", "public_private": "PUBLIC" }, "geometry": { "type": "Point", "coordinates": [ 8.46266, 45.55206 ] } },
{ "type": "Feature", "properties": { "OBJECTID": 160934, "Shape": null, "id": "IT_LIMM80801D", "name": "LUCIANO BEZZINI", "lat": 43.1728189, "lon": 10.5673172, "city": "CASTAGNETO CARDUCCI", "public_private": "PUBLIC" }, "geometry": { "type": "Point", "coordinates": [ 10.567317200000048, 43.172818900000038 ] } },
{ "type": "Feature", "properties": { "OBJECTID": 160935, "Shape": null, "id": "IT_PVEE80201V", "name": "GAMBOLO' - ROBECCHI", "lat": 45.2594, "lon": 8.86256, "city": "GAMBOLO'", "public_private": "PUBLIC" }, "geometry": { "type": "Point", "coordinates": [ 8.86256, 45.2594 ] } },
{ "type": "Feature", "properties": { "OBJECTID": 160936, "Shape": null, "id": "IT_CTMM86701R", "name": "I.C. FONTANAROSSA", "lat": 37.4774213, "lon": 15.0662205, "city": "CATANIA", "public_private": "PUBLIC" }, "geometry": { "type": "Point", "coordinates": [ 15.066220500000043, 37.47742130000006 ] } },
{ "type": "Feature", "properties": { "OBJECTID": 160937, "Shape": null, "id": "IT_TRAA00501G", "name": "TERNI A.MORO - CARDETO", "lat": 42.670231, "lon": 12.2224, "city": "TERNI", "public_private": "PUBLIC" }, "geometry": { "type": "Point", "coordinates": [ 12.2224, 42.670231 ] } },
{ "type": "Feature", "properties": { "OBJECTID": 160938, "Shape": null, "id": "IT_CAIS033004", "name": "I.I.S. \"A. MEUCCI-E. MATTEI\" CAGLIARI", "lat": 39.2272817, "lon": 9.1070962, "city": "CAGLIARI", "public_private": "PUBLIC" }, "geometry": { "type": "Point", "coordinates": [ 9.107096200000058, 39.227281700000049 ] } },
{ "type": "Feature", "properties": { "OBJECTID": 160939, "Shape": null, "id": "IT_RMTD00901R", "name": "G.DI VITTORIO", "lat": 41.8903371, "lon": 12.549971, "city": "ROMA", "public_private": "PUBLIC" }, "geometry": { "type": "Point", "coordinates": [ 12.549971, 41.890337100000067 ] } },
{ "type": "Feature", "properties": { "OBJECTID": 160940, "Shape": null, "id": "IT_ATTF007013", "name": "ISTITUTO TECNICO \"ANDRIANO\"", "lat": 45.0365574, "lon": 7.9668652, "city": "CASTELNUOVO DON BOSCO", "public_private": "PUBLIC" }, "geometry": { "type": "Point", "coordinates": [ 7.966865200000029, 45.036557400000049 ] } },
{ "type": "Feature", "properties": { "OBJECTID": 160941, "Shape": null, "id": "IT_RMPM040001", "name": "CAETANI", "lat": 42.2287925, "lon": 12.5977178, "city": "ROMA", "public_private": "PUBLIC" }, "geometry": { "type": "Point", "coordinates": [ 12.597717800000055, 42.228792500000054 ] } },
{ "type": "Feature", "properties": { "OBJECTID": 160942, "Shape": null, "id": "IT_GEEE834031", "name": "S.EL - A.MORO -", "lat": 44.4341633, "lon": 8.766511, "city": "GENOVA", "public_private": "PUBLIC" }, "geometry": { "type": "Point", "coordinates": [ 8.766511, 44.43416330000008 ] } },
{ "type": "Feature", "properties": { "OBJECTID": 160943, "Shape": null, "id": "IT_CNMM82302N", "name": "GOVONE SS PRIOCCA N.COSTA", "lat": 44.7914854, "lon": 8.0619471, "city": "PRIOCCA", "public_private": "PUBLIC" }, "geometry": { "type": "Point", "coordinates": [ 8.061947100000054, 44.791485400000056 ] } },
{ "type": "Feature", "properties": { "OBJECTID": 160944, "Shape": null, "id": "IT_BRIC82300E", "name": "I.C. \"RUGGERO DE SIMONE\"", "lat": 40.48896, "lon": 17.99549, "city": "SAN PIETRO VERNOTICO", "public_private": "PUBLIC" }, "geometry": { "type": "Point", "coordinates": [ 17.99549, 40.48896 ] } },
{ "type": "Feature", "properties": { "OBJECTID": 160945, "Shape": null, "id": "IT_GEMM85501V", "name": "PARINI MERELLO", "lat": 44.40718, "lon": 8.9509, "city": "GENOVA", "public_private": "PUBLIC" }, "geometry": { "type": "Point", "coordinates": [ 8.9509, 44.40718 ] } },
{ "type": "Feature", "properties": { "OBJECTID": 160946, "Shape": null, "id": "IT_BSMM899018", "name": "SECONDARIA \"U. ALLEGRI\" GAMBARA", "lat": 45.2550178, "lon": 10.2794915, "city": "GAMBARA", "public_private": "PUBLIC" }, "geometry": { "type": "Point", "coordinates": [ 10.279491500000063, 45.255017800000076 ] } },
{ "type": "Feature", "properties": { "OBJECTID": 160947, "Shape": null, "id": "IT_CREE818023", "name": "\"PROF.E.CALVI\"(RIVOLTA D'ADDA)", "lat": 45.4721032, "lon": 9.5145419, "city": "RIVOLTA D'ADDA", "public_private": "PUBLIC" }, "geometry": { "type": "Point", "coordinates": [ 9.51454190000004, 45.472103200000049 ] } },
{ "type": "Feature", "properties": { "OBJECTID": 160948, "Shape": null, "id": "IT_PGMM817019", "name": "IST. 1^ GRADO TUORO", "lat": 43.20774, "lon": 12.07197, "city": "TUORO SUL TRASIMENO", "public_private": "PUBLIC" }, "geometry": { "type": "Point", "coordinates": [ 12.07197, 43.20774 ] } },
{ "type": "Feature", "properties": { "OBJECTID": 160949, "Shape": null, "id": "IT_CNAA812023", "name": "VILLANOVA MONDOVI'-CAPOLUOGO", "lat": 44.34647, "lon": 7.76793, "city": "VILLANOVA MONDOVI'", "public_private": "PUBLIC" }, "geometry": { "type": "Point", "coordinates": [ 7.76793, 44.34647 ] } },
{ "type": "Feature", "properties": { "OBJECTID": 160950, "Shape": null, "id": "IT_ENAA06202V", "name": "COMUNE DI SPERLINGA", "lat": 37.7650263, "lon": 14.3533083, "city": "SPERLINGA", "public_private": "PUBLIC" }, "geometry": { "type": "Point", "coordinates": [ 14.353308300000037, 37.765026300000045 ] } },
{ "type": "Feature", "properties": { "OBJECTID": 160951, "Shape": null, "id": "IT_PTAA81902D", "name": "\"LA GIOSTRA\"", "lat": 43.8648645, "lon": 10.7412811, "city": "BUGGIANO", "public_private": "PUBLIC" }, "geometry": { "type": "Point", "coordinates": [ 10.741281100000037, 43.864864500000067 ] } },
{ "type": "Feature", "properties": { "OBJECTID": 160952, "Shape": null, "id": "IT_CRIC80000P", "name": "IC SORESINA \"G. BERTESI\"", "lat": 45.2856185, "lon": 9.858318832, "city": "SORESINA", "public_private": "PUBLIC" }, "geometry": { "type": "Point", "coordinates": [ 9.858318832000066, 45.285618500000055 ] } },
{ "type": "Feature", "properties": { "OBJECTID": 160953, "Shape": null, "id": "IT_BAEE820024", "name": "M.LA SORTE", "lat": 40.7863287, "lon": 17.229984, "city": "ALBEROBELLO", "public_private": "PUBLIC" }, "geometry": { "type": "Point", "coordinates": [ 17.229984, 40.78632870000007 ] } },
{ "type": "Feature", "properties": { "OBJECTID": 160954, "Shape": null, "id": "IT_LUAA81101G", "name": "SCUOLA MATERNA PATRIZIA MORELLI", "lat": 43.9622363, "lon": 10.3283206, "city": "CAMAIORE", "public_private": "PUBLIC" }, "geometry": { "type": "Point", "coordinates": [ 10.32832060000004, 43.962236300000029 ] } },
{ "type": "Feature", "properties": { "OBJECTID": 160955, "Shape": null, "id": "IT_PSAA831043", "name": "TERRE ROVER - S. FILIPPO SUL C.", "lat": 43.6746198, "lon": 13.0148725, "city": "MONDAVIO", "public_private": "PUBLIC" }, "geometry": { "type": "Point", "coordinates": [ 13.014872500000024, 43.674619800000073 ] } },
{ "type": "Feature", "properties": { "OBJECTID": 160956, "Shape": null, "id": "IT_MIMM8BM019", "name": "SECOND. I GR. P. MASCAGNI", "lat": 45.4934833, "lon": 9.4262614, "city": "MELZO", "public_private": "PUBLIC" }, "geometry": { "type": "Point", "coordinates": [ 9.426261400000044, 45.493483300000037 ] } },
{ "type": "Feature", "properties": { "OBJECTID": 160957, "Shape": null, "id": "IT_VREE875031", "name": "ZORZI CALLISTO", "lat": 45.4781769, "lon": 10.9477375, "city": "VERONA", "public_private": "PUBLIC" }, "geometry": { "type": "Point", "coordinates": [ 10.947737500000073, 45.478176900000051 ] } },
{ "type": "Feature", "properties": { "OBJECTID": 160958, "Shape": null, "id": "IT_ARMM81703D", "name": "\"A. DI CAMBIO\"", "lat": 43.6225375, "lon": 11.5537721, "city": "CASTELFRANCO PIANDISCO'", "public_private": "PUBLIC" }, "geometry": { "type": "Point", "coordinates": [ 11.55377210000006, 43.622537500000078 ] } },
{ "type": "Feature", "properties": { "OBJECTID": 160959, "Shape": null, "id": "IT_RMTD099018", "name": "PIER LUIGI NERVI (SEGNI)", "lat": 41.6854303, "lon": 13.0231969, "city": "SEGNI", "public_private": "PUBLIC" }, "geometry": { "type": "Point", "coordinates": [ 13.023196900000073, 41.685430300000064 ] } },
{ "type": "Feature", "properties": { "OBJECTID": 160960, "Shape": null, "id": "IT_RGEE816018", "name": "MONSERRATO", "lat": 36.9399288, "lon": 14.5958528, "city": "COMISO", "public_private": "PUBLIC" }, "geometry": { "type": "Point", "coordinates": [ 14.595852800000046, 36.939928800000075 ] } },
{ "type": "Feature", "properties": { "OBJECTID": 160961, "Shape": null, "id": "IT_VRIC8AD009", "name": "IC 02 S GIOVAN LUPATOTO M. HACK", "lat": 45.3800441, "lon": 11.04360692, "city": "SAN GIOVANNI LUPATOTO", "public_private": "PUBLIC" }, "geometry": { "type": "Point", "coordinates": [ 11.043606920000059, 45.380044100000077 ] } },
{ "type": "Feature", "properties": { "OBJECTID": 160962, "Shape": null, "id": "IT_BAAA83401Q", "name": "VIA BACHELET", "lat": 40.9987063, "lon": 16.8709424, "city": "ADELFIA", "public_private": "PUBLIC" }, "geometry": { "type": "Point", "coordinates": [ 16.870942400000047, 40.998706300000038 ] } },
{ "type": "Feature", "properties": { "OBJECTID": 160963, "Shape": null, "id": "IT_ORAA81902G", "name": "MOGORO", "lat": 39.6845539, "lon": 8.7733166, "city": "MOGORO", "public_private": "PUBLIC" }, "geometry": { "type": "Point", "coordinates": [ 8.773316600000044, 39.684553900000026 ] } },
{ "type": "Feature", "properties": { "OBJECTID": 160964, "Shape": null, "id": "IT_CTAA8AH01B", "name": "VIA ETNEA 133", "lat": 37.5079553, "lon": 15.0860031, "city": "CATANIA", "public_private": "PUBLIC" }, "geometry": { "type": "Point", "coordinates": [ 15.086003100000028, 37.507955300000049 ] } },
{ "type": "Feature", "properties": { "OBJECTID": 160965, "Shape": null, "id": "IT_PAMM81603E", "name": "VICARI-S.ST. LERCARA", "lat": 37.8211498, "lon": 13.5693383, "city": "VICARI", "public_private": "PUBLIC" }, "geometry": { "type": "Point", "coordinates": [ 13.569338300000027, 37.821149800000057 ] } },
{ "type": "Feature", "properties": { "OBJECTID": 160966, "Shape": null, "id": "IT_CNEE86401X", "name": "BRA-\"RITA LEVI MONTALCINI\"", "lat": 44.6971987, "lon": 7.852373374, "city": "BRA", "public_private": "PUBLIC" }, "geometry": { "type": "Point", "coordinates": [ 7.852373374000024, 44.697198700000058 ] } },
{ "type": "Feature", "properties": { "OBJECTID": 160967, "Shape": null, "id": "IT_RMEE8F202A", "name": "C. GRAZIOSI", "lat": 41.8445457, "lon": 12.459846, "city": "ROMA", "public_private": "PUBLIC" }, "geometry": { "type": "Point", "coordinates": [ 12.459846, 41.844545700000026 ] } },
{ "type": "Feature", "properties": { "OBJECTID": 160968, "Shape": null, "id": "IT_NAAA8FQ014", "name": "IC OMODEO BEETHOVEN INFANZIA", "lat": 40.9244064, "lon": 14.4803428, "city": "SAN VITALIANO", "public_private": "PUBLIC" }, "geometry": { "type": "Point", "coordinates": [ 14.480342800000074, 40.924406400000066 ] } },
{ "type": "Feature", "properties": { "OBJECTID": 160969, "Shape": null, "id": "IT_MIEE88902T", "name": "PRIMARIA CURIEL", "lat": 45.4397146, "lon": 9.092773, "city": "CORSICO", "public_private": "PUBLIC" }, "geometry": { "type": "Point", "coordinates": [ 9.092773, 45.439714600000059 ] } },
{ "type": "Feature", "properties": { "OBJECTID": 160970, "Shape": null, "id": "IT_MBMM8E001A", "name": "SEGANTINI- NOVA M.SE", "lat": 45.5924628, "lon": 9.1881477, "city": "NOVA MILANESE", "public_private": "PUBLIC" }, "geometry": { "type": "Point", "coordinates": [ 9.188147700000059, 45.592462800000078 ] } },
{ "type": "Feature", "properties": { "OBJECTID": 160971, "Shape": null, "id": "IT_BNRI02701T", "name": "\"L.PALMIERI\" BENEVENTO", "lat": 41.1356178, "lon": 14.7727682, "city": "BENEVENTO", "public_private": "PUBLIC" }, "geometry": { "type": "Point", "coordinates": [ 14.77276820000003, 41.135617800000034 ] } },
{ "type": "Feature", "properties": { "OBJECTID": 160972, "Shape": null, "id": "IT_CZAA85903C", "name": "CATANZARO IANO'", "lat": 38.8680104, "lon": 16.5854181, "city": "CATANZARO", "public_private": "PUBLIC" }, "geometry": { "type": "Point", "coordinates": [ 16.585418100000027, 38.86801040000006 ] } },
{ "type": "Feature", "properties": { "OBJECTID": 160973, "Shape": null, "id": "IT_GEEE867038", "name": "S.EL. DI SAN PIER DI CANNE", "lat": 44.32785, "lon": 9.32173, "city": "CHIAVARI", "public_private": "PUBLIC" }, "geometry": { "type": "Point", "coordinates": [ 9.32173, 44.32785 ] } },
{ "type": "Feature", "properties": { "OBJECTID": 160974, "Shape": null, "id": "IT_GOTF00801D", "name": "G. GALILEI", "lat": 45.936328, "lon": 13.6191592, "city": "GORIZIA", "public_private": "PUBLIC" }, "geometry": { "type": "Point", "coordinates": [ 13.61915920000007, 45.936328 ] } },
{ "type": "Feature", "properties": { "OBJECTID": 160975, "Shape": null, "id": "IT_FRRH03002A", "name": "I.P.S.S.E.O.A. PALIANO", "lat": 41.7734685, "lon": 13.0573556, "city": "PALIANO", "public_private": "PUBLIC" }, "geometry": { "type": "Point", "coordinates": [ 13.057355600000051, 41.773468500000035 ] } },
{ "type": "Feature", "properties": { "OBJECTID": 160976, "Shape": null, "id": "IT_BOAA811012", "name": "CASTEL D'AIANO CAPOLUOGO", "lat": 44.2832631, "lon": 10.99335571, "city": "CASTEL D'AIANO", "public_private": "PUBLIC" }, "geometry": { "type": "Point", "coordinates": [ 10.99335571000006, 44.283263100000056 ] } },
{ "type": "Feature", "properties": { "OBJECTID": 160977, "Shape": null, "id": "IT_TAEE85501P", "name": "GIOVANNI XXIII", "lat": 40.580529, "lon": 17.0414999, "city": "PALAGIANO", "public_private": "PUBLIC" }, "geometry": { "type": "Point", "coordinates": [ 17.041499900000076, 40.580529 ] } },
{ "type": "Feature", "properties": { "OBJECTID": 160978, "Shape": null, "id": "IT_VETL02101N", "name": "CARLO SCARPA", "lat": 45.6339486, "lon": 12.5512753, "city": "SAN DONA' DI PIAVE", "public_private": "PUBLIC" }, "geometry": { "type": "Point", "coordinates": [ 12.551275300000043, 45.633948600000053 ] } },
{ "type": "Feature", "properties": { "OBJECTID": 160979, "Shape": null, "id": "IT_MIAA8D9015", "name": "INFANZIA VIA CAVOUR", "lat": 45.5991631, "lon": 8.9108371, "city": "LEGNANO", "public_private": "PUBLIC" }, "geometry": { "type": "Point", "coordinates": [ 8.910837100000037, 45.599163100000055 ] } },
{ "type": "Feature", "properties": { "OBJECTID": 160980, "Shape": null, "id": "IT_GOAA80404D", "name": "SCUOLA DELL'INFANZIA VIA ROMA", "lat": 45.8074974, "lon": 13.5284153, "city": "MONFALCONE", "public_private": "PUBLIC" }, "geometry": { "type": "Point", "coordinates": [ 13.528415300000063, 45.807497400000045 ] } },
{ "type": "Feature", "properties": { "OBJECTID": 160981, "Shape": null, "id": "IT_MSEE80903T", "name": "\"CARLO FINELLI\" CARRARA AVENZA", "lat": 44.0484627, "lon": 10.0598418, "city": "CARRARA", "public_private": "PUBLIC" }, "geometry": { "type": "Point", "coordinates": [ 10.059841800000072, 44.048462700000073 ] } },
{ "type": "Feature", "properties": { "OBJECTID": 160982, "Shape": null, "id": "IT_VAAA877028", "name": "SC. INF.VIA PRADISERA", "lat": 45.6775287, "lon": 8.78998, "city": "GALLARATE", "public_private": "PUBLIC" }, "geometry": { "type": "Point", "coordinates": [ 8.78998, 45.677528700000039 ] } },
{ "type": "Feature", "properties": { "OBJECTID": 160983, "Shape": null, "id": "IT_RCAA854012", "name": "ROCCELLA JONICA VIA GIARDINI", "lat": 38.3193238, "lon": 16.3938977, "city": "ROCCELLA IONICA", "public_private": "PUBLIC" }, "geometry": { "type": "Point", "coordinates": [ 16.393897700000025, 38.319323800000063 ] } },
{ "type": "Feature", "properties": { "OBJECTID": 160984, "Shape": null, "id": "IT_TVIC86900T", "name": "IC CONEGLIANO 1 \"GRAVA\"", "lat": 45.8843571, "lon": 12.3040489, "city": "CONEGLIANO", "public_private": "PUBLIC" }, "geometry": { "type": "Point", "coordinates": [ 12.304048900000055, 45.884357100000045 ] } },
{ "type": "Feature", "properties": { "OBJECTID": 160985, "Shape": null, "id": "IT_NAPC180005", "name": "L.CLAS.PANSINI-NAPOLI-", "lat": 40.8465034, "lon": 14.22524292, "city": "NAPOLI", "public_private": "PUBLIC" }, "geometry": { "type": "Point", "coordinates": [ 14.225242920000028, 40.846503400000074 ] } },
{ "type": "Feature", "properties": { "OBJECTID": 160986, "Shape": null, "id": "IT_BLIS008006", "name": "ISTITUTO SUPERIORE DI FELTRE", "lat": 46.03166425, "lon": 11.90421358, "city": "FELTRE", "public_private": "PUBLIC" }, "geometry": { "type": "Point", "coordinates": [ 11.904213580000032, 46.031664250000063 ] } },
{ "type": "Feature", "properties": { "OBJECTID": 160987, "Shape": null, "id": "IT_TSIC81500Q", "name": "IST. COMPR. AI CAMPI ELISI", "lat": 45.63887, "lon": 13.76362, "city": "TRIESTE", "public_private": "PUBLIC" }, "geometry": { "type": "Point", "coordinates": [ 13.76362, 45.63887 ] } },
{ "type": "Feature", "properties": { "OBJECTID": 160988, "Shape": null, "id": "IT_TRMM82101L", "name": "CALVI DELL'UMBRIA\"R.FIORENTINI\"", "lat": 42.4032118, "lon": 12.5662331, "city": "CALVI DELL'UMBRIA", "public_private": "PUBLIC" }, "geometry": { "type": "Point", "coordinates": [ 12.566233100000034, 42.403211800000065 ] } },
{ "type": "Feature", "properties": { "OBJECTID": 160989, "Shape": null, "id": "IT_CAIS01600A", "name": "I.I.S.\"P. LEVI\" QUARTU S.E.", "lat": 39.24034, "lon": 9.20856, "city": "QUARTU SANT'ELENA", "public_private": "PUBLIC" }, "geometry": { "type": "Point", "coordinates": [ 9.20856, 39.24034 ] } },
{ "type": "Feature", "properties": { "OBJECTID": 160990, "Shape": null, "id": "IT_FGAA83105R", "name": "RIONE BELVEDERE", "lat": 41.7065076, "lon": 15.9519704, "city": "MONTE SANT'ANGELO", "public_private": "PUBLIC" }, "geometry": { "type": "Point", "coordinates": [ 15.95197040000005, 41.706507600000066 ] } },
{ "type": "Feature", "properties": { "OBJECTID": 160991, "Shape": null, "id": "IT_TOEE8BB01A", "name": "I.C. SETTIMO III M.RI LIBERTA'", "lat": 45.1416422, "lon": 7.763718, "city": "SETTIMO TORINESE", "public_private": "PUBLIC" }, "geometry": { "type": "Point", "coordinates": [ 7.763718, 45.141642200000035 ] } },
{ "type": "Feature", "properties": { "OBJECTID": 160992, "Shape": null, "id": "IT_TOIS03900T", "name": "I.I.S. P. MARTINETTI", "lat": 45.3029897, "lon": 7.885951, "city": "CALUSO", "public_private": "PUBLIC" }, "geometry": { "type": "Point", "coordinates": [ 7.885951, 45.302989700000069 ] } },
{ "type": "Feature", "properties": { "OBJECTID": 160993, "Shape": null, "id": "IT_RMTF350007", "name": "ITI M. FARADAY", "lat": 41.74174995, "lon": 12.28958778, "city": "ROMA", "public_private": "PUBLIC" }, "geometry": { "type": "Point", "coordinates": [ 12.289587780000033, 41.741749950000042 ] } },
{ "type": "Feature", "properties": { "OBJECTID": 160994, "Shape": null, "id": "IT_MNIC83000Q", "name": "I.C. DOSOLO POMPONESCO VIADANA", "lat": 45.0171838, "lon": 10.6294269, "city": "VIADANA", "public_private": "PUBLIC" }, "geometry": { "type": "Point", "coordinates": [ 10.629426900000055, 45.017183800000055 ] } },
{ "type": "Feature", "properties": { "OBJECTID": 160995, "Shape": null, "id": "IT_FIEE813033", "name": "BARGELLINI", "lat": 43.7969483, "lon": 11.2128757, "city": "FIRENZE", "public_private": "PUBLIC" }, "geometry": { "type": "Point", "coordinates": [ 11.212875700000041, 43.796948300000054 ] } },
{ "type": "Feature", "properties": { "OBJECTID": 160996, "Shape": null, "id": "IT_TEAA83702B", "name": "ARCOBALENO", "lat": 42.5555522, "lon": 14.089972, "city": "SILVI", "public_private": "PUBLIC" }, "geometry": { "type": "Point", "coordinates": [ 14.089972, 42.555552200000079 ] } },
{ "type": "Feature", "properties": { "OBJECTID": 160997, "Shape": null, "id": "IT_TAIC829004", "name": "I.C. \"G. SALVEMINI\"", "lat": 40.4008453, "lon": 17.2601241, "city": "TARANTO", "public_private": "PUBLIC" }, "geometry": { "type": "Point", "coordinates": [ 17.260124100000041, 40.400845300000071 ] } },
{ "type": "Feature", "properties": { "OBJECTID": 160998, "Shape": null, "id": "IT_CTEE83202X", "name": "P.SSA PIEMONTE", "lat": 37.8447603, "lon": 15.1390817, "city": "LINGUAGLOSSA", "public_private": "PUBLIC" }, "geometry": { "type": "Point", "coordinates": [ 15.139081700000077, 37.844760300000075 ] } },
{ "type": "Feature", "properties": { "OBJECTID": 160999, "Shape": null, "id": "IT_MIEE824012", "name": "PRIMARIA GIUSTI D'ASSISI", "lat": 45.4800916, "lon": 9.1768214, "city": "MILANO", "public_private": "PUBLIC" }, "geometry": { "type": "Point", "coordinates": [ 9.176821400000051, 45.480091600000037 ] } },
{ "type": "Feature", "properties": { "OBJECTID": 161000, "Shape": null, "id": "IT_BRAA02208X", "name": "CUORE DI GESU'", "lat": 40.8334135, "lon": 17.3571904, "city": "FASANO", "public_private": "PUBLIC" }, "geometry": { "type": "Point", "coordinates": [ 17.357190400000036, 40.833413500000063 ] } },
{ "type": "Feature", "properties": { "OBJECTID": 161001, "Shape": null, "id": "IT_RMEE8C602T", "name": "VIA GOLDONI 12", "lat": 41.5084186, "lon": 12.6228243, "city": "ANZIO", "public_private": "PUBLIC" }, "geometry": { "type": "Point", "coordinates": [ 12.622824300000048, 41.508418600000027 ] } },
{ "type": "Feature", "properties": { "OBJECTID": 161002, "Shape": null, "id": "IT_MEEE885049", "name": "FRAZ. PIANA", "lat": 38.06775, "lon": 14.63066, "city": "SANT'AGATA DI MILITELLO", "public_private": "PUBLIC" }, "geometry": { "type": "Point", "coordinates": [ 14.63066, 38.06775 ] } },
{ "type": "Feature", "properties": { "OBJECTID": 161003, "Shape": null, "id": "IT_VIAA87304R", "name": "E. PELLIZZARI", "lat": 45.40867, "lon": 11.58956, "city": "BARBARANO MOSSANO", "public_private": "PUBLIC" }, "geometry": { "type": "Point", "coordinates": [ 11.58956, 45.40867 ] } },
{ "type": "Feature", "properties": { "OBJECTID": 161004, "Shape": null, "id": "IT_PGEE80701Q", "name": "I.O. NORCIA ALCIDE DE GASPERI", "lat": 42.7882899, "lon": 13.1006041, "city": "NORCIA", "public_private": "PUBLIC" }, "geometry": { "type": "Point", "coordinates": [ 13.100604100000055, 42.788289900000052 ] } },
{ "type": "Feature", "properties": { "OBJECTID": 161005, "Shape": null, "id": "IT_ROMM811034", "name": "\"A. PALLADIO\" - FRATTA POLESINE", "lat": 45.0272299, "lon": 11.64125, "city": "FRATTA POLESINE", "public_private": "PUBLIC" }, "geometry": { "type": "Point", "coordinates": [ 11.64125, 45.027229900000066 ] } },
{ "type": "Feature", "properties": { "OBJECTID": 161006, "Shape": null, "id": "IT_PAMM8A7018", "name": "S.M.S. PRIVITERA", "lat": 38.0356522, "lon": 13.1125016, "city": "PARTINICO", "public_private": "PUBLIC" }, "geometry": { "type": "Point", "coordinates": [ 13.11250160000003, 38.035652200000072 ] } },
{ "type": "Feature", "properties": { "OBJECTID": 161007, "Shape": null, "id": "IT_LTIC832008", "name": "I.C. G.GIULIANO", "lat": 41.45428195, "lon": 12.91097855, "city": "LATINA", "public_private": "PUBLIC" }, "geometry": { "type": "Point", "coordinates": [ 12.910978550000038, 41.454281950000052 ] } },
{ "type": "Feature", "properties": { "OBJECTID": 161008, "Shape": null, "id": "IT_PASL03801Q", "name": "PIO LA TORRE", "lat": 38.116165, "lon": 13.33300556, "city": "PALERMO", "public_private": "PUBLIC" }, "geometry": { "type": "Point", "coordinates": [ 13.333005560000061, 38.116165 ] } },
{ "type": "Feature", "properties": { "OBJECTID": 161009, "Shape": null, "id": "IT_AVAA841019", "name": "SCUOLA DELL'INFANZIA CELZI", "lat": 40.8548677, "lon": 14.7481047, "city": "FORINO", "public_private": "PUBLIC" }, "geometry": { "type": "Point", "coordinates": [ 14.748104700000056, 40.854867700000057 ] } },
{ "type": "Feature", "properties": { "OBJECTID": 161010, "Shape": null, "id": "IT_TAAA84702G", "name": "DON BOSCO", "lat": 40.3953933, "lon": 17.6345108, "city": "MANDURIA", "public_private": "PUBLIC" }, "geometry": { "type": "Point", "coordinates": [ 17.634510800000044, 40.39539330000008 ] } },
{ "type": "Feature", "properties": { "OBJECTID": 161011, "Shape": null, "id": "IT_VRIC86300E", "name": "IC CAPRINO VERONESE", "lat": 45.6055931, "lon": 10.7985097, "city": "CAPRINO VERONESE", "public_private": "PUBLIC" }, "geometry": { "type": "Point", "coordinates": [ 10.798509700000068, 45.605593100000078 ] } },
{ "type": "Feature", "properties": { "OBJECTID": 161012, "Shape": null, "id": "IT_PEMM822027", "name": "S.M. CROCE - CIVITELLA CASANOVA", "lat": 42.36315, "lon": 13.88436, "city": "CIVITELLA CASANOVA", "public_private": "PUBLIC" }, "geometry": { "type": "Point", "coordinates": [ 13.88436, 42.36315 ] } },
{ "type": "Feature", "properties": { "OBJECTID": 161013, "Shape": null, "id": "IT_METD024013", "name": "ITC CAPO D'ORLANDO MERENDINO", "lat": 38.14944, "lon": 14.73458, "city": "CAPO D'ORLANDO", "public_private": "PUBLIC" }, "geometry": { "type": "Point", "coordinates": [ 14.73458, 38.14944 ] } },
{ "type": "Feature", "properties": { "OBJECTID": 161014, "Shape": null, "id": "IT_COEE82701N", "name": "APPIANO GENTILE", "lat": 45.73090145, "lon": 8.983391369, "city": "APPIANO GENTILE", "public_private": "PUBLIC" }, "geometry": { "type": "Point", "coordinates": [ 8.98339136900006, 45.730901450000033 ] } },
{ "type": "Feature", "properties": { "OBJECTID": 161015, "Shape": null, "id": "IT_CNAA81902T", "name": "INFANZIA DI LA MORRA", "lat": 44.6439842, "lon": 7.9300921, "city": "LA MORRA", "public_private": "PUBLIC" }, "geometry": { "type": "Point", "coordinates": [ 7.930092100000024, 44.643984200000034 ] } },
{ "type": "Feature", "properties": { "OBJECTID": 161016, "Shape": null, "id": "IT_AQAA052022", "name": "VIA GABRIELE D'ANNUNZIO", "lat": 42.0678699, "lon": 13.2595783, "city": "TAGLIACOZZO", "public_private": "PUBLIC" }, "geometry": { "type": "Point", "coordinates": [ 13.259578300000044, 42.067869900000062 ] } },
{ "type": "Feature", "properties": { "OBJECTID": 161017, "Shape": null, "id": "IT_RMAA8GW023", "name": "LEONARDA VACCARI", "lat": 41.9184118, "lon": 12.4583747, "city": "ROMA", "public_private": "PUBLIC" }, "geometry": { "type": "Point", "coordinates": [ 12.458374700000036, 41.918411800000058 ] } },
{ "type": "Feature", "properties": { "OBJECTID": 161018, "Shape": null, "id": "IT_PZAA85805X", "name": "RUVO DEL MONTE-S.ANNA", "lat": 40.85021, "lon": 15.542932, "city": "RUVO DEL MONTE", "public_private": "PUBLIC" }, "geometry": { "type": "Point", "coordinates": [ 15.542932, 40.85021 ] } },
{ "type": "Feature", "properties": { "OBJECTID": 161019, "Shape": null, "id": "IT_NACT705001", "name": "SMS ARIOSTO DI ARZANO", "lat": 40.916083, "lon": 14.2672995, "city": "ARZANO", "public_private": "PUBLIC" }, "geometry": { "type": "Point", "coordinates": [ 14.267299500000036, 40.916083 ] } },
{ "type": "Feature", "properties": { "OBJECTID": 161020, "Shape": null, "id": "IT_VBSL002013", "name": "L.A. \"FERRINI\"", "lat": 45.9290291, "lon": 8.563971, "city": "VERBANIA", "public_private": "PUBLIC" }, "geometry": { "type": "Point", "coordinates": [ 8.563971, 45.929029100000037 ] } },
{ "type": "Feature", "properties": { "OBJECTID": 161021, "Shape": null, "id": "IT_SAEE8AZ05P", "name": "LICINELLA", "lat": 40.4109477, "lon": 14.9948371, "city": "CAPACCIO PAESTUM", "public_private": "PUBLIC" }, "geometry": { "type": "Point", "coordinates": [ 14.994837100000041, 40.410947700000065 ] } },
{ "type": "Feature", "properties": { "OBJECTID": 161022, "Shape": null, "id": "IT_AREE821014", "name": "\"BANI\"", "lat": 43.5576498, "lon": 11.5322897, "city": "SAN GIOVANNI VALDARNO", "public_private": "PUBLIC" }, "geometry": { "type": "Point", "coordinates": [ 11.532289700000035, 43.557649800000036 ] } },
{ "type": "Feature", "properties": { "OBJECTID": 161023, "Shape": null, "id": "IT_BGRI00401X", "name": "\"ARCHIMEDE\"", "lat": 45.5086627, "lon": 9.6154404, "city": "TREVIGLIO", "public_private": "PUBLIC" }, "geometry": { "type": "Point", "coordinates": [ 9.615440400000068, 45.508662700000059 ] } },
{ "type": "Feature", "properties": { "OBJECTID": 161024, "Shape": null, "id": "IT_CLAA83101R", "name": "\"COSTA ZAMPOGNA\"", "lat": 37.0760612, "lon": 14.2400652, "city": "GELA", "public_private": "PUBLIC" }, "geometry": { "type": "Point", "coordinates": [ 14.24006520000006, 37.076061200000026 ] } },
{ "type": "Feature", "properties": { "OBJECTID": 161025, "Shape": null, "id": "IT_MNCT711007", "name": "CTP SUZZARA", "lat": 44.993192, "lon": 10.7322407, "city": "SUZZARA", "public_private": "PUBLIC" }, "geometry": { "type": "Point", "coordinates": [ 10.732240700000034, 44.993192 ] } },
{ "type": "Feature", "properties": { "OBJECTID": 161026, "Shape": null, "id": "IT_PDEE85804E", "name": "ROVOLON BASTIA", "lat": 45.3853787, "lon": 11.6516755, "city": "ROVOLON", "public_private": "PUBLIC" }, "geometry": { "type": "Point", "coordinates": [ 11.651675500000067, 45.385378700000047 ] } },
{ "type": "Feature", "properties": { "OBJECTID": 161027, "Shape": null, "id": "IT_COAA80301X", "name": "SCUOLA INFANZIA DI BARNI", "lat": 45.8967989, "lon": 9.262681, "city": "BARNI", "public_private": "PUBLIC" }, "geometry": { "type": "Point", "coordinates": [ 9.262681, 45.896798900000078 ] } },
{ "type": "Feature", "properties": { "OBJECTID": 161028, "Shape": null, "id": "IT_REEE85404G", "name": "\"L.SPALLANZANI\"", "lat": 44.59766, "lon": 10.68646, "city": "SCANDIANO", "public_private": "PUBLIC" }, "geometry": { "type": "Point", "coordinates": [ 10.68646, 44.59766 ] } },
{ "type": "Feature", "properties": { "OBJECTID": 161029, "Shape": null, "id": "IT_PEAA81702G", "name": "MANOPPELLO-RIPACORBARIA", "lat": 42.3032546, "lon": 14.0885214, "city": "MANOPPELLO", "public_private": "PUBLIC" }, "geometry": { "type": "Point", "coordinates": [ 14.088521400000047, 42.303254600000059 ] } },
{ "type": "Feature", "properties": { "OBJECTID": 161030, "Shape": null, "id": "IT_MEAA87304T", "name": "F.CRISPI", "lat": 38.2001888, "lon": 15.5555479, "city": "MESSINA", "public_private": "PUBLIC" }, "geometry": { "type": "Point", "coordinates": [ 15.555547900000022, 38.200188800000035 ] } },
{ "type": "Feature", "properties": { "OBJECTID": 161031, "Shape": null, "id": "IT_ATAA80105C", "name": "INFANZIA DI PIOVA' MASSAIA", "lat": 45.0514, "lon": 8.04951, "city": "PIOVA' MASSAIA", "public_private": "PUBLIC" }, "geometry": { "type": "Point", "coordinates": [ 8.04951, 45.0514 ] } },
{ "type": "Feature", "properties": { "OBJECTID": 161032, "Shape": null, "id": "IT_NAAA34801E", "name": "MELITO 3 - COLLODI", "lat": 40.9165416, "lon": 14.2308804, "city": "MELITO DI NAPOLI", "public_private": "PUBLIC" }, "geometry": { "type": "Point", "coordinates": [ 14.230880400000046, 40.916541600000073 ] } },
{ "type": "Feature", "properties": { "OBJECTID": 161033, "Shape": null, "id": "IT_POEE82201Q", "name": "ALBERTO MANZI", "lat": 43.9292992, "lon": 11.03876928, "city": "MONTEMURLO", "public_private": "PUBLIC" }, "geometry": { "type": "Point", "coordinates": [ 11.038769280000054, 43.929299200000059 ] } },
{ "type": "Feature", "properties": { "OBJECTID": 161034, "Shape": null, "id": "IT_AGAA833014", "name": "M. A. SERROVIRA", "lat": 37.1107503, "lon": 13.9239056, "city": "LICATA", "public_private": "PUBLIC" }, "geometry": { "type": "Point", "coordinates": [ 13.923905600000069, 37.110750300000063 ] } },
{ "type": "Feature", "properties": { "OBJECTID": 161035, "Shape": null, "id": "IT_NAEE8GT02T", "name": "NA IC - MICHELANGELO AUGUSTO", "lat": 40.8343174, "lon": 14.2001832, "city": "NAPOLI", "public_private": "PUBLIC" }, "geometry": { "type": "Point", "coordinates": [ 14.200183200000026, 40.834317400000032 ] } },
{ "type": "Feature", "properties": { "OBJECTID": 161036, "Shape": null, "id": "IT_PAMM871011", "name": "BUONARROTI MICHELANGELO", "lat": 38.1247608, "lon": 13.3085383, "city": "PALERMO", "public_private": "PUBLIC" }, "geometry": { "type": "Point", "coordinates": [ 13.308538300000066, 38.124760800000047 ] } },
{ "type": "Feature", "properties": { "OBJECTID": 161037, "Shape": null, "id": "IT_CHAA07203N", "name": "INCORONATA", "lat": 42.157103, "lon": 14.7012965, "city": "VASTO", "public_private": "PUBLIC" }, "geometry": { "type": "Point", "coordinates": [ 14.701296500000069, 42.157103 ] } },
{ "type": "Feature", "properties": { "OBJECTID": 161038, "Shape": null, "id": "IT_BNEE834039", "name": "TOCCO \"CAP.\"", "lat": 41.1258861, "lon": 14.6277486, "city": "TOCCO CAUDIO", "public_private": "PUBLIC" }, "geometry": { "type": "Point", "coordinates": [ 14.627748600000075, 41.125886100000059 ] } },
{ "type": "Feature", "properties": { "OBJECTID": 161039, "Shape": null, "id": "IT_ENAA06201T", "name": "PLESSO VIA GIUDECCA NICOSIA", "lat": 37.7477464, "lon": 14.401427, "city": "NICOSIA", "public_private": "PUBLIC" }, "geometry": { "type": "Point", "coordinates": [ 14.401427, 37.74774640000004 ] } },
{ "type": "Feature", "properties": { "OBJECTID": 161040, "Shape": null, "id": "IT_CATF031022", "name": "I.T.I. \"SCANO\" TEULADA", "lat": 38.9633152, "lon": 8.7625991, "city": "TEULADA", "public_private": "PUBLIC" }, "geometry": { "type": "Point", "coordinates": [ 8.762599100000045, 38.963315200000068 ] } },
{ "type": "Feature", "properties": { "OBJECTID": 161041, "Shape": null, "id": "IT_UDEE845061", "name": "ANTONIO BIDERNUCCIO - VENZONE", "lat": 46.3337685, "lon": 13.1393483, "city": "VENZONE", "public_private": "PUBLIC" }, "geometry": { "type": "Point", "coordinates": [ 13.139348300000051, 46.333768500000076 ] } },
{ "type": "Feature", "properties": { "OBJECTID": 161042, "Shape": null, "id": "IT_PGAA83702B", "name": "FRAZ. BUDINO", "lat": 42.9538877, "lon": 12.6332245, "city": "FOLIGNO", "public_private": "PUBLIC" }, "geometry": { "type": "Point", "coordinates": [ 12.63322450000004, 42.953887700000053 ] } },
{ "type": "Feature", "properties": { "OBJECTID": 161043, "Shape": null, "id": "IT_FIAA86901Q", "name": "IMMACOLATA", "lat": 43.76868, "lon": 11.11485, "city": "LASTRA A SIGNA", "public_private": "PUBLIC" }, "geometry": { "type": "Point", "coordinates": [ 11.11485, 43.76868 ] } },
{ "type": "Feature", "properties": { "OBJECTID": 161044, "Shape": null, "id": "IT_CBIC850008", "name": "\"LEOPOLDO MONTINI\"", "lat": 41.5873405, "lon": 14.6637396, "city": "CAMPOBASSO", "public_private": "PUBLIC" }, "geometry": { "type": "Point", "coordinates": [ 14.663739600000042, 41.587340500000039 ] } },
{ "type": "Feature", "properties": { "OBJECTID": 161045, "Shape": null, "id": "IT_BGTD014015", "name": "\"LORENZO LOTTO\"", "lat": 45.6903118, "lon": 9.8298375, "city": "TRESCORE BALNEARIO", "public_private": "PUBLIC" }, "geometry": { "type": "Point", "coordinates": [ 9.829837500000053, 45.690311800000075 ] } },
{ "type": "Feature", "properties": { "OBJECTID": 161046, "Shape": null, "id": "IT_TOAA894079", "name": "I.C. AZEGLIO - ALBIANO", "lat": 45.4333654, "lon": 7.9521612, "city": "ALBIANO D'IVREA", "public_private": "PUBLIC" }, "geometry": { "type": "Point", "coordinates": [ 7.952161200000035, 45.433365400000071 ] } },
{ "type": "Feature", "properties": { "OBJECTID": 161047, "Shape": null, "id": "IT_BAIS063003", "name": "I.I.S.S. \"G. MARCONI - MARGHERITA HACK\"", "lat": 41.11763705, "lon": 16.88791858, "city": "BARI", "public_private": "PUBLIC" }, "geometry": { "type": "Point", "coordinates": [ 16.887918580000076, 41.117637050000042 ] } },
{ "type": "Feature", "properties": { "OBJECTID": 161048, "Shape": null, "id": "IT_BSIC81600V", "name": "IC CENTRO 3 BRESCIA", "lat": 45.5358887, "lon": 10.2107569, "city": "BRESCIA", "public_private": "PUBLIC" }, "geometry": { "type": "Point", "coordinates": [ 10.210756900000035, 45.535888700000044 ] } },
{ "type": "Feature", "properties": { "OBJECTID": 161049, "Shape": null, "id": "IT_IMRI00802L", "name": "\"MARCONI\" PROFESSIONALE SANREMO", "lat": 43.8183005, "lon": 7.774764857, "city": "SANREMO", "public_private": "PUBLIC" }, "geometry": { "type": "Point", "coordinates": [ 7.774764857000036, 43.818300500000078 ] } },
{ "type": "Feature", "properties": { "OBJECTID": 161050, "Shape": null, "id": "IT_BAIC846005", "name": "I.C. \"CEGLIE-MANZONI LUCARELLI\"", "lat": 41.0659087, "lon": 16.8670868, "city": "BARI", "public_private": "PUBLIC" }, "geometry": { "type": "Point", "coordinates": [ 16.867086800000038, 41.06590870000008 ] } },
{ "type": "Feature", "properties": { "OBJECTID": 161051, "Shape": null, "id": "IT_REMM83601T", "name": "RUBIERA \" E. FERMI\"", "lat": 44.6497326, "lon": 10.7835929, "city": "RUBIERA", "public_private": "PUBLIC" }, "geometry": { "type": "Point", "coordinates": [ 10.783592900000031, 44.64973260000005 ] } },
{ "type": "Feature", "properties": { "OBJECTID": 161052, "Shape": null, "id": "IT_VTAA80805N", "name": "PIO FEDI - GRAFFIGNANO", "lat": 42.57336, "lon": 12.20363, "city": "GRAFFIGNANO", "public_private": "PUBLIC" }, "geometry": { "type": "Point", "coordinates": [ 12.20363, 42.57336 ] } },
{ "type": "Feature", "properties": { "OBJECTID": 161053, "Shape": null, "id": "IT_LCAA815021", "name": "INFANZIA GIANNI RODARI", "lat": 45.75647, "lon": 9.26366, "city": "NIBIONNO", "public_private": "PUBLIC" }, "geometry": { "type": "Point", "coordinates": [ 9.26366, 45.75647 ] } },
{ "type": "Feature", "properties": { "OBJECTID": 161054, "Shape": null, "id": "IT_ANEE82601B", "name": "FALCONARA \"MERCANTINI\"", "lat": 43.6224378, "lon": 13.4089139, "city": "FALCONARA MARITTIMA", "public_private": "PUBLIC" }, "geometry": { "type": "Point", "coordinates": [ 13.408913900000073, 43.622437800000057 ] } },
{ "type": "Feature", "properties": { "OBJECTID": 161055, "Shape": null, "id": "IT_TOMM81801N", "name": "I.C. GOZZI OLIVETTI - OLIVETTI", "lat": 45.06717465, "lon": 7.711945861, "city": "TORINO", "public_private": "PUBLIC" }, "geometry": { "type": "Point", "coordinates": [ 7.711945861000061, 45.067174650000027 ] } },
{ "type": "Feature", "properties": { "OBJECTID": 161056, "Shape": null, "id": "IT_RMAA83701B", "name": "JOAN MIRO'", "lat": 41.8435205, "lon": 12.605744, "city": "ROMA", "public_private": "PUBLIC" }, "geometry": { "type": "Point", "coordinates": [ 12.605744, 41.843520500000068 ] } },
{ "type": "Feature", "properties": { "OBJECTID": 161057, "Shape": null, "id": "IT_PNTF01000A", "name": "ITST KENNEDY", "lat": 45.9750227, "lon": 12.657972, "city": "PORDENONE", "public_private": "PUBLIC" }, "geometry": { "type": "Point", "coordinates": [ 12.657972, 45.975022700000068 ] } },
{ "type": "Feature", "properties": { "OBJECTID": 161058, "Shape": null, "id": "IT_APAA83402R", "name": "VIA ALFORTVILLE", "lat": 42.9103977, "lon": 13.8899278, "city": "SAN BENEDETTO DEL TRONTO", "public_private": "PUBLIC" }, "geometry": { "type": "Point", "coordinates": [ 13.889927800000066, 42.910397700000033 ] } },
{ "type": "Feature", "properties": { "OBJECTID": 161059, "Shape": null, "id": "IT_RMMM8AK01G", "name": "BUCCIANTE - PALOMBARA SABINA", "lat": 42.0698996, "lon": 12.7638065, "city": "PALOMBARA SABINA", "public_private": "PUBLIC" }, "geometry": { "type": "Point", "coordinates": [ 12.763806500000044, 42.069899600000042 ] } },
{ "type": "Feature", "properties": { "OBJECTID": 161060, "Shape": null, "id": "IT_TVMM85601R", "name": "SMS\"P.DA ZARA\"CARBONERA (I.C.)", "lat": 45.6816176, "lon": 12.2891644, "city": "CARBONERA", "public_private": "PUBLIC" }, "geometry": { "type": "Point", "coordinates": [ 12.289164400000061, 45.681617600000038 ] } },
{ "type": "Feature", "properties": { "OBJECTID": 161061, "Shape": null, "id": "IT_RCMM81505Q", "name": "PRIMO GRADO BENESTARE", "lat": 38.1864726, "lon": 16.1403966, "city": "BENESTARE", "public_private": "PUBLIC" }, "geometry": { "type": "Point", "coordinates": [ 16.140396600000031, 38.186472600000059 ] } },
{ "type": "Feature", "properties": { "OBJECTID": 161062, "Shape": null, "id": "IT_SSEE83602V", "name": "VIA ING. PORCHEDDU ITTIRI", "lat": 40.5986131, "lon": 8.5689018, "city": "ITTIRI", "public_private": "PUBLIC" }, "geometry": { "type": "Point", "coordinates": [ 8.568901800000049, 40.59861310000008 ] } },
{ "type": "Feature", "properties": { "OBJECTID": 161063, "Shape": null, "id": "IT_CTIC83700X", "name": "I.C. MOTTA SANT'ANASTASIA", "lat": 37.511706, "lon": 14.965761, "city": "MOTTA SANT'ANASTASIA", "public_private": "PUBLIC" }, "geometry": { "type": "Point", "coordinates": [ 14.965761, 37.511706 ] } },
{ "type": "Feature", "properties": { "OBJECTID": 161064, "Shape": null, "id": "IT_MOMM833011", "name": "FERRARI", "lat": 44.5262648, "lon": 10.867147, "city": "MARANELLO", "public_private": "PUBLIC" }, "geometry": { "type": "Point", "coordinates": [ 10.867147, 44.526264800000035 ] } },
{ "type": "Feature", "properties": { "OBJECTID": 161065, "Shape": null, "id": "IT_RMAA826011", "name": "QUARTO MIGLIO", "lat": 41.843806, "lon": 12.5453982, "city": "ROMA", "public_private": "PUBLIC" }, "geometry": { "type": "Point", "coordinates": [ 12.545398200000022, 41.843806 ] } },
{ "type": "Feature", "properties": { "OBJECTID": 161066, "Shape": null, "id": "IT_LERI049017", "name": "IPSIA-GALATINA", "lat": 40.1720169, "lon": 18.1567189, "city": "GALATINA", "public_private": "PUBLIC" }, "geometry": { "type": "Point", "coordinates": [ 18.156718900000044, 40.172016900000074 ] } },
{ "type": "Feature", "properties": { "OBJECTID": 161067, "Shape": null, "id": "IT_SIAA819013", "name": "CHIANCIANO TERME", "lat": 43.0581921, "lon": 11.8265826, "city": "CHIANCIANO TERME", "public_private": "PUBLIC" }, "geometry": { "type": "Point", "coordinates": [ 11.826582600000052, 43.058192100000042 ] } },
{ "type": "Feature", "properties": { "OBJECTID": 161068, "Shape": null, "id": "IT_TOIC8AL00D", "name": "I.C. CIRIE' II", "lat": 45.233966, "lon": 7.6020696, "city": "CIRIE'", "public_private": "PUBLIC" }, "geometry": { "type": "Point", "coordinates": [ 7.60206960000005, 45.233966 ] } },
{ "type": "Feature", "properties": { "OBJECTID": 161069, "Shape": null, "id": "IT_SAEE8B4012", "name": "SCUOLA PRIMARIA \"G.RODARI\" SA", "lat": 40.6853869, "lon": 14.7676016, "city": "SALERNO", "public_private": "PUBLIC" }, "geometry": { "type": "Point", "coordinates": [ 14.767601600000035, 40.685386900000026 ] } },
{ "type": "Feature", "properties": { "OBJECTID": 161070, "Shape": null, "id": "IT_RMMM8BR015", "name": "A. CAMPANILE", "lat": 41.7285958, "lon": 12.8351996, "city": "LARIANO", "public_private": "PUBLIC" }, "geometry": { "type": "Point", "coordinates": [ 12.835199600000067, 41.728595800000051 ] } },
{ "type": "Feature", "properties": { "OBJECTID": 161071, "Shape": null, "id": "IT_BAAA85703E", "name": "ALDO CAPITINI", "lat": 41.196114, "lon": 16.6121213, "city": "MOLFETTA", "public_private": "PUBLIC" }, "geometry": { "type": "Point", "coordinates": [ 16.612121300000069, 41.196114 ] } },
{ "type": "Feature", "properties": { "OBJECTID": 161072, "Shape": null, "id": "IT_GEAA824035", "name": "S.MAT. DI VIA TERPI", "lat": 44.4391065, "lon": 8.9664945, "city": "GENOVA", "public_private": "PUBLIC" }, "geometry": { "type": "Point", "coordinates": [ 8.966494500000067, 44.439106500000037 ] } },
{ "type": "Feature", "properties": { "OBJECTID": 161073, "Shape": null, "id": "IT_PDEE83701A", "name": "GALLIERA VENETA-\"G.G.GIARDINO\"", "lat": 45.6557608, "lon": 11.8121374, "city": "GALLIERA VENETA", "public_private": "PUBLIC" }, "geometry": { "type": "Point", "coordinates": [ 11.81213740000004, 45.655760800000053 ] } },
{ "type": "Feature", "properties": { "OBJECTID": 161074, "Shape": null, "id": "IT_TOIC8B700B", "name": "I.C. CORSO VERCELLI - TO", "lat": 45.1163309, "lon": 7.7015473, "city": "TORINO", "public_private": "PUBLIC" }, "geometry": { "type": "Point", "coordinates": [ 7.701547300000072, 45.116330900000037 ] } },
{ "type": "Feature", "properties": { "OBJECTID": 161075, "Shape": null, "id": "IT_LTAA83703A", "name": "MONTI AUSONI", "lat": 41.6007007, "lon": 12.63591, "city": "APRILIA", "public_private": "PUBLIC" }, "geometry": { "type": "Point", "coordinates": [ 12.63591, 41.600700700000061 ] } },
{ "type": "Feature", "properties": { "OBJECTID": 161076, "Shape": null, "id": "IT_BSIS036008", "name": "I.S.S. \"TARTAGLIA-OLIVIERI\"", "lat": 45.55978, "lon": 10.2176102, "city": "BRESCIA", "public_private": "PUBLIC" }, "geometry": { "type": "Point", "coordinates": [ 10.217610200000024, 45.55978 ] } },
{ "type": "Feature", "properties": { "OBJECTID": 161077, "Shape": null, "id": "IT_REMM81101D", "name": "S.M.S. REGGIOLO", "lat": 44.92289, "lon": 10.80352, "city": "REGGIOLO", "public_private": "PUBLIC" }, "geometry": { "type": "Point", "coordinates": [ 10.80352, 44.92289 ] } },
{ "type": "Feature", "properties": { "OBJECTID": 161078, "Shape": null, "id": "IT_FGAA830051", "name": "ZONA C STRADA 24", "lat": 41.706487, "lon": 15.961565, "city": "MONTE SANT'ANGELO", "public_private": "PUBLIC" }, "geometry": { "type": "Point", "coordinates": [ 15.961565, 41.706487 ] } },
{ "type": "Feature", "properties": { "OBJECTID": 161079, "Shape": null, "id": "IT_VIEE86804E", "name": "IC VICENZA 7 - DE AMICIS", "lat": 45.5643504, "lon": 11.5602023, "city": "VICENZA", "public_private": "PUBLIC" }, "geometry": { "type": "Point", "coordinates": [ 11.560202300000071, 45.56435040000008 ] } },
{ "type": "Feature", "properties": { "OBJECTID": 161080, "Shape": null, "id": "IT_RMIC8AT005", "name": "DON LORENZO MILANI", "lat": 41.81483105, "lon": 12.71718569, "city": "MONTE PORZIO CATONE", "public_private": "PUBLIC" }, "geometry": { "type": "Point", "coordinates": [ 12.717185690000065, 41.814831050000066 ] } },
{ "type": "Feature", "properties": { "OBJECTID": 161081, "Shape": null, "id": "IT_MIEE8FW014", "name": "PRIMARIA VIA DELL'ARCADIA", "lat": 45.41467, "lon": 9.1709011, "city": "MILANO", "public_private": "PUBLIC" }, "geometry": { "type": "Point", "coordinates": [ 9.170901100000037, 45.41467 ] } },
{ "type": "Feature", "properties": { "OBJECTID": 161082, "Shape": null, "id": "IT_CEEE8AQ01A", "name": "DE SANCTIS", "lat": 41.0317324, "lon": 14.3190125, "city": "MARCIANISE", "public_private": "PUBLIC" }, "geometry": { "type": "Point", "coordinates": [ 14.319012500000042, 41.031732400000067 ] } },
{ "type": "Feature", "properties": { "OBJECTID": 161083, "Shape": null, "id": "IT_PEEE810022", "name": "ROCCAMORICE-C.U.", "lat": 42.2134634, "lon": 14.0243919, "city": "ROCCAMORICE", "public_private": "PUBLIC" }, "geometry": { "type": "Point", "coordinates": [ 14.024391900000069, 42.21346340000008 ] } },
{ "type": "Feature", "properties": { "OBJECTID": 161084, "Shape": null, "id": "IT_BGIC81600A", "name": "BERGAMO - G.D. PETTENI", "lat": 45.7086338, "lon": 9.6961451, "city": "BERGAMO", "public_private": "PUBLIC" }, "geometry": { "type": "Point", "coordinates": [ 9.696145100000024, 45.70863380000003 ] } },